# Time(ns),period(us),execution,x,y,z,Vx,Vy,Vz,roll_OT,pitch_OT,yaw_OT,roll_PX4,pitch_PX4,yaw_PX4,imu_acc_x,imu_acc_y,imu_acc_z,imu_gyr_x,imu_gyr_y,imu_gyr_z,imu_mag_x,imu_mag_y,imu_mag_z,imu_absolute_pressure,ultrasonic_distance
2640166344804,9977,116,-0.0472905,-1.87434,-0.235353,0,0,0,-0.0486517,-0.00184061,0.0507437,-0.0151365,-0.0224704,2.63815,-0.208961,0.147193,-9.75181,-0.000295457,-0.00174865,0.000718139,-0.13435,-0.0865145,0.379724,1011.26,14
2640176517881,10173,115,-0.0472905,-1.87434,-0.235353,0,0,0,-0.0486517,-0.00184061,0.0507437,-0.015135,-0.0224685,2.63818,-0.206896,0.128683,-9.71271,0.000127987,-0.00111328,0.000709095,-0.13237,-0.08371,0.37912,1011.26,14
2640186892727,10366,124,-0.0471253,-1.87425,-0.235367,0.00846081,0.0041626,-0.000734711,-0.0475876,-0.00413445,0.0544703,-0.0151356,-0.0224654,2.63818,-0.225222,0.159563,-9.73811,0.000448696,-0.00196276,0.000691267,-0.13601,-0.0835593,0.380365,1011.26,14
2640196272727,9343,141,-0.0471253,-1.87425,-0.235367,0.00846081,0.0041626,-0.000734711,-0.0475876,-0.00413445,0.0544703,-0.015134,-0.0224602,2.63821,-0.225222,0.159563,-9.73811,0.000448696,-0.00196276,0.000691267,-0.13601,-0.0835593,0.380365,1011.26,14
2640206218727,9977,127,-0.0470695,-1.87449,-0.235551,0.00285606,-0.0123047,-0.00941467,-0.0562763,-0.00965601,0.0568221,-0.0151349,-0.0224625,2.63823,-0.204416,0.15517,-9.7038,-0.00037319,-0.00144288,0.00157501,-0.133225,-0.082996,0.379875,1011.2,14
2640216239034,10033,118,-0.0470695,-1.87449,-0.235551,0.00285606,-0.0123047,-0.00941467,-0.0562763,-0.00965601,0.0568221,-0.0151483,-0.0224593,2.63825,-0.217883,0.167179,-9.73357,0.000474063,-0.00111799,0.00144321,-0.132666,-0.0873958,0.37982,1011.2,14
2640226221881,9969,130,-0.0470343,-1.87428,-0.235393,0.0016372,0.00985995,0.00737832,-0.0490601,-0.00195382,0.0547415,-0.0151494,-0.0224591,2.63825,-0.221123,0.140621,-9.75132,-0.000271121,-0.0019672,0.0012534,-0.132146,-0.084986,0.378621,1011.2,14
2640236815804,10608,116,-0.0470343,-1.87428,-0.235393,0.0016372,0.00985995,0.00737832,-0.0490601,-0.00195382,0.0547415,-0.0151528,-0.0224598,2.63827,-0.215996,0.153375,-9.74299,0.000100773,-0.00132229,-3.30731e-05,-0.134535,-0.0835678,0.381355,1011.23,14
2640246201650,9386,115,-0.0470343,-1.87428,-0.235393,0.0016372,0.00985995,0.00737832,-0.0490601,-0.00195382,0.0547415,-0.0151597,-0.0224575,2.63829,-0.214411,0.142541,-9.73719,0.000423407,-0.00280798,-5.83914e-05,-0.134535,-0.0835678,0.381355,1011.23,14
2640256573958,10354,136,-0.0471972,-1.87448,-0.235658,-0.00834007,-0.0101868,-0.0135941,-0.0551259,-0.0113762,0.0581362,-0.0151583,-0.0224594,2.63831,-0.214411,0.142541,-9.73719,0.000423407,-0.00280798,-5.83914e-05,-0.134535,-0.0835678,0.381355,1011.23,14
2640266227265,9658,122,-0.0471217,-1.8743,-0.235263,0.00386486,0.00947266,0.0202492,-0.0478531,0.000334025,0.0539326,-0.015152,-0.0224604,2.63836,-0.211323,0.150285,-9.74348,0.000484577,-0.00197154,0.00175485,-0.135063,-0.082276,0.379943,1011.21,14
2640276257496,10006,141,-0.0471217,-1.8743,-0.235263,0.00386486,0.00947266,0.0202492,-0.0478531,0.000334025,0.0539326,-0.015148,-0.0224614,2.63837,-0.213132,0.139468,-9.77018,0.000437863,-0.00217376,0.000370169,-0.13465,-0.0830793,0.380323,1011.21,14
2640286213573,9986,123,-0.047201,-1.87429,-0.235259,-0.00405788,0.000360107,0.000189972,-0.0487043,-0.00306159,0.0524533,-0.015146,-0.0224611,2.63837,-0.222471,0.163295,-9.72231,0.0004416,-0.000896772,0.00048094,-0.133937,-0.0855579,0.380118,1011.21,14
2640296449034,10245,116,-0.047201,-1.87429,-0.235259,-0.00405788,0.000360107,0.000189972,-0.0487043,-0.00306159,0.0524533,-0.0151445,-0.0224527,2.6384,-0.217561,0.156727,-9.71681,-0.000399053,-0.00089858,0.000728646,-0.134779,-0.0821874,0.378893,1011.21,14
2640306325496,9863,128,-0.0471631,-1.87429,-0.235206,0.00176291,-3.32919e-05,0.00244626,-0.0462008,-0.00251276,0.0538438,-0.0151504,-0.0224514,2.63842,-0.217561,0.156727,-9.71681,-0.000399053,-0.00089858,0.000728646,-0.134779,-0.0821874,0.378893,1011.21,14
2640316258188,9911,142,-0.0471631,-1.87429,-0.235206,0.00176291,-3.32919e-05,0.00244626,-0.0462008,-0.00251276,0.0538438,-0.0151497,-0.0224561,2.63844,-0.213596,0.14531,-9.72748,0.000480914,-0.0017538,0.00164629,-0.137716,-0.0848326,0.379611,1011.29,14
2640326245496,9991,146,-0.0471166,-1.87447,-0.235617,0.00238037,-0.00896606,-0.0210075,-0.0560721,-0.0123798,0.0582845,-0.0151497,-0.0224561,2.63844,-0.213596,0.14531,-9.72748,0.000480914,-0.0017538,0.00164629,-0.137716,-0.0848326,0.379611,1011.29,14
2640336224188,9998,126,-0.0471166,-1.87447,-0.235617,0.00238037,-0.00896606,-0.0210075,-0.0560721,-0.0123798,0.0582845,-0.0151391,-0.0224602,2.63845,-0.239386,0.135973,-9.72444,0.000466512,-0.00281721,0.0012194,-0.132791,-0.0829048,0.3785,1011.16,14
2640346231342,9995,139,-0.0471166,-1.87447,-0.235617,0.00238037,-0.00896606,-0.0210075,-0.0560721,-0.0123798,0.0582845,-0.0151334,-0.0224653,2.63848,-0.213051,0.132342,-9.70888,0.00132846,-0.000695432,0.00141199,-0.135754,-0.0830634,0.378439,1011.16,14
2640356216881,10006,117,-0.0472199,-1.87431,-0.235437,-0.00528774,0.00809937,0.00921173,-0.0499691,-0.00257153,0.0518978,-0.0151224,-0.0224585,2.6385,-0.22947,0.147628,-9.77253,-0.000123325,-0.00121029,-0.000348089,-0.132782,-0.0828465,0.381142,1011.2,14
2640366261419,10005,143,-0.0471123,-1.87431,-0.235354,0.00551071,-0.000299072,0.00423965,-0.0487994,-0.00262218,0.0532253,-0.01512,-0.0224543,2.63851,-0.22947,0.147628,-9.77253,-0.000123325,-0.00121029,-0.000348089,-0.132782,-0.0828465,0.381142,1011.2,14
2640376534111,10313,120,-0.0471123,-1.87431,-0.235354,0.00551071,-0.000299072,0.00423965,-0.0487994,-0.00262218,0.0532253,-0.01512,-0.0224613,2.63854,-0.237535,0.163048,-9.76716,0.000122608,-0.00134006,0.000494434,-0.134684,-0.0865113,0.379335,1011.2,14
2640386688034,10145,127,-0.0472761,-1.87431,-0.235305,-0.00762471,0.000138716,0.00227148,-0.0468775,-0.00199985,0.0514758,-0.0151231,-0.0224651,2.63859,-0.223268,0.166116,-9.76373,0.000448842,-0.0014368,0.000695602,-0.135103,-0.0812262,0.378752,1011.2,14
2640396288496,9556,149,-0.0472761,-1.87431,-0.235305,-0.00762471,0.000138716,0.00227148,-0.0468775,-0.00199985,0.0514758,-0.0151204,-0.0224713,2.63861,-0.223268,0.166116,-9.76373,0.000448842,-0.0014368,0.000695602,-0.135103,-0.0812262,0.378752,1011.2,14
2640406217342,9974,127,-0.0472448,-1.87444,-0.235594,0.00160313,-0.00653076,-0.014801,-0.0569913,-0.010483,0.0573886,-0.0151173,-0.0224743,2.63861,-0.221162,0.149183,-9.73833,0.000430729,-0.00121525,0.000158688,-0.132173,-0.0832995,0.377836,1011.23,14
2640416254111,10021,132,-0.0472448,-1.87444,-0.235594,0.00160313,-0.00653076,-0.014801,-0.0569913,-0.010483,0.0573886,-0.0151126,-0.0224748,2.63864,-0.230214,0.161013,-9.70144,0.000466363,-0.00271348,0.00121493,-0.134898,-0.0820373,0.380099,1011.23,14
2640426208034,9981,114,-0.047149,-1.87447,-0.235439,0.00490494,-0.00186157,0.00793457,-0.0597617,-0.0136503,0.0566039,-0.0151146,-0.0224764,2.63867,-0.218625,0.172415,-9.75507,-0.000621822,-0.00111127,0.000522499,-0.133758,-0.0816228,0.378303,1011.23,14
2640436204573,9998,112,-0.047149,-1.87447,-0.235439,0.00490494,-0.00186157,0.00793457,-0.0597617,-0.0136503,0.0566039,-0.0151254,-0.0224768,2.63869,-0.216806,0.153823,-9.7378,-8.61978e-05,-0.00196101,0.000496329,-0.132806,-0.0828406,0.380422,1011.22,14
2640446194342,9995,108,-0.047149,-1.87447,-0.235439,0.00490494,-0.00186157,0.00793457,-0.0597617,-0.0136503,0.0566039,-0.015131,-0.0224816,2.63871,-0.201012,0.14505,-9.75185,0.000661123,-0.00207104,0.000683208,-0.132071,-0.0844247,0.378463,1011.22,14
2640456351265,10144,121,-0.0471756,-1.87449,-0.235682,-0.00136509,-0.000921631,-0.0124199,-0.0540814,-0.011485,0.0576131,-0.0151302,-0.0224819,2.63872,-0.216928,0.144922,-9.73271,-0.00041984,-0.000894193,0.000196953,-0.134152,-0.0829239,0.380867,1011.22,14
2640466552650,10211,113,-0.0473283,-1.87437,-0.235283,-0.00710435,0.005532,0.0185637,-0.0469081,-0.00136255,0.0508235,-0.0151294,-0.0224801,2.63874,-0.216928,0.144922,-9.73271,-0.00041984,-0.000894193,0.000196953,-0.134152,-0.0829239,0.380867,1011.22,14
2640476214957,9652,119,-0.0473283,-1.87437,-0.235283,-0.00710435,0.005532,0.0185637,-0.0469081,-0.00136255,0.0508235,-0.0151306,-0.0224814,2.63876,-0.229559,0.152545,-9.72835,-0.000614769,-0.00142575,0.000731575,-0.132207,-0.0829907,0.3792,1011.24,14
2640486205957,9999,115,-0.0472704,-1.87436,-0.235348,0.0029644,0.00090332,-0.00333328,-0.0478504,-0.00164015,0.0511877,-0.0151384,-0.0224816,2.63877,-0.203137,0.144332,-9.75588,-0.000593985,-0.00196788,0.00134768,-0.135198,-0.0855427,0.37832,1011.24,14
2640496464419,10263,109,-0.0472704,-1.87436,-0.235348,0.0029644,0.00090332,-0.00333328,-0.0478504,-0.00164015,0.0511877,-0.015147,-0.0224832,2.63878,-0.218547,0.15547,-9.73683,-7.02958e-06,-0.00151942,-0.000251485,-0.133987,-0.0865251,0.380992,1011.24,14
2640506560573,10073,133,-0.047086,-1.87448,-0.23577,0.00943928,-0.00647583,-0.0216118,-0.0525597,-0.0104956,0.057694,-0.01515,-0.0224831,2.63878,-0.218438,0.147807,-9.73592,0.000420266,-0.00152574,-0.000151471,-0.132875,-0.0838032,0.380737,1011.24,14
2640516495496,9937,129,-0.047086,-1.87448,-0.23577,0.00943928,-0.00647583,-0.0216118,-0.0525597,-0.0104956,0.057694,-0.0151484,-0.0224783,2.6388,-0.221102,0.167725,-9.73859,0.000689463,-0.00132678,0.0013556,-0.136066,-0.0837054,0.378684,1011.26,14
2640526288880,9804,119,-0.0472492,-1.87432,-0.23528,-0.00835533,0.0083313,0.0251038,-0.0482659,-0.00236273,0.0522076,-0.0151481,-0.0224756,2.63882,-0.221102,0.167725,-9.73859,0.000689463,-0.00132678,0.0013556,-0.136066,-0.0837054,0.378684,1011.26,14
2640536203419,9919,116,-0.0472492,-1.87432,-0.23528,-0.00835533,0.0083313,0.0251038,-0.0482659,-0.00236273,0.0522076,-0.0151592,-0.0224726,2.63885,-0.232096,0.150705,-9.70167,-0.0010038,-0.00143891,0.00180945,-0.133741,-0.0841265,0.381164,1011.26,14
2640546195034,9990,117,-0.0472492,-1.87432,-0.23528,-0.00835533,0.0083313,0.0251038,-0.0482659,-0.00236273,0.0522076,-0.0151592,-0.0224726,2.63885,-0.227079,0.14187,-9.71567,-0.000801527,-0.00228284,0.00147864,-0.133332,-0.0856293,0.379056,1011.21,14
2640556357419,10162,118,-0.0471789,-1.87432,-0.235355,0.00326972,-0.000249689,-0.00348178,-0.0493052,-0.00253009,0.0523175,-0.0151777,-0.0224764,2.63886,-0.211943,0.142337,-9.71453,-0.00040574,-0.00174479,0.000513583,-0.132594,-0.0858739,0.37959,1011.21,14
2640566719727,10365,115,-0.0471681,-1.87428,-0.235287,0.00055275,0.00212402,0.0034462,-0.0481345,-0.00198278,0.0535317,-0.0151796,-0.0224774,2.63886,-0.228637,0.139694,-9.76746,0.000246155,-0.00249285,0.00100342,-0.131573,-0.0862693,0.378992,1011.23,14
2640576853188,10130,119,-0.0471681,-1.87428,-0.235287,0.00055275,0.00212402,0.0034462,-0.0481345,-0.00198278,0.0535317,-0.0151799,-0.0224829,2.63886,-0.218491,0.139626,-9.75185,0.000566748,-0.00196621,0.00110522,-0.131573,-0.0862693,0.378992,1011.23,14
2640586521265,9672,113,-0.0471477,-1.87428,-0.235257,0.00104828,0.000372314,0.00153885,-0.047396,-0.00316841,0.0538405,-0.0151754,-0.0224844,2.63887,-0.194497,0.152222,-9.77255,0.000470691,-0.000903886,0.00134324,-0.133404,-0.0842713,0.37931,1011.23,14
2640596209880,9683,119,-0.0471477,-1.87428,-0.235257,0.00104828,0.000372314,0.00153885,-0.047396,-0.00316841,0.0538405,-0.015172,-0.0224759,2.63888,-0.219329,0.152092,-9.72697,1.85e-05,-0.000157499,0.000509565,-0.133404,-0.0842713,0.37931,1011.23,14
2640606194880,9991,112,-0.0471354,-1.8744,-0.235612,0.000627327,-0.00616455,-0.0181358,-0.0560183,-0.0127155,0.0593152,-0.0151722,-0.0224647,2.6389,-0.219329,0.152092,-9.72697,1.85e-05,-0.000157499,0.000509565,-0.133404,-0.0842713,0.37931,1011.23,14
2640616208957,10010,117,-0.0471354,-1.8744,-0.235612,0.000627327,-0.00616455,-0.0181358,-0.0560183,-0.0127155,0.0593152,-0.0151675,-0.022455,2.63893,-0.224965,0.145572,-9.70116,0.00105218,-0.00195399,-0.00039388,-0.133811,-0.0836294,0.379089,1011.23,14
2640626192726,9995,108,-0.0471354,-1.8744,-0.235612,0.000627327,-0.00616455,-0.0181358,-0.0560183,-0.0127155,0.0593152,-0.0151675,-0.022455,2.63893,-0.230141,0.135812,-9.71462,-0.000517186,-0.00196097,0.000506693,-0.132647,-0.0820208,0.378022,1011.19,14
2640636220111,10011,120,-0.0472173,-1.8743,-0.235385,-0.00381331,0.00469416,0.0105223,-0.0503276,-0.00297666,0.052178,-0.0151627,-0.0224694,2.63894,-0.230141,0.135812,-9.71462,-0.000517186,-0.00196097,0.000506693,-0.132647,-0.0820208,0.378022,1011.19,14
2640646591111,10381,116,-0.0471833,-1.87442,-0.235469,0.00174274,-0.00647583,-0.00428467,-0.0590472,-0.0139182,0.0572927,-0.0151603,-0.0224707,2.63895,-0.210477,0.149774,-9.74939,0.000466357,-0.00196708,0.00121475,-0.13241,-0.0833801,0.377923,1011.23,14
2640656210726,9613,117,-0.0471833,-1.87442,-0.235469,0.00174274,-0.00647583,-0.00428467,-0.0590472,-0.0139182,0.0572927,-0.0151579,-0.0224714,2.63898,-0.210477,0.149774,-9.74939,0.000466357,-0.00196708,0.00121475,-0.13241,-0.0833801,0.377923,1011.23,14
2640666877419,10672,115,-0.0471299,-1.87428,-0.235281,0.00273476,0.00708008,0.00964432,-0.0478824,0.000418528,0.0539126,-0.0151559,-0.0224715,2.63899,-0.226184,0.130127,-9.71038,0.000982433,-0.0021751,0.000671511,-0.133444,-0.0848214,0.378106,1011.21,14
2640676215111,9331,120,-0.0471299,-1.87428,-0.235281,0.00273476,0.00708008,0.00964432,-0.0478824,0.000418528,0.0539126,-0.0151476,-0.022476,2.63901,-0.226184,0.130127,-9.71038,0.000982433,-0.0021751,0.000671511,-0.133444,-0.0848214,0.378106,1011.21,14
2640686286265,10083,110,-0.0472887,-1.87445,-0.235621,-0.00813046,-0.00871582,-0.0174393,-0.0564985,-0.00989625,0.0574778,-0.015152,-0.0224813,2.639,-0.219925,0.135352,-9.73676,-0.00160941,-0.00120225,-0.000297888,-0.132997,-0.0877932,0.379508,1011.21,14
2640696881265,10593,113,-0.0472887,-1.87445,-0.235621,-0.00813046,-0.00871582,-0.0174393,-0.0564985,-0.00989625,0.0574778,-0.0151565,-0.0224811,2.63899,-0.216851,0.157677,-9.74316,-0.000559059,-0.000887165,-0.000651113,-0.134284,-0.0874712,0.379313,1011.21,14
2640706318957,9434,116,-0.0472801,-1.87433,-0.235359,0.000437546,0.00626831,0.013427,-0.048341,-0.00156696,0.051514,-0.0151654,-0.0224722,2.63899,-0.213061,0.148439,-9.72453,0.00145843,-0.00142365,-0.000941836,-0.133462,-0.0832366,0.379961,1011.21,14
2640716203880,9884,115,-0.0472801,-1.87433,-0.235359,0.000437546,0.00626831,0.013427,-0.048341,-0.00156696,0.051514,-0.0151621,-0.0224698,2.63899,-0.220775,0.144671,-9.76256,0.0008923,-0.000690129,0.0012191,-0.133462,-0.0832366,0.379961,1011.17,14
2640726210803,10001,116,-0.0472698,-1.87438,-0.235346,0.000483253,-0.00233598,0.000598561,-0.0629697,-0.0161564,0.0572281,-0.0151522,-0.0224613,2.639,-0.220775,0.144671,-9.76256,0.0008923,-0.000690129,0.0012191,-0.133462,-0.0832366,0.379961,1011.17,14
2640736217034,10005,119,-0.0472698,-1.87438,-0.235346,0.000483253,-0.00233598,0.000598561,-0.0629697,-0.0161564,0.0572281,-0.0151481,-0.02245,2.63904,-0.232863,0.150005,-9.73768,0.000484902,-0.000802404,0.00176448,-0.134082,-0.0825213,0.380548,1011.17,14
2640746190342,9988,105,-0.0471048,-1.87429,-0.235259,0.00844574,0.00460815,0.00444641,-0.0457474,0.000294029,0.0552369,-0.0151481,-0.02245,2.63904,-0.232863,0.150005,-9.73768,0.000484902,-0.000802404,0.00176448,-0.134082,-0.0825213,0.380548,1011.17,14
2640756185419,10002,101,-0.0471048,-1.87429,-0.235259,0.00844574,0.00460815,0.00444641,-0.0457474,0.000294029,0.0552369,-0.0151481,-0.02245,2.63904,-0.232863,0.150005,-9.73768,0.000484902,-0.000802404,0.00176448,-0.134082,-0.0825213,0.380548,1011.17,14
2640766184342,9991,109,-0.0472512,-1.87443,-0.23555,-0.00749302,-0.00726318,-0.0148994,-0.0578626,-0.0107628,0.0574104,-0.0151481,-0.02245,2.63904,-0.232863,0.150005,-9.73768,0.000484902,-0.000802404,0.00176448,-0.134082,-0.0825213,0.380548,1011.17,14
2640776190803,10010,105,-0.0472512,-1.87443,-0.23555,-0.00749302,-0.00726318,-0.0148994,-0.0578626,-0.0107628,0.0574104,-0.0151481,-0.02245,2.63904,-0.232863,0.150005,-9.73768,0.000484902,-0.000802404,0.00176448,-0.134082,-0.0825213,0.380548,1011.17,14
2640786193496,9997,107,-0.0470962,-1.87426,-0.23529,0.00793419,0.00901489,0.0133369,-0.0480311,-0.00297447,0.0551359,-0.0151481,-0.02245,2.63904,-0.232863,0.150005,-9.73768,0.000484902,-0.000802404,0.00176448,-0.134082,-0.0825213,0.380548,1011.17,14
2640796210803,10011,115,-0.0470962,-1.87426,-0.23529,0.00793419,0.00901489,0.0133369,-0.0480311,-0.00297447,0.0551359,-0.0151436,-0.0224299,2.63909,-0.219451,0.153883,-9.6881,0.000822616,-0.00197593,0.00227597,-0.134174,-0.0857185,0.380205,1011.18,14
2640806541726,10335,112,-0.0472492,-1.87434,-0.23539,-0.00711979,-0.00363991,-0.00465254,-0.0484485,-0.0015734,0.0511741,-0.0151353,-0.0224305,2.6391,-0.198588,0.13843,-9.72824,0.000219092,-0.00163725,0.00016662,-0.13232,-0.0862627,0.378217,1011.18,14
2640816206265,9664,113,-0.0472492,-1.87434,-0.23539,-0.00711979,-0.00363991,-0.00465254,-0.0484485,-0.0015734,0.0511741,-0.0151361,-0.0224326,2.63911,-0.215083,0.15563,-9.72829,0.000661597,-0.00228109,0.00068146,-0.132516,-0.0852333,0.379512,1011.21,14
2640826600957,10407,104,-0.0470982,-1.8743,-0.235398,0.00773048,0.00166016,-0.000405121,-0.0455323,-0.00142778,0.0550193,-0.0151369,-0.022437,2.63912,-0.22577,0.160944,-9.76083,-0.000366049,-0.00101696,0.00179142,-0.132969,-0.0865198,0.380318,1011.21,14
2640836210649,9594,116,-0.0470982,-1.8743,-0.235398,0.00773048,0.00166016,-0.000405121,-0.0455323,-0.00142778,0.0550193,-0.0151404,-0.022438,2.63913,-0.22577,0.160944,-9.76083,-0.000366049,-0.00101696,0.00179142,-0.132969,-0.0865198,0.380318,1011.21,14
2640846378649,10174,112,-0.047188,-1.87428,-0.235321,-0.00459824,0.00109253,0.00392075,-0.0480876,-0.00206149,0.0530503,-0.0151407,-0.0224419,2.63915,-0.229272,0.142541,-9.74444,0.000596441,-0.0021569,-0.00113125,-0.132969,-0.0865198,0.380318,1011.21,14
2640856214188,9827,118,-0.047188,-1.87428,-0.235321,-0.00459824,0.00109253,0.00392075,-0.0480876,-0.00206149,0.0530503,-0.0151299,-0.0224551,2.63918,-0.219601,0.138138,-9.72618,0.00106577,-0.000999119,-7.06512e-05,-0.132537,-0.0821881,0.378898,1011.24,14
2640866580188,10377,110,-0.0471436,-1.87433,-0.235509,0.00227394,-0.00251465,-0.00963058,-0.060413,-0.0124218,0.0581621,-0.0151249,-0.0224569,2.63919,-0.220663,0.148176,-9.7521,0.000416493,-0.00163566,-0.000263296,-0.132911,-0.0858746,0.379681,1011.24,14
2640876209034,9620,116,-0.0471436,-1.87433,-0.235509,0.00227394,-0.00251465,-0.00963058,-0.060413,-0.0124218,0.0581621,-0.0151193,-0.0224624,2.63922,-0.226035,0.145148,-9.76259,-0.000294947,-0.00164271,0.000718995,-0.136444,-0.0834707,0.379339,1011.24,14
2640886196265,9997,109,-0.0471135,-1.87432,-0.23541,0.00140017,0.00028853,0.00463659,-0.0485392,-0.00300054,0.0535372,-0.0151196,-0.0224631,2.63922,-0.211033,0.162378,-9.7519,0.000448696,-0.00196276,0.000691268,-0.133028,-0.0833054,0.378585,1011.24,14
2640896730572,10529,113,-0.0471135,-1.87432,-0.23541,0.00140017,0.00028853,0.00463659,-0.0485392,-0.00300054,0.0535372,-0.0151258,-0.022466,2.63925,-0.217539,0.172151,-9.72224,-0.000723128,-0.00228023,0.000728182,-0.133814,-0.0836287,0.379009,1011.24,14
2640906200880,9470,113,-0.0472484,-1.87434,-0.235386,-0.00690575,-0.000842285,0.00121613,-0.0486574,-0.00204179,0.0514688,-0.0151345,-0.0224682,2.63928,-0.231225,0.158865,-9.76779,-0.000402541,-0.00185734,0.000720855,-0.133618,-0.0811574,0.380064,1011.24,14
2640916198803,10001,112,-0.0472484,-1.87434,-0.235386,-0.00690575,-0.000842285,0.00121613,-0.0486574,-0.00204179,0.0514688,-0.0151354,-0.0224685,2.63929,-0.226817,0.134969,-9.75159,0.000477332,-0.00228425,0.0015401,-0.133618,-0.0811574,0.380064,1011.24,14
2640926201034,9993,117,-0.0472575,-1.87435,-0.235384,-0.000469398,-0.0003479,8.62122e-05,-0.0483454,-0.00169226,0.0511359,-0.0151344,-0.0224769,2.63933,-0.226817,0.134969,-9.75159,0.000477332,-0.00228425,0.0015401,-0.133618,-0.0811574,0.380064,1011.24,14
2640936755419,10559,115,-0.0472575,-1.87435,-0.235384,-0.000469398,-0.0003479,8.62122e-05,-0.0483454,-0.00169226,0.0511359,-0.0151338,-0.0224811,2.63935,-0.210486,0.147953,-9.71626,0.000139377,-0.00270397,0.000695588,-0.131854,-0.0825986,0.380152,1011.23,14
2640946209880,9446,119,-0.0471471,-1.87434,-0.235401,0.00565186,0.00022583,-0.000852966,-0.0490872,-0.00326833,0.0528054,-0.0151419,-0.0224871,2.63938,-0.210486,0.147953,-9.71626,0.000139377,-0.00270397,0.000695588,-0.131854,-0.0825986,0.380152,1011.23,14
2640956840265,10644,111,-0.0471471,-1.87434,-0.235401,0.00565186,0.00022583,-0.000852966,-0.0490872,-0.00326833,0.0528054,-0.0151455,-0.0224935,2.6394,-0.225238,0.162363,-9.73142,0.000324568,-0.00195839,0.000164257,-0.133419,-0.0827474,0.378843,1011.18,14
2640966590726,9757,104,-0.0471471,-1.87434,-0.235401,0.00565186,0.00022583,-0.000852966,-0.0490872,-0.00326833,0.0528054,-0.0151463,-0.0224952,2.63941,-0.225238,0.162363,-9.73142,0.000324568,-0.00195839,0.000164257,-0.133419,-0.0827474,0.378843,1011.18,14
2640976210342,9607,115,-0.0472084,-1.87449,-0.235629,-0.00284958,-0.00676935,-0.0105972,-0.0567807,-0.0120287,0.057942,-0.01515,-0.0225023,2.63943,-0.222386,0.174611,-9.76045,0.000245462,-0.00175132,0.00101544,-0.13305,-0.0858601,0.377924,1011.25,14
2640986204880,9995,112,-0.0471877,-1.87429,-0.235287,0.00105629,0.0100159,0.017482,-0.0472285,-0.00349024,0.0534167,-0.0151544,-0.0225024,2.63945,-0.199119,0.143373,-9.697,-0.000796897,-0.00197063,0.00168798,-0.133622,-0.0831566,0.379967,1011.25,14
2640996743265,10542,113,-0.0471877,-1.87429,-0.235287,0.00105629,0.0100159,0.017482,-0.0472285,-0.00349024,0.0534167,-0.0151596,-0.0225017,2.63947,-0.211018,0.1541,-9.7998,0.000448458,-0.0028201,0.000684203,-0.132903,-0.0830569,0.377542,1011.25,14
2641006218649,9462,123,-0.0472179,-1.87432,-0.235295,-0.00154667,-0.00114136,-0.000408936,-0.0487084,-0.0026222,0.051942,-0.0151624,-0.022507,2.63949,-0.211018,0.1541,-9.7998,0.000448458,-0.0028201,0.000684203,-0.132903,-0.0830569,0.377542,1011.25,14
2641016220342,10002,121,-0.0472179,-1.87432,-0.235295,-0.00154667,-0.00114136,-0.000408936,-0.0487084,-0.0026222,0.051942,-0.0151628,-0.0225089,2.63949,-0.22927,0.153489,-9.75251,-0.000553656,-0.0012329,0.0025431,-0.132076,-0.0846032,0.380703,1011.25,14
2641026204726,9991,114,-0.0472009,-1.87431,-0.235338,0.000870132,0.000512695,-0.00219955,-0.0489379,-0.00210883,0.0524797,-0.0151674,-0.022508,2.63954,-0.21269,0.125945,-9.72897,0.00130394,-0.000899439,0.000775525,-0.135136,-0.0830582,0.377778,1011.18,14
2641036208265,10005,114,-0.0472009,-1.87431,-0.235338,0.000870132,0.000512695,-0.00219955,-0.0489379,-0.00210883,0.0524797,-0.0151563,-0.0225041,2.63957,-0.202282,0.141821,-9.76772,0.000894814,-0.00207532,0.00141989,-0.135116,-0.0818026,0.380749,1011.18,14
2641046188034,9991,104,-0.0472142,-1.87432,-0.235266,-0.000617114,-0.000454989,0.00335347,-0.0476707,-0.00186608,0.0524397,-0.0151487,-0.0225044,2.63957,-0.23232,0.131698,-9.78575,0.00122924,-0.00197154,0.00172972,-0.132948,-0.0870051,0.380953,1011.2,14
2641056212418,10013,114,-0.0472142,-1.87432,-0.235266,-0.000617114,-0.000454989,0.00335347,-0.0476707,-0.00186608,0.0524397,-0.0151442,-0.0225056,2.63958,-0.239141,0.147682,-9.74652,0.000484429,-0.00250269,0.00175047,-0.132948,-0.0870051,0.380953,1011.2,14
2641066576034,10364,118,-0.0471917,-1.87432,-0.235398,0.00115337,-0.000140381,-0.00673904,-0.0505734,-0.00308636,0.0520868,-0.0151362,-0.0225152,2.63959,-0.239141,0.147682,-9.74652,0.000484429,-0.00250269,0.00175047,-0.132948,-0.0870051,0.380953,1011.2,14
2641076211111,9634,117,-0.0471917,-1.87432,-0.235398,0.00115337,-0.000140381,-0.00673904,-0.0505734,-0.00308636,0.0520868,-0.0151342,-0.0225194,2.63961,-0.222202,0.150234,-9.71751,0.000580293,-0.0019689,0.00143178,-0.132196,-0.0831533,0.379519,1011.2,14
2641086677342,10472,114,-0.0472332,-1.87432,-0.235366,-0.00212688,0.000128174,0.00161362,-0.0494906,-0.0023528,0.0517332,-0.0151239,-0.0225289,2.63964,-0.230601,0.14897,-9.72929,0.00151204,-0.00292129,0.000647487,-0.135482,-0.0833914,0.379388,1011.19,14
2641096212188,9527,118,-0.0472332,-1.87432,-0.235366,-0.00212688,0.000128174,0.00161362,-0.0494906,-0.0023528,0.0517332,-0.0151178,-0.022532,2.63964,-0.230601,0.14897,-9.72929,0.00151204,-0.00292129,0.000647487,-0.135482,-0.0833914,0.379388,1011.19,14
2641106623880,10423,111,-0.0472516,-1.87433,-0.235344,-0.000941086,-0.000769043,0.00114517,-0.0482126,-0.0019683,0.0515394,-0.0151174,-0.022533,2.63964,-0.251194,0.177225,-9.75668,0.00015493,-0.00153747,0.00144463,-0.134652,-0.0859394,0.377898,1011.19,14
2641116216111,9581,116,-0.0472516,-1.87433,-0.235344,-0.000941086,-0.000769043,0.00114517,-0.0482126,-0.0019683,0.0515394,-0.0151186,-0.0225346,2.63965,-0.251194,0.177225,-9.75668,0.00015493,-0.00153747,0.00144463,-0.134652,-0.0859394,0.377898,1011.19,14
2641126208495,9994,115,-0.0470587,-1.87432,-0.2354,0.00898066,0.000654741,-0.00260024,-0.0483979,-0.00315479,0.0541178,-0.0151351,-0.0225418,2.63966,-0.20917,0.165071,-9.74429,0.000945505,-0.00195486,-0.000284977,-0.131879,-0.0853126,0.37941,1011.2,14
2641136267034,10063,115,-0.0470587,-1.87432,-0.2354,0.00898066,0.000654741,-0.00260024,-0.0483979,-0.00315479,0.0541178,-0.0151329,-0.0225443,2.63967,-0.235903,0.151976,-9.72126,0.00116631,-0.00216831,-0.000186794,-0.132815,-0.0852385,0.380163,1011.2,14
2641146185649,9921,108,-0.0471618,-1.8743,-0.235271,-0.00527973,0.000970459,0.00658112,-0.0473725,-0.00321792,0.0538319,-0.0151281,-0.0225495,2.63968,-0.226311,0.168359,-9.7054,0.000524907,-0.00195485,-0.000271031,-0.134259,-0.0826575,0.377671,1011.2,14
2641156560418,10375,112,-0.0471618,-1.8743,-0.235271,-0.00527973,0.000970459,0.00658112,-0.0473725,-0.00321792,0.0538319,-0.0151265,-0.0225563,2.63969,-0.210826,0.166108,-9.72245,0.00150157,-0.00196014,0.000337033,-0.135035,-0.0833034,0.378413,1011.23,14
2641166446265,9883,113,-0.0472648,-1.87435,-0.235333,-0.00527649,-0.00282593,-0.0031517,-0.0483386,-0.00173137,0.0511968,-0.015124,-0.0225584,2.63971,-0.221156,0.151813,-9.76494,0.000448696,-0.00196276,0.000691267,-0.135035,-0.0833034,0.378413,1011.23,14
2641176547649,10104,112,-0.0472648,-1.87435,-0.235333,-0.00527649,-0.00282593,-0.0031517,-0.0483386,-0.00173137,0.0511968,-0.0151219,-0.0225591,2.63972,-0.221156,0.151813,-9.76494,0.000448696,-0.00196276,0.000691267,-0.135035,-0.0833034,0.378413,1011.23,14
2641186200034,9649,114,-0.0471712,-1.87451,-0.235713,0.00479374,-0.00782471,-0.0194672,-0.0545309,-0.0100475,0.0572089,-0.0151237,-0.0225597,2.63972,-0.23152,0.157598,-9.76209,-0.000317101,-0.00195723,7.80983e-05,-0.129723,-0.083952,0.379269,1011.2,14
2641196485418,10280,121,-0.0471712,-1.87451,-0.235713,0.00479374,-0.00782471,-0.0194672,-0.0545309,-0.0100475,0.0572089,-0.0151257,-0.0225597,2.63974,-0.228852,0.149597,-9.71865,0.000764973,-0.00132302,0.000471039,-0.134453,-0.0817088,0.379046,1011.2,14
2641206300495,9825,110,-0.0472525,-1.87434,-0.235381,-0.0041605,0.0086792,0.0170082,-0.0489834,-0.00189169,0.0515178,-0.0151249,-0.0225579,2.63974,-0.233139,0.133326,-9.75182,2.31591e-05,-0.00154137,0.000811908,-0.13385,-0.0861801,0.377949,1011.2,14
2641216897880,10595,114,-0.0472525,-1.87434,-0.235381,-0.0041605,0.0086792,0.0170082,-0.0489834,-0.00189169,0.0515178,-0.0151239,-0.0225579,2.63977,-0.195687,0.140051,-9.72567,0.00139857,-0.00269769,0.000440187,-0.1334,-0.0854528,0.377059,1011.2,14
2641226564341,9671,109,-0.0471818,-1.87426,-0.235236,0.00329052,0.00354559,0.00671595,-0.0454078,-0.00330188,0.0541518,-0.0151221,-0.0225608,2.63977,-0.230275,0.164104,-9.73977,-0.000294918,-0.00291961,0.00070846,-0.1334,-0.0854528,0.377059,1011.2,14
2641236216726,9636,123,-0.0471818,-1.87426,-0.235236,0.00329052,0.00354559,0.00671595,-0.0454078,-0.00330188,0.0541518,-0.0151205,-0.0225695,2.63977,-0.230275,0.164104,-9.73977,-0.000294918,-0.00291961,0.00070846,-0.1334,-0.0854528,0.377059,1011.2,14
2641246195572,9996,108,-0.0471014,-1.87426,-0.23537,0.00411243,0.000250244,-0.00685883,-0.0475802,-0.00461323,0.0546799,-0.015121,-0.0225727,2.63979,-0.215524,0.138511,-9.77131,-0.00061483,-0.00164683,0.000729753,-0.134832,-0.0852339,0.379671,1011.2,14
2641256208495,10003,114,-0.0471014,-1.87426,-0.23537,0.00411243,0.000250244,-0.00685883,-0.0475802,-0.00461323,0.0546799,-0.0151187,-0.0225721,2.63981,-0.206853,0.161184,-9.73301,0.00151231,-0.00196276,0.000655385,-0.133848,-0.0842799,0.380366,1011.2,14
2641266439495,10244,105,-0.0471014,-1.87426,-0.23537,0.00411243,0.000250244,-0.00685883,-0.0475802,-0.00461323,0.0546799,-0.0151212,-0.0225735,2.63982,-0.194038,0.154442,-9.74955,-0.000305093,-0.00196017,0.000402452,-0.133076,-0.0843533,0.379539,1011.19,14
2641276270188,9818,117,-0.0471616,-1.87427,-0.235237,-0.00307732,-0.000817871,0.00680695,-0.0458973,-0.00208118,0.0539392,-0.0151239,-0.0225732,2.63982,-0.207683,0.157769,-9.75787,-0.000621956,-0.00143465,0.000518531,-0.13539,-0.0861146,0.379762,1011.19,14
2641286558572,10297,107,-0.0472677,-1.87433,-0.235344,-0.00543346,-0.00283813,-0.00547256,-0.0484932,-0.00187984,0.0512705,-0.0151383,-0.0225673,2.63984,-0.223089,0.147982,-9.70289,-0.000436985,-0.000889806,-0.000334863,-0.134726,-0.0844208,0.378073,1011.2,14
2641296343572,9780,114,-0.0472677,-1.87433,-0.235344,-0.00543346,-0.00283813,-0.00547256,-0.0484932,-0.00187984,0.0512705,-0.0151404,-0.0225651,2.63984,-0.224224,0.174815,-9.72923,0.00141654,-0.00122114,0.000984859,-0.135453,-0.0826588,0.377872,1011.2,14
2641306321034,9980,111,-0.0471734,-1.8744,-0.235554,0.00438708,-0.00324596,-0.00973858,-0.0587629,-0.0122185,0.0575969,-0.0151417,-0.0225634,2.63987,-0.224224,0.174815,-9.72923,0.00141654,-0.00122114,0.000984859,-0.135453,-0.0826588,0.377872,1011.2,14
2641316217880,9882,121,-0.0471734,-1.8744,-0.235554,0.00438708,-0.00324596,-0.00973858,-0.0587629,-0.0122185,0.0575969,-0.0151414,-0.0225597,2.63988,-0.224224,0.174815,-9.72923,0.00141654,-0.00122114,0.000984859,-0.135453,-0.0826588,0.377872,1011.2,14
2641326209880,9998,117,-0.0471722,-1.87421,-0.235255,6.23703e-05,0.00949097,0.0152718,-0.0464194,-0.00060378,0.0549699,-0.0151475,-0.0225518,2.63988,-0.244402,0.160536,-9.71377,0.000902682,-0.0011166,0.00174779,-0.131656,-0.0851487,0.378924,1011.2,14
2641336202264,9997,116,-0.0471722,-1.87421,-0.235255,6.23703e-05,0.00949097,0.0152718,-0.0464194,-0.00060378,0.0549699,-0.0151492,-0.0225566,2.63989,-0.217219,0.14671,-9.72094,0.000253507,-0.00250137,0.00122611,-0.132042,-0.0862719,0.379328,1011.25,14
2641346801726,10609,107,-0.0472178,-1.87429,-0.235315,-0.00233288,-0.00426025,-0.00304794,-0.0478639,-0.0023972,0.0525053,-0.0151504,-0.0225666,2.63991,-0.201748,0.131924,-9.72115,-0.000115904,-0.00184451,-0.000353571,-0.133772,-0.0838595,0.377885,1011.25,14
2641356226957,9415,117,-0.0472178,-1.87429,-0.235315,-0.00233288,-0.00426025,-0.00304794,-0.0478639,-0.0023972,0.0525053,-0.0151518,-0.0225664,2.63992,-0.218932,0.142136,-9.78106,0.000484668,-0.00164737,0.00175752,-0.133417,-0.084108,0.378912,1011.28,14
2641366200803,9973,115,-0.0472433,-1.87432,-0.235319,-0.00130711,-0.00133057,-0.000202942,-0.0477252,-0.00231862,0.0521504,-0.0151503,-0.0225664,2.63994,-0.218932,0.142136,-9.78106,0.000484668,-0.00164737,0.00175752,-0.133417,-0.084108,0.378912,1011.28,14
2641376223726,10012,123,-0.0472433,-1.87432,-0.235319,-0.00130711,-0.00133057,-0.000202942,-0.0477252,-0.00231862,0.0521504,-0.0151509,-0.0225693,2.63994,-0.235491,0.15815,-9.76007,-0.000253247,-0.00175883,0.00178149,-0.133417,-0.084108,0.378912,1011.28,14
2641386199187,9988,116,-0.0472433,-1.87432,-0.235319,-0.00130711,-0.00133057,-0.000202942,-0.0477252,-0.00231862,0.0521504,-0.0151535,-0.0225666,2.63995,-0.238361,0.149792,-9.70787,1.06069e-05,-0.00111181,0.000713067,-0.133247,-0.0857106,0.379213,1011.21,14
2641396211803,10006,118,-0.0471361,-1.87433,-0.235406,0.00499049,-0.000466087,-0.00407826,-0.0502269,-0.00280156,0.0527712,-0.0151638,-0.0225714,2.63995,-0.22994,0.161686,-9.76423,-0.000618782,-0.0024954,0.000612628,-0.133636,-0.0859532,0.379544,1011.21,14
2641406206264,9999,114,-0.0471372,-1.8743,-0.235286,-5.95093e-05,0.00167847,0.00615692,-0.0474568,0.000280567,0.0537208,-0.0151667,-0.0225746,2.63995,-0.20323,0.136327,-9.73856,0.000477401,-0.00196978,0.00154213,-0.133658,-0.086508,0.3789,1011.21,14
2641416920726,10720,112,-0.0471372,-1.8743,-0.235286,-5.95093e-05,0.00167847,0.00615692,-0.0474568,0.000280567,0.0537208,-0.0151614,-0.0225731,2.63999,-0.213157,0.134067,-9.72855,2.3106e-05,-0.00238579,0.000702136,-0.133643,-0.0823514,0.379334,1011.21,14
2641426198187,9276,113,-0.0472649,-1.87435,-0.23538,-0.0065382,-0.00249023,-0.00479431,-0.0483049,-0.00140309,0.051255,-0.0151536,-0.0225754,2.64001,-0.222929,0.137741,-9.72859,0.00130905,-0.00142896,0.000881013,-0.134632,-0.0817842,0.378492,1011.21,14
2641436213187,10008,117,-0.0472649,-1.87435,-0.23538,-0.0065382,-0.00249023,-0.00479431,-0.0483049,-0.00140309,0.051255,-0.0151483,-0.0225764,2.64002,-0.216184,0.174353,-9.73213,-0.000394416,-0.00196452,0.000933253,-0.132092,-0.0837993,0.38023,1011.22,14
2641446782572,10580,111,-0.04703,-1.87448,-0.235535,0.0120277,-0.00701904,-0.0079422,-0.0558726,-0.00978205,0.0567431,-0.0151447,-0.0225736,2.64004,-0.209545,0.15957,-9.74259,-5.29978e-05,-0.00197072,0.00167366,-0.132092,-0.0837993,0.38023,1011.22,14
2641456215187,9419,120,-0.04703,-1.87448,-0.235535,0.0120277,-0.00701904,-0.0079422,-0.0558726,-0.00978205,0.0567431,-0.01515,-0.022576,2.64006,-0.209545,0.15957,-9.74259,-5.29978e-05,-0.00197072,0.00167366,-0.132092,-0.0837993,0.38023,1011.22,14
2641466197264,9993,111,-0.04703,-1.87448,-0.235535,0.0120277,-0.00701904,-0.0079422,-0.0558726,-0.00978205,0.0567431,-0.0151582,-0.0225806,2.64008,-0.232227,0.144511,-9.73988,-0.000582393,-0.000906461,0.00169125,-0.134073,-0.085864,0.378439,1011.24,14
2641476209957,10008,117,-0.0473055,-1.87435,-0.235329,-0.0128219,0.00634211,0.00958113,-0.0471851,-0.00119245,0.0507076,-0.0151614,-0.0225833,2.64011,-0.223873,0.170985,-9.76855,0.000448666,-0.00207197,0.000690367,-0.13307,-0.0830747,0.379709,1011.24,14
2641486552880,10347,114,-0.0471419,-1.87421,-0.23522,0.00837479,0.00679932,0.00557556,-0.0459309,-0.001011,0.0532404,-0.0151574,-0.022588,2.64015,-0.23158,0.170022,-9.73568,0.000445055,-0.00196187,0.000583318,-0.13304,-0.0826019,0.380592,1011.24,14
2641496582957,10030,114,-0.0471419,-1.87421,-0.23522,0.00837479,0.00679932,0.00557556,-0.0459309,-0.001011,0.0532404,-0.0151574,-0.022588,2.64015,-0.203339,0.153777,-9.75975,0.00100504,-0.00218635,0.00142063,-0.133965,-0.0821107,0.379267,1011.26,14
2641506218341,9621,124,-0.047293,-1.87436,-0.235358,-0.0077343,-0.0072876,-0.00705338,-0.0478752,-0.0012773,0.0506102,-0.015152,-0.0225908,2.64019,-0.203339,0.153777,-9.75975,0.00100504,-0.00218635,0.00142063,-0.133965,-0.0821107,0.379267,1011.26,14
2641516216110,10003,119,-0.047293,-1.87436,-0.235358,-0.0077343,-0.0072876,-0.00705338,-0.0478752,-0.0012773,0.0506102,-0.0151554,-0.0225915,2.64022,-0.224495,0.159258,-9.75977,0.00128801,-0.00196015,0.000346159,-0.134914,-0.0807534,0.37963,1011.26,14
2641526202803,9994,116,-0.0471698,-1.87429,-0.235326,0.00630703,0.00328369,0.00164337,-0.0482058,-0.0019915,0.0528439,-0.0151545,-0.0225924,2.64024,-0.224495,0.159258,-9.75977,0.00128801,-0.00196015,0.000346159,-0.134914,-0.0807534,0.37963,1011.26,14
2641536214418,10004,121,-0.0471698,-1.87429,-0.235326,0.00630703,0.00328369,0.00164337,-0.0482058,-0.0019915,0.0528439,-0.0151524,-0.0225957,2.64025,-0.238217,0.151209,-9.72728,0.000448906,-0.00120558,0.000697507,-0.13635,-0.0850548,0.377402,1011.26,14
2641546196341,9992,110,-0.0472868,-1.87434,-0.235352,-0.00544687,-0.00238037,-0.0012318,-0.0483103,-0.00145631,0.0508065,-0.0151477,-0.0225926,2.64027,-0.224599,0.141857,-9.74674,0.000466732,-0.000902917,0.00122587,-0.132723,-0.0827613,0.3805,1011.26,14
2641556212341,10010,117,-0.0472868,-1.87434,-0.235352,-0.00544687,-0.00238037,-0.0012318,-0.0483103,-0.00145631,0.0508065,-0.0151404,-0.0225898,2.64026,-0.211863,0.140789,-9.73777,0.00149458,-0.00163729,0.000129965,-0.13598,-0.0890672,0.378877,1011.26,14
2641566204341,9996,114,-0.0472705,-1.87435,-0.23538,0.000836945,-0.000201416,-0.00142822,-0.0480955,-0.00152272,0.0509163,-0.0151302,-0.0225919,2.64025,-0.222879,0.149286,-9.72565,0.00100598,-0.00122064,0.00120864,-0.133956,-0.0874732,0.379543,1011.27,14
2641576215726,10003,119,-0.0472705,-1.87435,-0.23538,0.000836945,-0.000201416,-0.00142822,-0.0480955,-0.00152272,0.0509163,-0.0151189,-0.0225885,2.64028,-0.216886,0.15715,-9.76141,-0.000136914,-0.00141748,-0.000885628,-0.135515,-0.0849034,0.378416,1011.27,14
2641586203572,9997,111,-0.0472705,-1.87435,-0.23538,0.000836945,-0.000201416,-0.00142822,-0.0480955,-0.00152272,0.0509163,-0.0151189,-0.0225874,2.64029,-0.219228,0.16713,-9.75364,-0.00064326,-0.000359981,-0.000112957,-0.130123,-0.084272,0.37928,1011.21,14
2641596207110,10003,114,-0.0472302,-1.87431,-0.235298,0.00206013,0.00180054,0.00419769,-0.0486383,-0.00228676,0.0517416,-0.0151214,-0.0225858,2.64029,-0.219228,0.16713,-9.75364,-0.00064326,-0.000359981,-0.000112957,-0.130123,-0.084272,0.37928,1011.21,14
2641606199187,9993,113,-0.0472161,-1.87449,-0.235721,0.000722694,-0.00893555,-0.0216286,-0.0537926,-0.00997703,0.0577987,-0.0151299,-0.0225785,2.6403,-0.219069,0.151979,-9.7254,0.000987756,-0.00164798,0.000785681,-0.133273,-0.0828241,0.378437,1011.21,14
2641616210726,10007,116,-0.0472161,-1.87449,-0.235721,0.000722694,-0.00893555,-0.0216286,-0.0537926,-0.00997703,0.0577987,-0.015124,-0.022576,2.6403,-0.230411,0.141072,-9.76952,0.00121395,-0.0014272,0.00121023,-0.132119,-0.0853926,0.379418,1011.21,14
2641626197572,9995,109,-0.0472846,-1.87434,-0.235295,-0.00318666,0.00704679,0.0198302,-0.0473927,-0.00128322,0.0509761,-0.0151172,-0.0225757,2.6403,-0.207085,0.144761,-9.71076,0.000957315,-0.00226616,-0.000176904,-0.13394,-0.0875572,0.380022,1011.21,14
2641636205803,10003,113,-0.0472846,-1.87434,-0.235295,-0.00318666,0.00704679,0.0198302,-0.0473927,-0.00128322,0.0509761,-0.0151134,-0.0225784,2.64032,-0.231001,0.145216,-9.7112,-0.000121375,-0.00120833,-0.000243515,-0.134102,-0.0844366,0.379973,1011.21,14
2641646192495,9996,104,-0.0471781,-1.87429,-0.235168,0.00545464,0.00239258,0.00648193,-0.0468484,-0.00208949,0.0535064,-0.0151151,-0.0225775,2.64032,-0.217208,0.135897,-9.74251,-6.92781e-05,-0.00217934,0.00102839,-0.133707,-0.0817954,0.379821,1011.26,14
2641656213880,10004,120,-0.0471781,-1.87429,-0.235168,0.00545464,0.00239258,0.00648193,-0.0468484,-0.00208949,0.0535064,-0.0151181,-0.0225751,2.64034,-0.217208,0.135897,-9.74251,-6.92781e-05,-0.00217934,0.00102839,-0.133707,-0.0817954,0.379821,1011.26,14
2641666188649,9990,107,-0.0471781,-1.87429,-0.235168,0.00545464,0.00239258,0.00648193,-0.0468484,-0.00208949,0.0535064,-0.0151129,-0.0225748,2.64037,-0.206954,0.144874,-9.74905,0.000987755,-0.000898579,0.000681861,-0.134486,-0.0838608,0.378069,1011.26,14
2641676203033,10011,111,-0.0471781,-1.87429,-0.235168,0.00545464,0.00239258,0.00648193,-0.0468484,-0.00208949,0.0535064,-0.0151085,-0.0225688,2.64037,-0.220473,0.165558,-9.73183,0.000131748,-0.00122056,0.000812706,-0.134638,-0.0874024,0.380687,1011.15,14
2641686211264,9994,121,-0.0471554,-1.87446,-0.235623,0.00196705,-0.00817871,-0.0156395,-0.0557979,-0.0106529,0.0579813,-0.0151103,-0.0225689,2.6404,-0.216964,0.156541,-9.72106,0.000448726,-0.00185637,0.000692144,-0.134478,-0.0828228,0.378318,1011.15,14
2641696214572,10006,118,-0.0471554,-1.87446,-0.235623,0.00196705,-0.00817871,-0.0156395,-0.0557979,-0.0106529,0.0579813,-0.0151115,-0.0225766,2.6404,-0.240744,0.166426,-9.72921,-0.000123836,-0.00216204,-0.000355922,-0.13486,-0.0869073,0.378857,1011.19,14
2641706417033,10212,113,-0.0471998,-1.87446,-0.235521,-0.00227623,-0.000152588,0.00526733,-0.0585757,-0.0116778,0.0573934,-0.0151135,-0.0225797,2.64041,-0.240744,0.166426,-9.72921,-0.000123836,-0.00216204,-0.000355922,-0.13486,-0.0869073,0.378857,1011.19,14
2641716209110,9787,119,-0.0471998,-1.87446,-0.235521,-0.00227623,-0.000152588,0.00526733,-0.0585757,-0.0116778,0.0573934,-0.0151184,-0.0225832,2.64045,-0.240744,0.166426,-9.72921,-0.000123836,-0.00216204,-0.000355922,-0.13486,-0.0869073,0.378857,1011.19,14
2641726193110,9997,107,-0.047278,-1.87434,-0.235394,-0.00363905,0.00573176,0.00588504,-0.0479973,-0.000971393,0.0510196,-0.015113,-0.0225776,2.64051,-0.221975,0.148508,-9.73427,-0.000614622,-0.000898579,0.000735919,-0.135962,-0.0830714,0.379406,1011.19,14
2641736211880,10008,113,-0.047278,-1.87434,-0.235394,-0.00363905,0.00573176,0.00588504,-0.0479973,-0.000971393,0.0510196,-0.0151112,-0.0225683,2.64054,-0.218619,0.165188,-9.73405,0.000456109,-0.00111317,0.000910998,-0.133285,-0.0814007,0.380451,1011.19,14
2641746652726,10452,107,-0.047278,-1.87434,-0.235394,-0.00363905,0.00573176,0.00588504,-0.0479973,-0.000971393,0.0510196,-0.0151105,-0.022563,2.64057,-0.200877,0.157969,-9.75348,0.000719295,-0.00144675,0.00228074,-0.13532,-0.083232,0.379463,1011.26,14
2641756742956,10085,110,-0.0472581,-1.87434,-0.235391,0.00102234,0.000146484,0.000139618,-0.0480788,-0.00198065,0.0512614,-0.0151099,-0.0225625,2.64057,-0.224568,0.143666,-9.78962,0.000484577,-0.00197154,0.00175485,-0.134072,-0.0854038,0.380844,1011.26,14
2641766204187,9452,114,-0.0471902,-1.87431,-0.235188,0.00347595,0.00143433,0.0104042,-0.0466023,-0.00212557,0.0536223,-0.0151095,-0.0225641,2.6406,-0.224568,0.143666,-9.78962,0.000484577,-0.00197154,0.00175485,-0.134072,-0.0854038,0.380844,1011.26,14
2641776476033,10278,113,-0.0471902,-1.87431,-0.235188,0.00347595,0.00143433,0.0104042,-0.0466023,-0.00212557,0.0536223,-0.0151136,-0.0225746,2.64065,-0.227252,0.164258,-9.72732,0.000652688,-0.00196101,0.000471107,-0.1333,-0.0813365,0.382373,1011.2,14
2641786756956,10279,116,-0.0472219,-1.87433,-0.235399,-0.00162315,-0.000842285,-0.0107735,-0.0494272,-0.00285219,0.0517696,-0.0151143,-0.0225762,2.64065,-0.242977,0.141175,-9.77661,0.000987504,-0.00163914,0.000888733,-0.134952,-0.0838641,0.378485,1011.2,14
2641796234341,9472,120,-0.0472219,-1.87433,-0.235399,-0.00162315,-0.000842285,-0.0107735,-0.0494272,-0.00285219,0.0517696,-0.0151127,-0.0225774,2.64067,-0.197942,0.132113,-9.71808,-9.93697e-05,-0.00195836,0.000175622,-0.13488,-0.0850819,0.380634,1011.19,14
2641806820726,10594,114,-0.0472061,-1.87432,-0.235395,0.000732942,0.000199751,0.000164379,-0.0504629,-0.00325775,0.0520633,-0.0151134,-0.0225758,2.64069,-0.2063,0.161576,-9.75102,0.000134391,-0.000793328,0.000817713,-0.133186,-0.0808453,0.381012,1011.19,14
2641816208495,9383,116,-0.0472061,-1.87432,-0.235395,0.000732942,0.000199751,0.000164379,-0.0504629,-0.00325775,0.0520633,-0.01512,-0.0225672,2.64073,-0.225923,0.152042,-9.72366,-0.000633142,-0.00195831,0.000186943,-0.133186,-0.0808453,0.381012,1011.19,14
2641826203033,9995,114,-0.0471349,-1.87433,-0.235325,0.00364876,-0.000634766,0.0036087,-0.0491679,-0.00286545,0.0530027,-0.0151276,-0.0225671,2.64073,-0.225923,0.152042,-9.72366,-0.000633142,-0.00195831,0.000186943,-0.133186,-0.0808453,0.381012,1011.19,14
2641836372879,10175,112,-0.0471349,-1.87433,-0.235325,0.00364876,-0.000634766,0.0036087,-0.0491679,-0.00286545,0.0530027,-0.0151443,-0.0225666,2.64076,-0.231801,0.16115,-9.72792,-0.000607723,-0.00185772,0.000940426,-0.13511,-0.0841847,0.378568,1011.19,14
2641846195110,9824,109,-0.0471204,-1.87427,-0.23532,0.000740242,0.00308228,0.000255585,-0.0468915,-0.00273588,0.0546441,-0.0151479,-0.0225655,2.64077,-0.231801,0.16115,-9.72792,-0.000607723,-0.00185772,0.000940426,-0.13511,-0.0841847,0.378568,1011.19,14
2641856202418,10004,112,-0.0471204,-1.87427,-0.23532,0.000740242,0.00308228,0.000255585,-0.0468915,-0.00273588,0.0546441,-0.0151485,-0.0225636,2.64079,-0.245209,0.131348,-9.76376,0.000466751,-0.00080764,0.00122642,-0.133539,-0.0841973,0.380036,1011.25,14
2641866195803,9995,112,-0.0471277,-1.87444,-0.235522,-0.000371933,-0.00874634,-0.0103607,-0.0583689,-0.0138073,0.0569948,-0.0151466,-0.0225627,2.64079,-0.222632,0.166229,-9.76979,0.000256178,-0.0019654,0.0010172,-0.133431,-0.0854647,0.378501,1011.25,14
2641876354033,10157,113,-0.0471277,-1.87444,-0.235522,-0.000371933,-0.00874634,-0.0103607,-0.0583689,-0.0138073,0.0569948,-0.0151411,-0.0225629,2.64085,-0.22853,0.121468,-9.73811,0.000441695,-0.00185409,0.000483693,-0.134684,-0.0822105,0.381692,1011.27,14
2641886621726,10265,116,-0.0472229,-1.87432,-0.235345,-0.00443303,0.00585383,0.00822379,-0.0494604,-0.0024977,0.0520494,-0.01514,-0.022569,2.64086,-0.224074,0.173213,-9.73917,0.000405506,-0.00216721,-0.000588959,-0.133405,-0.0840505,0.381633,1011.27,14
2641896767341,10147,116,-0.0472229,-1.87432,-0.235345,-0.00443303,0.00585383,0.00822379,-0.0494604,-0.0024977,0.0520494,-0.0151428,-0.0225762,2.64086,-0.239782,0.148872,-9.74496,0.00107281,-0.00248771,2.60013e-05,-0.133405,-0.0840505,0.381633,1011.2,14
2641906209649,9437,114,-0.0470423,-1.87429,-0.235231,0.00924911,0.00147095,0.00585022,-0.0477826,0.00013164,0.0547205,-0.015143,-0.0225818,2.64087,-0.239782,0.148872,-9.74496,0.00107281,-0.00248771,2.60013e-05,-0.133405,-0.0840505,0.381633,1011.2,14
2641916210956,10003,116,-0.0470423,-1.87429,-0.235231,0.00924911,0.00147095,0.00585022,-0.0477826,0.00013164,0.0547205,-0.0151478,-0.0225807,2.64088,-0.200693,0.170776,-9.73548,-0.000614801,-0.00154197,0.000730617,-0.134177,-0.0854779,0.380127,1011.2,14
2641926205187,10000,110,-0.0472701,-1.87433,-0.235311,-0.0116638,-0.00213013,-0.00411301,-0.0488663,-0.0024653,0.0513547,-0.0151551,-0.0225777,2.64089,-0.219071,0.165856,-9.7473,0.000317363,-0.00195666,-4.53946e-05,-0.133542,-0.0841966,0.379956,1011.2,14
2641936214187,9998,121,-0.0472701,-1.87433,-0.235311,-0.0116638,-0.00213013,-0.00411301,-0.0488663,-0.0024653,0.0513547,-0.0151606,-0.0225771,2.64089,-0.219071,0.165856,-9.7473,0.000317363,-0.00195666,-4.53946e-05,-0.133542,-0.0841966,0.379956,1011.2,14
2641946500879,10291,119,-0.0472523,-1.87445,-0.235651,0.000908852,-0.00629883,-0.0173851,-0.0557401,-0.0112642,0.0579478,-0.0151609,-0.0225838,2.64092,-0.206874,0.140589,-9.74179,0.00140235,-0.00100438,0.000560249,-0.134358,-0.0833127,0.37951,1011.2,14
2641956438110,9948,110,-0.0472523,-1.87445,-0.235651,0.000908852,-0.00629883,-0.0173851,-0.0557401,-0.0112642,0.0579478,-0.0151581,-0.0225851,2.64093,-0.224127,0.131013,-9.76259,0.000967673,-0.00249306,0.000241735,-0.135817,-0.0830072,0.381323,1011.23,14
2641966350572,9911,110,-0.0471607,-1.87428,-0.235304,0.00426292,0.00805664,0.0161362,-0.0465282,0.000191864,0.053244,-0.0151488,-0.0225912,2.64095,-0.244162,0.147725,-9.75444,0.0015231,-0.0017521,0.00097524,-0.135208,-0.0852399,0.380404,1011.23,14
2641976321187,9969,111,-0.0471607,-1.87428,-0.235304,0.00426292,0.00805664,0.0161362,-0.0465282,0.000191864,0.053244,-0.0151446,-0.0225929,2.64096,-0.211378,0.153094,-9.73959,0.000960288,-0.000893337,4.65921e-05,-0.135208,-0.0852399,0.380404,1011.27,14
2641986210341,9877,118,-0.0472432,-1.87432,-0.235379,-0.00422039,-0.00211792,-0.00384216,-0.0488413,-0.00244917,0.0515629,-0.015134,-0.0225887,2.64098,-0.211378,0.153094,-9.73959,0.000960288,-0.000893337,4.65921e-05,-0.135208,-0.0852399,0.380404,1011.27,14
2641996207264,10005,114,-0.0472432,-1.87432,-0.235379,-0.00422039,-0.00211792,-0.00384216,-0.0488413,-0.00244917,0.0515629,-0.0151298,-0.022577,2.64099,-0.212265,0.149287,-9.7107,-0.000296557,-0.0012169,0.000722562,-0.134297,-0.083948,0.378943,1011.27,14
2642006424033,10217,117,-0.0472482,-1.87434,-0.235285,-0.00025959,-0.000671387,0.00483704,-0.0490087,-0.00270072,0.051758,-0.0151297,-0.0225717,2.64102,-0.20729,0.169889,-9.71692,0.000344189,-0.00143615,0.000699138,-0.134831,-0.0798741,0.379715,1011.25,14
2642016514725,10094,113,-0.0472482,-1.87434,-0.235285,-0.00025959,-0.000671387,0.00483704,-0.0490087,-0.00270072,0.051758,-0.0151312,-0.0225686,2.64103,-0.198986,0.157546,-9.74003,-6.7764e-05,-0.0019645,0.000919518,-0.133457,-0.0836379,0.380118,1011.25,14
2642026927418,10408,116,-0.0472706,-1.87448,-0.235668,-0.0011425,-0.00725708,-0.0196136,-0.055695,-0.012093,0.0577395,-0.0151385,-0.0225654,2.6411,-0.213086,0.137755,-9.7097,0.000495558,-0.00197422,0.0020803,-0.134863,-0.0793062,0.37876,1011.25,14
2642036330341,9410,111,-0.0472706,-1.87448,-0.235668,-0.0011425,-0.00725708,-0.0196136,-0.055695,-0.012093,0.0577395,-0.0151364,-0.0225604,2.64112,-0.21864,0.144088,-9.7507,0.000462988,-0.00144075,0.00111494,-0.132731,-0.0826793,0.380261,1011.25,14
2642046798187,10469,109,-0.0471272,-1.87447,-0.235601,0.00667087,0.000149814,0.00311071,-0.0556034,-0.0119056,0.0577032,-0.0151355,-0.0225587,2.64113,-0.223213,0.160598,-9.7471,0.000753351,-0.00216929,0.000252809,-0.13508,-0.083872,0.37945,1011.25,14
2642056204418,9402,113,-0.0471272,-1.87447,-0.235601,0.00667087,0.000149814,0.00311071,-0.0556034,-0.0119056,0.0577032,-0.015136,-0.0225591,2.64114,-0.223213,0.160598,-9.7471,0.000753351,-0.00216929,0.000252809,-0.13508,-0.083872,0.37945,1011.25,14
2642066216572,10014,111,-0.0471563,-1.8745,-0.235651,-0.00149002,-0.00114746,-0.00254364,-0.0547217,-0.0118288,0.0574075,-0.0151378,-0.0225636,2.64117,-0.212084,0.148963,-9.75997,2.45214e-05,-0.00196276,0.000705578,-0.13508,-0.083872,0.37945,1011.23,14
2642076214725,9986,119,-0.0471563,-1.8745,-0.235651,-0.00149002,-0.00114746,-0.00254364,-0.0547217,-0.0118288,0.0574075,-0.0151422,-0.0225643,2.64119,-0.230168,0.166552,-9.77743,-0.000533229,-0.000892474,-7.78716e-06,-0.133312,-0.0803541,0.37966,1011.23,14
2642086501264,10305,105,-0.0471563,-1.8745,-0.235651,-0.00149002,-0.00114746,-0.00254364,-0.0547217,-0.0118288,0.0574075,-0.0151562,-0.022563,2.6412,-0.213396,0.163912,-9.71447,-0.000625395,-0.00111046,0.000416605,-0.136028,-0.0863354,0.37746,1011.27,14
2642096215187,9698,117,-0.0472205,-1.87429,-0.235272,-0.00328655,0.0106201,0.0194077,-0.0469512,-0.00253838,0.0527198,-0.0151607,-0.0225624,2.64121,-0.207652,0.157937,-9.7137,0.000363316,-0.00144213,0.00144305,-0.133648,-0.0819501,0.379177,1011.27,14
2642106747956,10540,113,-0.0471919,-1.87444,-0.235522,0.0014679,-0.00789185,-0.0127998,-0.0578488,-0.0119542,0.0578909,-0.0151645,-0.0225577,2.64121,-0.22232,0.154627,-9.72589,0.00117121,-0.000682283,-6.52842e-05,-0.133289,-0.0861998,0.380331,1011.22,14
2642116480802,9733,113,-0.0471919,-1.87444,-0.235522,0.0014679,-0.00789185,-0.0127998,-0.0578488,-0.0119542,0.0578909,-0.0151615,-0.0225513,2.64123,-0.231339,0.155799,-9.70495,0.00019713,-0.00174367,-0.000580743,-0.136977,-0.0828373,0.380163,1011.22,14
2642126603956,10123,114,-0.0472908,-1.87445,-0.235582,-0.00460763,-0.000521573,-0.002809,-0.0573836,-0.0108297,0.0580402,-0.0151599,-0.022548,2.64124,-0.216322,0.160153,-9.78756,0.000976505,-0.00175207,0.000353611,-0.133836,-0.0844234,0.378363,1011.22,14
2642136202495,9596,116,-0.0472908,-1.87445,-0.235582,-0.00460763,-0.000521573,-0.002809,-0.0573836,-0.0108297,0.0580402,-0.0151567,-0.0225452,2.64125,-0.228983,0.139733,-9.71448,-0.000108082,-0.00163571,-3.09818e-05,-0.133012,-0.0846693,0.379054,1011.22,14
2642146199264,9995,114,-0.0471003,-1.87445,-0.235539,0.00975704,0.000292969,0.00217667,-0.0563021,-0.0109625,0.0578887,-0.0151573,-0.0225451,2.64126,-0.228983,0.139733,-9.71448,-0.000108082,-0.00163571,-3.09818e-05,-0.133012,-0.0846693,0.379054,1011.22,14
2642156453572,10260,113,-0.0471003,-1.87445,-0.235539,0.00975704,0.000292969,0.00217667,-0.0563021,-0.0109625,0.0578887,-0.0151597,-0.0225493,2.64127,-0.237066,0.174435,-9.77081,-0.000401395,-0.00196276,0.000719946,-0.13388,-0.082592,0.37942,1011.23,14
2642166484418,10024,120,-0.0471548,-1.87426,-0.235231,-0.00278969,0.00946655,0.0158089,-0.0486367,-0.00155111,0.0538381,-0.0151624,-0.0225516,2.64127,-0.237066,0.174435,-9.77081,-0.000401395,-0.00196276,0.000719946,-0.13388,-0.082592,0.37942,1011.23,14
2642176219033,9742,112,-0.0471548,-1.87426,-0.235231,-0.00278969,0.00946655,0.0158089,-0.0486367,-0.00155111,0.0538381,-0.0151745,-0.0225584,2.64129,-0.230039,0.15891,-9.71075,0.000626336,-0.00195399,-0.000379514,-0.133049,-0.0830602,0.377947,1011.23,14
2642186830956,10608,116,-0.0471027,-1.8743,-0.235413,0.00266418,-0.00179443,-0.00932846,-0.0481407,-0.00403738,0.0540275,-0.0151806,-0.0225643,2.64132,-0.22063,0.153673,-9.75185,0.00042019,-0.00142447,-0.000153717,-0.136461,-0.0841867,0.378854,1011.25,14
2642196209110,9373,120,-0.0471027,-1.8743,-0.235413,0.00266418,-0.00179443,-0.00932846,-0.0481407,-0.00403738,0.0540275,-0.0151802,-0.0225639,2.64133,-0.231012,0.149472,-9.71152,0.000652235,-0.000895086,0.000269273,-0.135541,-0.0843566,0.380022,1011.25,14
2642206560956,10360,112,-0.0471382,-1.87426,-0.235303,-0.00181484,0.00210571,0.0056221,-0.047694,-0.00403016,0.0541791,-0.015173,-0.0225587,2.64135,-0.221212,0.158122,-9.71192,0.000341979,-0.00228415,0.000692217,-0.134165,-0.0870613,0.378112,1011.23,14
2642216317033,9751,118,-0.0471382,-1.87426,-0.235303,-0.00181484,0.00210571,0.0056221,-0.047694,-0.00403016,0.0541791,-0.015173,-0.0225587,2.64135,-0.230858,0.156806,-9.72983,0.0014133,-0.00175136,0.000873762,-0.134718,-0.0852227,0.378306,1011.23,14
2642226204725,9886,117,-0.0472082,-1.87449,-0.235724,-0.00325775,-0.0106035,-0.0196062,-0.0546928,-0.0119397,0.0578012,-0.0151688,-0.0225601,2.64136,-0.230858,0.156806,-9.72983,0.0014133,-0.00175136,0.000873762,-0.134718,-0.0852227,0.378306,1011.23,14
2642236210956,10007,116,-0.0472082,-1.87449,-0.235724,-0.00325775,-0.0106035,-0.0196062,-0.0546928,-0.0119397,0.0578012,-0.0151671,-0.0225573,2.64138,-0.220523,0.163228,-9.74915,0.000874863,-0.00089858,0.000685669,-0.134385,-0.084746,0.378699,1011.23,14
2642246197648,9993,113,-0.0472377,-1.87448,-0.235693,-0.00151005,0.000238037,0.00161285,-0.054743,-0.0109054,0.0581391,-0.0151683,-0.022562,2.6414,-0.211516,0.167048,-9.72997,3.33664e-05,-0.00196782,0.00131936,-0.132342,-0.0820367,0.379933,1011.23,14
2642256365033,10166,113,-0.0472377,-1.87448,-0.235693,-0.00151005,0.000238037,0.00161285,-0.054743,-0.0109054,0.0581391,-0.0151662,-0.0225698,2.64143,-0.224872,0.146116,-9.73526,0.000576859,-0.00196708,0.00121096,-0.132591,-0.0819349,0.377301,1011.2,14
2642266256571,9893,112,-0.0470814,-1.8744,-0.235514,0.00800285,0.00429077,0.00915375,-0.0564384,-0.0114226,0.0562311,-0.0151628,-0.0225698,2.64144,-0.218937,0.152771,-9.73647,0.000455994,-0.000900292,0.0009076,-0.132591,-0.0819349,0.377301,1011.2,14
2642276212879,9947,117,-0.0470814,-1.8744,-0.235514,0.00800285,0.00429077,0.00915375,-0.0564384,-0.0114226,0.0562311,-0.0151635,-0.022569,2.64145,-0.218937,0.152771,-9.73647,0.000455994,-0.000900292,0.0009076,-0.132591,-0.0819349,0.377301,1011.2,14
2642286193495,9989,112,-0.0470814,-1.8744,-0.235514,0.00800285,0.00429077,0.00915375,-0.0564384,-0.0114226,0.0562311,-0.0151734,-0.0225639,2.64147,-0.222505,0.13309,-9.73812,-0.000837137,-0.000894224,0.000214873,-0.133138,-0.0836182,0.377706,1011.2,14
2642296349033,10155,115,-0.0472296,-1.87433,-0.235392,-0.00759029,0.0036377,0.00623474,-0.0490542,-0.00233493,0.0520736,-0.0151754,-0.0225581,2.64148,-0.235415,0.144865,-9.7571,-7.99928e-05,-0.000899466,0.000825348,-0.134291,-0.0855691,0.381491,1011.22,14
2642306211648,9849,123,-0.0471918,-1.87432,-0.235367,0.00175788,0.000138716,0.00117285,-0.0495329,-0.00259498,0.0519987,-0.0151756,-0.0225484,2.64151,-0.238661,0.12636,-9.75522,0.000265272,-0.00111849,0.00155666,-0.134524,-0.0846515,0.376943,1011.22,14
2642316639110,10434,120,-0.0471918,-1.87432,-0.235367,0.00175788,0.000138716,0.00117285,-0.0495329,-0.00259498,0.0519987,-0.0151777,-0.0225461,2.64152,-0.224726,0.150194,-9.74388,-0.000643104,-0.00110381,-1.34435e-05,-0.131288,-0.0853807,0.377949,1011.27,14
2642326195571,9563,112,-0.0471227,-1.87431,-0.235422,0.00354023,0.000439453,-0.00281754,-0.0480936,-0.00319254,0.0535049,-0.0151807,-0.0225448,2.64151,-0.224726,0.150194,-9.74388,-0.000643104,-0.00110381,-1.34435e-05,-0.131288,-0.0853807,0.377949,1011.27,14
2642336220033,10011,126,-0.0471227,-1.87431,-0.235422,0.00354023,0.000439453,-0.00281754,-0.0480936,-0.00319254,0.0535049,-0.0151841,-0.0225486,2.64152,-0.232924,0.139974,-9.74723,-0.000391638,-0.00270846,0.00103292,-0.131865,-0.082596,0.379832,1011.27,14
2642346495494,10292,112,-0.0471278,-1.87428,-0.235324,-0.000263023,0.00167847,0.00502777,-0.0468098,-0.00240861,0.0542645,-0.0151856,-0.0225536,2.64153,-0.199598,0.142011,-9.7586,0.00100786,-0.000588072,0.00153563,-0.131357,-0.0828235,0.378292,1011.27,14
2642356212956,9706,118,-0.0471278,-1.87428,-0.235324,-0.000263023,0.00167847,0.00502777,-0.0468098,-0.00240861,0.0542645,-0.0151785,-0.0225433,2.64154,-0.199598,0.142011,-9.7586,0.00100786,-0.000588072,0.00153563,-0.131357,-0.0828235,0.378292,1011.27,14
2642366198110,9997,109,-0.0472786,-1.87435,-0.235379,-0.0077177,-0.00346069,-0.00280228,-0.0480071,-0.00128011,0.0508285,-0.0151768,-0.0225355,2.64154,-0.21389,0.156896,-9.73948,-0.00110289,-0.000589083,0.0018198,-0.131107,-0.085706,0.37858,1011.24,14
2642376249494,10050,112,-0.0472786,-1.87435,-0.235379,-0.0077177,-0.00346069,-0.00280228,-0.0480071,-0.00128011,0.0508285,-0.0151889,-0.0225297,2.64156,-0.198397,0.14857,-9.71482,-5.31831e-05,-0.000907353,0.00178177,-0.131617,-0.083158,0.38006,1011.24,14
2642386462418,10224,101,-0.0472786,-1.87435,-0.235379,-0.0077177,-0.00346069,-0.00280228,-0.0480071,-0.00128011,0.0508285,-0.0151974,-0.0225187,2.64158,-0.224561,0.169675,-9.71207,-0.000589524,-0.0014311,0.00147993,-0.13444,-0.084592,0.379423,1011.22,14
2642396217956,9730,123,-0.0472653,-1.87434,-0.235411,0.000615553,0.000338468,-0.00148565,-0.0486176,-0.00164003,0.0510615,-0.0152039,-0.0225152,2.64159,-0.224561,0.169675,-9.71207,-0.000589524,-0.0014311,0.00147993,-0.13444,-0.084592,0.379423,1011.22,14
2642406583418,10379,113,-0.0471848,-1.87431,-0.235384,0.00412235,0.0015564,0.00134583,-0.0498809,-0.00272884,0.0520558,-0.0152128,-0.0225075,2.64161,-0.213168,0.144057,-9.7199,0.000158576,-0.000906448,0.00166471,-0.133202,-0.0845021,0.378181,1011.22,14
2642416455956,9875,111,-0.0471848,-1.87431,-0.235384,0.00412235,0.0015564,0.00134583,-0.0498809,-0.00272884,0.0520558,-0.0152145,-0.0224998,2.64165,-0.204949,0.144137,-9.72516,0.000175452,-0.00144035,0.0020901,-0.132921,-0.0823521,0.37939,1011.22,14
2642426776725,10320,112,-0.0472434,-1.87432,-0.235306,-0.00299835,-0.0003479,0.00399857,-0.0489294,-0.0026422,0.0516861,-0.0152134,-0.0224986,2.64167,-0.220163,0.142716,-9.73061,0.000459607,-0.00154057,0.00101466,-0.133631,-0.0843348,0.377316,1011.23,14
2642436209494,9426,114,-0.0472434,-1.87432,-0.235306,-0.00299835,-0.0003479,0.00399857,-0.0489294,-0.0026422,0.0516861,-0.0152124,-0.0224988,2.64168,-0.228379,0.174624,-9.73567,-7.50836e-05,-0.00214063,0.000970238,-0.13318,-0.0827474,0.378835,1011.23,14
2642446389110,10185,114,-0.0471856,-1.87432,-0.235424,0.00295849,-9.15527e-05,-0.00603638,-0.0501944,-0.00312943,0.0520646,-0.0152165,-0.0224997,2.6417,-0.216777,0.144128,-9.73702,-0.000178973,-0.00185932,0.000713297,-0.130139,-0.0826681,0.378813,1011.23,14
2642456550956,10166,111,-0.0471856,-1.87432,-0.235424,0.00295849,-9.15527e-05,-0.00603638,-0.0501944,-0.00312943,0.0520646,-0.0152278,-0.0224994,2.64171,-0.225517,0.142285,-9.75439,0.000488347,-0.00186153,0.00186662,-0.133982,-0.0837067,0.378774,1011.23,14
2642466192187,9643,108,-0.0472431,-1.87431,-0.235291,-0.00267445,0.000477184,0.00617634,-0.0491538,-0.00244188,0.0516894,-0.0152246,-0.0225028,2.64175,-0.223066,0.140056,-9.75231,0.000611997,-0.000703235,0.00239913,-0.133469,-0.0817947,0.379733,1011.24,14
2642476214341,10008,116,-0.0472431,-1.87431,-0.235291,-0.00267445,0.000477184,0.00617634,-0.0491538,-0.00244188,0.0516894,-0.0152223,-0.0225018,2.64178,-0.223066,0.140056,-9.75231,0.000611997,-0.000703235,0.00239913,-0.133469,-0.0817947,0.379733,1011.24,14
2642486182033,9981,106,-0.0472431,-1.87431,-0.235291,-0.00267445,0.000477184,0.00617634,-0.0491538,-0.00244188,0.0516894,-0.0152256,-0.0225004,2.6418,-0.204725,0.122845,-9.73287,0.000412844,-0.00185147,-0.000371466,-0.13345,-0.0852201,0.377943,1011.24,14
2642496253110,10061,115,-0.0472431,-1.87431,-0.235291,-0.00267445,0.000477184,0.00617634,-0.0491538,-0.00244188,0.0516894,-0.0152208,-0.0225022,2.6418,-0.233423,0.14359,-9.747,0.000498581,-0.00194956,-0.000912131,-0.131855,-0.0838786,0.380142,1011.21,14
2642506248187,9989,121,-0.0473298,-1.87436,-0.235261,-0.00761013,0.00639038,0.0237946,-0.0468691,-0.00145558,0.050619,-0.0152125,-0.0225056,2.6418,-0.220336,0.15041,-9.7574,-0.000312089,-0.00196018,0.000403184,-0.134424,-0.083716,0.379909,1011.21,14
