# Time(ns),period(us),execution,x,y,z,Vx,Vy,Vz,roll_OT,pitch_OT,yaw_OT,roll_PX4,pitch_PX4,yaw_PX4,imu_acc_x,imu_acc_y,imu_acc_z,imu_gyr_x,imu_gyr_y,imu_gyr_z,imu_mag_x,imu_mag_y,imu_mag_z,imu_absolute_pressure,ultrasonic_distance
353242036363,10078,134,-1.41556,1.33222,-0.191923,0.00289991,0.00210199,-0.000507634,-0.0106578,0.011499,0.00152643,0.0130326,-0.0215297,2.4627,-0.210161,-0.131097,-9.85195,0.00147438,-0.0085256,-0.00365692,-0.190878,-0.148314,0.502634,1010.05,19
353251955594,9900,144,-1.41556,1.33222,-0.191923,0.00289991,0.00210199,-0.000507634,-0.0106578,0.011499,0.00152643,0.013036,-0.0215299,2.46271,-0.210161,-0.131097,-9.85195,0.00147438,-0.0085256,-0.00365692,-0.190878,-0.148314,0.502634,1010.05,19
353261923594,9997,124,-1.41552,1.33228,-0.191938,0.00210199,0.00315001,-0.000766661,-0.00854837,0.0107493,0.00304055,0.0130326,-0.0215288,2.46271,-0.207739,-0.129555,-9.83658,0.00228495,-0.00851974,-0.00485535,-0.191455,-0.15015,0.502158,1010.05,19
353271963901,10016,136,-1.41552,1.33228,-0.191938,0.00210199,0.00315001,-0.000766661,-0.00854837,0.0107493,0.00304055,0.0130331,-0.0215275,2.46272,-0.228181,-0.142381,-9.81897,0.00243084,-0.00756784,-0.00368129,-0.193085,-0.147742,0.501273,1010.05,19
353282097824,10151,133,-1.41553,1.33228,-0.191948,-0.000387052,4.16825e-05,-0.000505401,-0.00866782,0.0106952,0.00380651,0.013039,-0.0215208,2.46273,-0.22909,-0.168962,-9.84538,0.00208681,-0.00765959,-0.00462924,-0.192016,-0.146949,0.502124,1010.08,19
353291946363,9836,142,-1.41553,1.33228,-0.191948,-0.000387052,4.16825e-05,-0.000505401,-0.00866782,0.0106952,0.00380651,0.0130428,-0.0215161,2.46274,-0.199793,-0.1487,-9.80836,0.00086607,-0.00832067,-0.00267516,-0.189756,-0.147674,0.502682,1010.08,19
353301932440,10003,129,-1.41553,1.33229,-0.191932,-0.00025605,0.000631193,0.000793457,-0.00877743,0.0109017,0.0035074,0.0130473,-0.0215071,2.46276,-0.198074,-0.128999,-9.81943,0.000995765,-0.00832592,-0.00204237,-0.191851,-0.14831,0.502267,1010.03,19
353311970132,10003,150,-1.41553,1.33229,-0.191932,-0.00025605,0.000631193,0.000793457,-0.00877743,0.0109017,0.0035074,0.013045,-0.0215065,2.46277,-0.198074,-0.128999,-9.81943,0.000995765,-0.00832592,-0.00204237,-0.191851,-0.14831,0.502267,1010.03,19
353321967132,10001,145,-1.41553,1.33229,-0.191932,-0.00025605,0.000631193,0.000793457,-0.00877743,0.0109017,0.0035074,0.0130408,-0.0215086,2.46281,-0.222639,-0.124422,-9.81849,0.00193963,-0.00832242,-0.00249933,-0.190385,-0.146797,0.50303,1010.03,19
353332286055,10361,119,-1.41555,1.33225,-0.191938,-0.000827696,-0.00202458,-0.000257539,-0.00995959,0.010429,0.00324455,0.01304,-0.0215111,2.46285,-0.199915,-0.121571,-9.7894,0.00225392,-0.00832154,-0.00261667,-0.191433,-0.147575,0.500418,1010.08,19
353341992286,9654,148,-1.41555,1.33225,-0.191938,-0.000827696,-0.00202458,-0.000257539,-0.00995959,0.010429,0.00324455,0.013041,-0.0215112,2.46285,-0.198626,-0.150018,-9.79371,0.00243422,-0.00831364,-0.00358107,-0.191201,-0.148153,0.502566,1010.08,19
353351925747,9975,127,-1.4155,1.33227,-0.191948,0.0026915,0.000726467,-0.000535174,-0.00869308,0.0104488,0.00329718,0.0130487,-0.0215009,2.46285,-0.220443,-0.126148,-9.83979,0.001492,-0.00756874,-0.00290272,-0.188614,-0.14974,0.500945,1010.08,19
353361982055,10043,142,-1.41553,1.33226,-0.191947,-0.00151844,-0.000535918,5.28475e-05,-0.00929031,0.0108758,0.00174741,0.0130478,-0.021499,2.46286,-0.220443,-0.126148,-9.83979,0.001492,-0.00756874,-0.00290272,-0.188614,-0.14974,0.500945,1010.08,19
353371973286,9968,152,-1.41553,1.33226,-0.191947,-0.00151844,-0.000535918,5.28475e-05,-0.00929031,0.0108758,0.00174741,0.0130478,-0.021499,2.46286,-0.220443,-0.126148,-9.83979,0.001492,-0.00756874,-0.00290272,-0.188614,-0.14974,0.500945,1010.08,19
353381993209,10013,158,-1.4155,1.33229,-0.191936,0.00145889,0.00173876,0.000553038,-0.00821568,0.0109159,0.00323129,0.0130324,-0.0214955,2.46288,-0.220443,-0.126148,-9.83979,0.001492,-0.00756874,-0.00290272,-0.188614,-0.14974,0.500945,1010.08,19
353392240671,10282,136,-1.4155,1.33229,-0.191936,0.00145889,0.00173876,0.000553038,-0.00821568,0.0109159,0.00323129,0.0130324,-0.0214934,2.46289,-0.202114,-0.122893,-9.79813,0.00190133,-0.00831277,-0.00366957,-0.187909,-0.149036,0.502848,1010.03,19
353402219363,9993,124,-1.41551,1.33226,-0.191976,-0.000738377,-0.00162562,-0.00200002,-0.00908984,0.0104974,0.00192898,0.0130323,-0.0214902,2.46288,-0.225869,-0.13703,-9.80003,0.00139213,-0.00831891,-0.00290704,-0.189813,-0.15232,0.503366,1010.03,19
353412487670,10254,135,-1.41551,1.33226,-0.191976,-0.000738377,-0.00162562,-0.00200002,-0.00908984,0.0104974,0.00192898,0.0130323,-0.0214902,2.46288,-0.220267,-0.140083,-9.81708,0.00243092,-0.00724858,-0.00367866,-0.191482,-0.150783,0.501353,1010.04,19
353422599901,10118,130,-1.41555,1.33228,-0.191919,-0.00207222,0.00132193,0.00284558,-0.0102398,0.011296,0.000715,0.013033,-0.02148,2.46289,-0.206858,-0.136105,-9.81919,0.0044696,-0.00799781,-0.00321506,-0.19215,-0.150636,0.502898,1010.04,19
353431982132,9342,153,-1.41555,1.33228,-0.191919,-0.00207222,0.00132193,0.00284558,-0.0102398,0.011296,0.000715,0.0130509,-0.021466,2.46291,-0.206858,-0.136105,-9.81919,0.0044696,-0.00799781,-0.00321506,-0.19215,-0.150636,0.502898,1010.04,19
353441999132,10014,154,-1.41549,1.33224,-0.19195,0.00322742,-0.00194717,-0.00154672,-0.00885124,0.0104349,0.00221631,0.0130509,-0.021466,2.46291,-0.206858,-0.136105,-9.81919,0.0044696,-0.00799781,-0.00321506,-0.19215,-0.150636,0.502898,1010.04,19
353452086594,10131,131,-1.41549,1.33224,-0.19195,0.00322742,-0.00194717,-0.00154672,-0.00885124,0.0104349,0.00221631,0.013048,-0.0214605,2.46292,-0.206442,-0.126111,-9.7898,0.00243036,-0.00927187,-0.00369533,-0.189431,-0.149996,0.502812,1010.01,19
353461928594,9846,125,-1.41546,1.33221,-0.191948,0.00132446,-0.00178833,0.000132751,-0.00865009,0.0104054,0.00457768,0.013048,-0.0214605,2.46292,-0.229434,-0.121471,-9.77087,0.0016898,-0.00884547,-0.00356034,-0.188957,-0.147914,0.502653,1010.01,19
353471913055,9995,117,-1.41546,1.33221,-0.191948,0.00132446,-0.00178833,0.000132751,-0.00865009,0.0104054,0.00457768,0.0130501,-0.0214675,2.46293,-0.226958,-0.138863,-9.78081,0.00274354,-0.00831192,-0.0038008,-0.19174,-0.151998,0.503193,1010.01,19
353481926440,10003,126,-1.41547,1.33224,-0.191951,-0.000398962,0.00172685,-0.000190549,-0.00809092,0.0105477,0.00289314,0.0130544,-0.0214708,2.46293,-0.223512,-0.132299,-9.82236,0.00296246,-0.00820635,-0.00370449,-0.190314,-0.151355,0.50275,1010.01,19
353492172209,10249,124,-1.41547,1.33224,-0.191951,-0.000398962,0.00172685,-0.000190549,-0.00809092,0.0105477,0.00289314,0.0130644,-0.0214706,2.46293,-0.19815,-0.128042,-9.84923,0.00137059,-0.00831364,-0.0035454,-0.191264,-0.151018,0.500704,1010.03,19
353502565670,10395,124,-1.41551,1.33224,-0.191931,-0.00170898,-0.000273914,0.00103834,-0.00920149,0.0108243,0.00260787,0.0130634,-0.02147,2.46293,-0.224137,-0.128656,-9.80925,0.00159931,-0.00938139,-0.00312978,-0.18909,-0.148881,0.50345,1010.03,19
353511913901,9346,118,-1.41551,1.33224,-0.191931,-0.00170898,-0.000273914,0.00103834,-0.00920149,0.0108243,0.00260787,0.0130575,-0.021473,2.46295,-0.224137,-0.128656,-9.80925,0.00159931,-0.00938139,-0.00312978,-0.18909,-0.148881,0.50345,1010.03,19
353522061978,10150,122,-1.41553,1.33226,-0.191965,-0.00142912,0.00114925,-0.00174099,-0.00901637,0.0105533,0.00294809,0.0130531,-0.021473,2.46296,-0.235411,-0.117941,-9.79221,0.000878083,-0.00896181,-0.00236257,-0.191481,-0.148943,0.501369,1010.05,19
353531908670,9850,116,-1.41553,1.33226,-0.191965,-0.00142912,0.00114925,-0.00174099,-0.00901637,0.0105533,0.00294809,0.0130504,-0.0214733,2.46297,-0.211046,-0.117451,-9.85013,0.00275144,-0.00831276,-0.00369825,-0.190353,-0.150965,0.503955,1010.05,19
353541941517,10011,138,-1.41553,1.33224,-0.191953,0.00034537,-0.000928925,0.00061184,-0.00907208,0.0106969,0.00297143,0.0130492,-0.0214785,2.46298,-0.222334,-0.130664,-9.78801,0.00167638,-0.00831012,-0.00398251,-0.190047,-0.150482,0.503549,1010.03,19
353552134132,10181,153,-1.41553,1.33224,-0.191953,0.00034537,-0.000928925,0.00061184,-0.00907208,0.0106969,0.00297143,0.0130489,-0.021478,2.46298,-0.23451,-0.146779,-9.8303,0.00193173,-0.00810691,-0.00292433,-0.192147,-0.149916,0.502984,1010.03,19
353561938517,9820,135,-1.4155,1.33225,-0.191929,0.0013398,0.000232231,0.00121847,-0.00891549,0.0106842,0.00262281,0.0130477,-0.0214814,2.463,-0.221143,-0.139056,-9.81634,0.00119003,-0.00853459,-0.00258254,-0.189702,-0.148968,0.50427,1010.03,19
353571917209,9988,128,-1.4155,1.33225,-0.191929,0.0013398,0.000232231,0.00121847,-0.00891549,0.0106842,0.00262281,0.0130453,-0.0214848,2.46301,-0.221143,-0.139056,-9.81634,0.00119003,-0.00853459,-0.00258254,-0.189702,-0.148968,0.50427,1010.03,19
353582121901,10215,118,-1.41542,1.3322,-0.191936,0.00393602,-0.00260814,-0.000335693,-0.00800217,0.0105359,0.004461,0.0130449,-0.0214926,2.46301,-0.231239,-0.108816,-9.82334,0.00349119,-0.00789307,-0.00371975,-0.189586,-0.150157,0.502976,1010.03,19
353591899670,9779,112,-1.41542,1.3322,-0.191936,0.00393602,-0.00260814,-0.000335693,-0.00800217,0.0105359,0.004461,0.0130528,-0.0214975,2.46302,-0.217785,-0.126729,-9.80165,0.00253715,-0.00916411,-0.00369804,-0.192304,-0.148397,0.503082,1010.07,19
353601929132,10018,123,-1.41555,1.33224,-0.191923,-0.00622856,0.00234613,0.000605141,-0.00945633,0.0112688,0.00118936,0.0130559,-0.0214987,2.46303,-0.212965,-0.153614,-9.82171,0.00232452,-0.00788722,-0.00368034,-0.190315,-0.148254,0.505097,1010.07,19
353612236440,10320,114,-1.41555,1.33224,-0.191923,-0.00622856,0.00234613,0.000605141,-0.00945633,0.0112688,0.00118936,0.0130629,-0.021498,2.46303,-0.226609,-0.125847,-9.83092,0.00210214,-0.0092662,-0.00400208,-0.19208,-0.148873,0.50259,1010.08,19
353622294055,10045,129,-1.41551,1.33224,-0.191937,0.00163157,-0.000321551,-0.000674364,-0.00885865,0.0110007,0.00201881,0.0130655,-0.0214981,2.46305,-0.226609,-0.125847,-9.83092,0.00210214,-0.0092662,-0.00400208,-0.19208,-0.148873,0.50259,1010.08,19
353631903824,9618,118,-1.41551,1.33224,-0.191937,0.00163157,-0.000321551,-0.000674364,-0.00885865,0.0110007,0.00201881,0.0130595,-0.0215029,2.46306,-0.219205,-0.114044,-9.83724,0.00114097,-0.00831013,-0.00396415,-0.190342,-0.146308,0.501912,1010.08,19
353641924209,10014,126,-1.41555,1.33219,-0.191937,-0.00188167,-0.00209604,-7.44331e-07,-0.0103265,0.0106533,0.00218256,0.0130462,-0.0215062,2.46308,-0.20356,-0.125112,-9.82693,0.00143143,-0.00885891,-0.00174217,-0.19151,-0.148076,0.502898,1010.07,19
353652268055,10361,110,-1.41555,1.33219,-0.191937,-0.00188167,-0.00209604,-7.44331e-07,-0.0103265,0.0106533,0.00218256,0.0130403,-0.0215096,2.46309,-0.209403,-0.122496,-9.78108,0.00127903,-0.00937866,-0.00345025,-0.189935,-0.14751,0.502129,1010.07,19
353661930901,9640,128,-1.41551,1.33221,-0.191951,0.00226872,0.000809832,-0.000707859,-0.00917897,0.010665,0.00332545,0.0130401,-0.0215125,2.46309,-0.214342,-0.141842,-9.82753,0.00161614,-0.00863885,-0.00259777,-0.191924,-0.151992,0.502479,1010.07,19
353672144363,10220,125,-1.41551,1.33221,-0.191951,0.00226872,0.000809832,-0.000707859,-0.00917897,0.010665,0.00332545,0.0130412,-0.0215147,2.4631,-0.202577,-0.12527,-9.80452,0.00211862,-0.00916587,-0.00347083,-0.190716,-0.149594,0.502698,1010.07,19
353682342055,10207,117,-1.41558,1.33223,-0.191917,-0.0037157,0.00116116,0.0016807,-0.0106999,0.0116395,0.00161372,0.0130474,-0.0215221,2.4631,-0.228736,-0.11639,-9.8142,0.00254454,-0.00831535,-0.00337744,-0.188467,-0.151597,0.502926,1010.07,19
353691903516,9564,112,-1.41558,1.33223,-0.191917,-0.0037157,0.00116116,0.0016807,-0.0106999,0.0116395,0.00161372,0.0130499,-0.0215237,2.46311,-0.222526,-0.124442,-9.77776,0.00244141,-0.0091667,-0.0033679,-0.193159,-0.147603,0.503838,1010.08,19
353702539901,10628,123,-1.41547,1.33218,-0.191943,0.00537705,-0.00291778,-0.0012996,-0.00981596,0.0104216,0.00301906,0.0130539,-0.0215279,2.46313,-0.194085,-0.143091,-9.82273,0.00213786,-0.00810559,-0.00293049,-0.189762,-0.149273,0.502509,1010.08,19
353711911670,9375,116,-1.41547,1.33218,-0.191943,0.00537705,-0.00291778,-0.0012996,-0.00981596,0.0104216,0.00301906,0.0130541,-0.021526,2.46313,-0.218193,-0.133153,-9.8351,0.00136338,-0.00863527,-0.00375918,-0.190767,-0.151042,0.503569,1010.02,19
353721918824,9999,124,-1.41556,1.3322,-0.191952,-0.00457913,0.00125048,-0.000425013,-0.0106675,0.0107695,0.00100953,0.0130519,-0.0215257,2.46313,-0.218193,-0.133153,-9.8351,0.00136338,-0.00863527,-0.00375918,-0.190767,-0.151042,0.503569,1010.02,19
353731916824,10001,122,-1.41556,1.3322,-0.191952,-0.00457913,0.00125048,-0.000425013,-0.0106675,0.0107695,0.00100953,0.0130502,-0.021526,2.46313,-0.200283,-0.122905,-9.81551,0.00228815,-0.0091584,-0.00475445,-0.190352,-0.150866,0.501635,1010.02,19
353741924593,10002,127,-1.41562,1.33226,-0.191871,-0.00271532,0.00311428,0.00406554,-0.0111228,0.0123408,0.00122351,0.0130512,-0.0215265,2.46313,-0.206945,-0.143547,-9.79288,0.00189346,-0.00841414,-0.00367014,-0.18985,-0.149431,0.50227,1010.04,19
353751925132,9998,125,-1.41562,1.33226,-0.191871,-0.00271532,0.00311428,0.00406554,-0.0111228,0.0123408,0.00122351,0.0130549,-0.0215271,2.46314,-0.237955,-0.141119,-9.76837,0.00211154,-0.00831277,-0.00367666,-0.189414,-0.14696,0.503316,1010.04,19
353762158978,10237,128,-1.41553,1.33228,-0.191939,0.00459103,0.000726467,-0.0034068,-0.00866772,0.0108645,0.00252892,0.0130584,-0.0215297,2.46315,-0.250956,-0.136148,-9.79319,0.00199956,-0.00821471,-0.00335315,-0.192896,-0.148789,0.502138,1010.04,19
353771912209,9761,117,-1.41553,1.33228,-0.191939,0.00459103,0.000726467,-0.0034068,-0.00866772,0.0108645,0.00252892,0.0130575,-0.0215317,2.46317,-0.214558,-0.122378,-9.74837,0.00182137,-0.00757486,-0.0028089,-0.190848,-0.147921,0.503517,1010.04,19
353782440747,10532,118,-1.41557,1.33221,-0.191924,-0.00192335,-0.00330483,0.000731678,-0.0108556,0.0109472,0.00166714,0.0130559,-0.0215314,2.46318,-0.210283,-0.115135,-9.78474,0.0021152,-0.00863274,-0.00357299,-0.191779,-0.147748,0.502029,1010.04,19
353791910978,9467,121,-1.41557,1.33221,-0.191924,-0.00192335,-0.00330483,0.000731678,-0.0108556,0.0109472,0.00166714,0.0130499,-0.0215257,2.46321,-0.216848,-0.122052,-9.78789,0.00306912,-0.00714216,-0.00369931,-0.1924,-0.148073,0.502608,1010.03,19
353801923055,10007,124,-1.41557,1.33221,-0.191924,-0.00192335,-0.00330483,0.000731678,-0.0108556,0.0109472,0.00166714,0.013051,-0.021521,2.46321,-0.223132,-0.135964,-9.77688,0.00193406,-0.00906981,-0.00271616,-0.189473,-0.152546,0.501591,1010.03,19
353811905747,9993,114,-1.41552,1.33227,-0.191949,0.00237591,0.00271532,-0.00124527,-0.00931334,0.0109321,0.00154353,0.0130598,-0.0215146,2.46321,-0.220768,-0.152671,-9.79061,0.00190622,-0.00842078,-0.00345784,-0.192342,-0.148868,0.501959,1010.03,19
353822117055,10204,123,-1.41546,1.33224,-0.191936,0.00279273,-0.00144698,0.000671387,-0.00841334,0.010405,0.00383776,0.0130599,-0.021515,2.46324,-0.196267,-0.115196,-9.80866,0.00137052,-0.00873773,-0.00354762,-0.18988,-0.148864,0.501395,1010.04,19
353831904901,9794,116,-1.41546,1.33224,-0.191936,0.00279273,-0.00144698,0.000671387,-0.00841334,0.010405,0.00383776,0.0130599,-0.021515,2.46324,-0.196267,-0.115196,-9.80866,0.00137052,-0.00873773,-0.00354762,-0.18988,-0.148864,0.501395,1010.04,19
353842130670,10222,121,-1.41549,1.33224,-0.191951,-0.00164348,0.000113138,-0.000750286,-0.00914692,0.0104861,0.0022621,0.0130558,-0.0215035,2.46325,-0.221334,-0.12644,-9.83787,0.00233243,-0.00842002,-0.0034696,-0.190564,-0.147912,0.502467,1010.02,19
353851904978,9777,115,-1.41549,1.33224,-0.191951,-0.00164348,0.000113138,-0.000750286,-0.00914692,0.0104861,0.0022621,0.013055,-0.0215012,2.46326,-0.221334,-0.12644,-9.83787,0.00233243,-0.00842002,-0.0034696,-0.190564,-0.147912,0.502467,1010.02,19
353862417516,10508,123,-1.41545,1.33221,-0.191961,0.00241759,-0.00145293,-0.000500191,-0.00842007,0.0103993,0.00278903,0.0130505,-0.0214963,2.46327,-0.201442,-0.153744,-9.85791,0.00148633,-0.00905346,-0.00344871,-0.189072,-0.150546,0.501594,1010.02,19
353871907824,9496,118,-1.41545,1.33221,-0.191961,0.00241759,-0.00145293,-0.000500191,-0.00842007,0.0103993,0.00278903,0.0130487,-0.0214936,2.46327,-0.201442,-0.153744,-9.85791,0.00148633,-0.00905346,-0.00344871,-0.189072,-0.150546,0.501594,1010.02,19
353881934593,10021,122,-1.41561,1.33224,-0.191931,-0.00830078,0.00131002,0.00147675,-0.0114692,0.0106928,0.00195932,0.0130463,-0.0214959,2.46326,-0.219367,-0.147015,-9.83572,0.00136307,-0.00937606,-0.00376823,-0.191042,-0.151753,0.502531,1010.02,19
353891920209,9992,117,-1.41561,1.33224,-0.191931,-0.00830078,0.00131002,0.00147675,-0.0114692,0.0106928,0.00195932,0.0130423,-0.0214903,2.46326,-0.219367,-0.147015,-9.83572,0.00136307,-0.00937606,-0.00376823,-0.191042,-0.151753,0.502531,1010.02,19
353901931209,9996,129,-1.41546,1.3322,-0.191936,0.00746713,-0.0019174,-0.000256794,-0.00922333,0.0104415,0.00275896,0.0130422,-0.0214879,2.46327,-0.228011,-0.122318,-9.84228,0.00180317,-0.00852823,-0.00334858,-0.192473,-0.150555,0.50283,1010.06,19
353912564132,10653,111,-1.41546,1.3322,-0.191936,0.00746713,-0.0019174,-0.000256794,-0.00922333,0.0104415,0.00275896,0.0130419,-0.0214881,2.46328,-0.219574,-0.133168,-9.80497,0.00214412,-0.00832066,-0.00272041,-0.190205,-0.149742,0.501239,1010.06,19
353922553516,9984,119,-1.41548,1.33223,-0.191948,-0.000690739,0.00184594,-0.000593976,-0.00842706,0.0105534,0.00433396,0.0130362,-0.0214892,2.46331,-0.215189,-0.138509,-9.82389,0.000869624,-0.00832154,-0.00256998,-0.187891,-0.147741,0.501017,1010.09,19
353931905285,9355,114,-1.41548,1.33223,-0.191948,-0.000690739,0.00184594,-0.000593976,-0.00842706,0.0105534,0.00433396,0.013034,-0.0214895,2.46331,-0.229264,-0.128873,-9.77306,0.00136672,-0.00937695,-0.00366031,-0.189168,-0.148702,0.501132,1010.09,19
353942378055,10464,123,-1.41557,1.33222,-0.191984,-0.00457913,-0.000732422,-0.00177002,-0.00963733,0.0102359,0.00221253,0.013028,-0.0214932,2.46332,-0.203481,-0.132519,-9.85547,0.00203777,-0.00885743,-0.00293714,-0.189354,-0.149435,0.502734,1010.09,19
353951912362,9533,118,-1.41557,1.33222,-0.191984,-0.00457913,-0.000732422,-0.00177002,-0.00963733,0.0102359,0.00221253,0.0130268,-0.0214942,2.46333,-0.203481,-0.132519,-9.85547,0.00203777,-0.00885743,-0.00293714,-0.189354,-0.149435,0.502734,1010.09,19
353961946516,10016,133,-1.41552,1.33225,-0.191943,0.00223389,0.00149536,0.00209198,-0.00959471,0.0105251,0.00233951,0.0130289,-0.0214978,2.46334,-0.200092,-0.146966,-9.81619,0.00168953,-0.0091676,-0.00356283,-0.190708,-0.149916,0.502935,1010,19
353972062978,10130,115,-1.41552,1.33225,-0.191943,0.00223389,0.00149536,0.00209198,-0.00959471,0.0105251,0.00233951,0.0130239,-0.021505,2.46336,-0.214036,-0.1353,-9.81065,0.00200647,-0.00937695,-0.00368189,-0.189574,-0.14704,0.503321,1010,19
353982588439,10538,115,-1.41557,1.33226,-0.191905,-0.00223895,0.000637147,0.0018705,-0.00983057,0.0113856,0.00147483,0.0130226,-0.0215069,2.46336,-0.22253,-0.138603,-9.84182,0.00184763,-0.0083259,-0.00207377,-0.18965,-0.149601,0.503463,1010,19
353992069439,9470,116,-1.41557,1.33226,-0.191905,-0.00223895,0.000637147,0.0018705,-0.00983057,0.0113856,0.00147483,0.0130191,-0.0215058,2.46339,-0.21318,-0.143355,-9.83948,0.00085479,-0.00831792,-0.00300937,-0.18997,-0.147981,0.501085,1010,19
354001932824,9858,131,-1.41557,1.33224,-0.19194,-0.000107184,-0.00116711,-0.00173355,-0.0102373,0.0108557,0.00282745,0.0130184,-0.0215046,2.4634,-0.21318,-0.143355,-9.83948,0.00085479,-0.00831792,-0.00300937,-0.18997,-0.147981,0.501085,1010,19
354011909978,9990,119,-1.41557,1.33224,-0.19194,-0.000107184,-0.00116711,-0.00173355,-0.0102373,0.0108557,0.00282745,0.0130226,-0.0215009,2.46342,-0.226321,-0.125908,-9.81344,0.00147367,-0.00724858,-0.00364636,-0.187821,-0.148158,0.503093,1010.06,19
354021930824,10010,124,-1.41551,1.33227,-0.191927,0.00298923,0.00141721,0.000657244,-0.00871176,0.0109975,0.00142913,0.0130234,-0.0214983,2.46342,-0.226321,-0.125908,-9.81344,0.00147367,-0.00724858,-0.00364636,-0.187821,-0.148158,0.503093,1010.06,19
354031908055,9989,115,-1.41551,1.33227,-0.191927,0.00298923,0.00141721,0.000657244,-0.00871176,0.0109975,0.00142913,0.0130186,-0.021488,2.46342,-0.210886,-0.116978,-9.81457,0.00103872,-0.00830832,-0.00417985,-0.190835,-0.149124,0.503907,1010.06,19
354042207285,10292,126,-1.41554,1.33224,-0.191899,-0.00119093,-0.00142912,0.00139413,-0.010314,0.0111418,0.00182221,0.013014,-0.0214848,2.46341,-0.213477,-0.132597,-9.81559,0.00189529,-0.00809905,-0.00377409,-0.190391,-0.150236,0.502842,1010.06,19
354052147516,9923,143,-1.41554,1.33224,-0.191899,-0.00119093,-0.00142912,0.00139413,-0.010314,0.0111418,0.00182221,0.0130154,-0.0214817,2.46341,-0.213698,-0.14576,-9.84425,0.000958439,-0.00938134,-0.00311334,-0.188568,-0.148392,0.502316,1010.04,19
354061928285,9791,130,-1.41554,1.33228,-0.191949,-2.38186e-05,0.00200076,-0.00248458,-0.00880125,0.0109334,0.00347227,0.0130156,-0.0214823,2.46342,-0.213698,-0.14576,-9.84425,0.000958439,-0.00938134,-0.00311334,-0.188568,-0.148392,0.502316,1010.04,19
354071917055,9997,121,-1.41554,1.33228,-0.191949,-2.38186e-05,0.00200076,-0.00248458,-0.00880125,0.0109334,0.00347227,0.0130177,-0.0214801,2.46342,-0.216871,-0.128058,-9.81666,0.00228804,-0.00766639,-0.0046314,-0.190622,-0.148398,0.503105,1010.04,19
354081933824,10007,128,-1.41542,1.3322,-0.191939,0.00585938,-0.00378716,0.000499446,-0.00841156,0.0103949,0.00450502,0.0130238,-0.0214754,2.46341,-0.230632,-0.154151,-9.81283,0.00243071,-0.00799284,-0.00368479,-0.189573,-0.15232,0.503358,1010.04,19
354092370978,10452,119,-1.41542,1.3322,-0.191939,0.00585938,-0.00378716,0.000499446,-0.00841156,0.0103949,0.00450502,0.0130286,-0.0214722,2.46342,-0.210074,-0.134729,-9.80026,0.00209696,-0.00777624,-0.00420983,-0.189263,-0.149118,0.503053,1010.04,19
354101955593,9580,125,-1.41555,1.33226,-0.191917,-0.00650843,0.00300114,0.00110533,-0.00989774,0.0110329,0.00131479,0.0130264,-0.0214695,2.46342,-0.234059,-0.129245,-9.83855,0.00180716,-0.00852986,-0.00313562,-0.190317,-0.151114,0.502672,1010.04,19
354112300978,10354,116,-1.41555,1.33226,-0.191917,-0.00650843,0.00300114,0.00110533,-0.00989774,0.0110329,0.00131479,0.0130264,-0.0214695,2.46342,-0.233795,-0.134753,-9.81561,0.000833701,-0.00990798,-0.00364672,-0.188651,-0.149911,0.502226,1010.04,19
354122048285,9730,131,-1.41551,1.33222,-0.191946,0.00195312,-0.00232231,-0.00149387,-0.00956614,0.0106669,0.00342107,0.0130198,-0.021481,2.46342,-0.21697,-0.117213,-9.82621,0.00288179,-0.00810431,-0.0031685,-0.190799,-0.151114,0.502608,1010.04,19
354131933362,9880,130,-1.41551,1.33222,-0.191946,0.00195312,-0.00232231,-0.00149387,-0.00956614,0.0106669,0.00342107,0.0130229,-0.0214831,2.46343,-0.229467,-0.143089,-9.8213,0.00167479,-0.00831014,-0.00398081,-0.188741,-0.149188,0.501915,1010.09,19
354141929824,10003,129,-1.41545,1.33221,-0.191941,0.00284632,-0.000351324,0.000284335,-0.0084349,0.0103864,0.00426877,0.0130279,-0.02148,2.46343,-0.217113,-0.139439,-9.7952,0.00171257,-0.00831811,-0.00301481,-0.189578,-0.149919,0.503218,1010.09,19
354151909439,9987,119,-1.41545,1.33221,-0.191941,0.00284632,-0.000351324,0.000284335,-0.0084349,0.0103864,0.00426877,0.013028,-0.0214796,2.46344,-0.217113,-0.139439,-9.7952,0.00171257,-0.00831811,-0.00301481,-0.189578,-0.149919,0.503218,1010.09,19
354162461593,10556,121,-1.41552,1.33227,-0.191923,-0.00317978,0.00286419,0.000893197,-0.00867602,0.0107691,0.00331449,0.0130188,-0.0214887,2.46346,-0.196858,-0.125104,-9.82737,0.00126054,-0.00831277,-0.00364795,-0.190782,-0.146638,0.503125,1010.08,19
354171908285,9447,115,-1.41552,1.33227,-0.191923,-0.00317978,0.00286419,0.000893197,-0.00867602,0.0107691,0.00331449,0.0130102,-0.0214893,2.46347,-0.196858,-0.125104,-9.82737,0.00126054,-0.00831277,-0.00364795,-0.190782,-0.146638,0.503125,1010.08,19
354181931747,10011,124,-1.41548,1.33226,-0.191946,0.00191144,-0.000351324,-0.0011619,-0.00824285,0.0106414,0.003648,0.0130074,-0.0214859,2.46347,-0.219272,-0.129165,-9.82348,0.00169689,-0.00820898,-0.00334236,-0.191695,-0.15087,0.50216,1010.08,19
354192289362,10377,113,-1.41548,1.33226,-0.191946,0.00191144,-0.000351324,-0.0011619,-0.00824285,0.0106414,0.003648,0.0130072,-0.0214852,2.46348,-0.222261,-0.13232,-9.81988,0.00138495,-0.00831715,-0.00311975,-0.188838,-0.152544,0.50141,1010.08,19
354201968824,9676,115,-1.41555,1.3322,-0.191928,-0.00347752,-0.00303092,0.000908828,-0.0111362,0.0107267,0.00245328,0.013002,-0.0214925,2.46348,-0.217455,-0.129515,-9.81191,0.00140263,-0.00927978,-0.00259586,-0.188637,-0.150074,0.502624,1009.99,19
354211908055,9938,111,-1.41555,1.3322,-0.191928,-0.00347752,-0.00303092,0.000908828,-0.0111362,0.0107267,0.00245328,0.0130016,-0.0214959,2.46349,-0.217455,-0.129515,-9.81191,0.00140263,-0.00927978,-0.00259586,-0.188637,-0.150074,0.502624,1009.99,19
354221929362,10009,125,-1.41547,1.33225,-0.19192,0.00382288,0.00233422,0.000409382,-0.00842547,0.0108577,0.00181267,0.0130059,-0.021496,2.46351,-0.212936,-0.131486,-9.83553,0.0024668,-0.00725736,-0.00261508,-0.190247,-0.150312,0.502356,1009.99,19
354232495670,10585,113,-1.41547,1.33225,-0.19192,0.00382288,0.00233422,0.000409382,-0.00842547,0.0108577,0.00181267,0.0130014,-0.0214836,2.46353,-0.222035,-0.113214,-9.77267,0.00160864,-0.00778783,-0.00280353,-0.189986,-0.150477,0.502986,1010.03,19
354241917978,9410,120,-1.41553,1.33224,-0.191915,-0.00298328,-0.000160776,0.000230743,-0.0102208,0.0109534,0.00217697,0.0130009,-0.0214714,2.46355,-0.220757,-0.149082,-9.79035,0.00267942,-0.00725709,-0.00262225,-0.190814,-0.14775,0.502156,1010.03,19
354251919824,10010,114,-1.41553,1.33224,-0.191915,-0.00298328,-0.000160776,0.000230743,-0.0102208,0.0109534,0.00217697,0.0130009,-0.0214714,2.46355,-0.197783,-0.118137,-9.82021,0.00158832,-0.00831623,-0.00323868,-0.191497,-0.150719,0.503276,1010.01,19
354261950131,10023,122,-1.41555,1.33226,-0.191927,-0.000851515,0.000922971,-0.000582067,-0.010256,0.011047,0.000896336,0.013004,-0.0214554,2.46356,-0.200213,-0.0989195,-9.84584,0.00168978,-0.00798694,-0.00355326,-0.192142,-0.149278,0.503149,1010.01,19
354272137824,10187,123,-1.41555,1.33226,-0.191927,-0.000851515,0.000922971,-0.000582067,-0.010256,0.011047,0.000896336,0.0130027,-0.0214525,2.46357,-0.21458,-0.1204,-9.81284,0.00119107,-0.00842889,-0.00258171,-0.187896,-0.148,0.503257,1010.01,19
354282584978,10454,116,-1.41542,1.33218,-0.191947,0.00648461,-0.00381693,-0.000995915,-0.00860238,0.0103966,0.00440501,0.012992,-0.0214438,2.46359,-0.215064,-0.146561,-9.80593,0.000622482,-0.00831277,-0.00362643,-0.192177,-0.151269,0.502093,1010.01,19
354291904285,9319,114,-1.41542,1.33218,-0.191947,0.00648461,-0.00381693,-0.000995915,-0.00860238,0.0103966,0.00440501,0.0129862,-0.0214427,2.4636,-0.215064,-0.146561,-9.80593,0.000622482,-0.00831277,-0.00362643,-0.192177,-0.151269,0.502093,1010.01,19
354302223362,10314,121,-1.41547,1.33226,-0.191945,-0.00268555,0.00354897,7.96434e-05,-0.00829084,0.0106198,0.00387858,0.0129843,-0.0214353,2.46361,-0.19606,-0.138118,-9.81772,0.00168955,-0.00831277,-0.00366242,-0.191873,-0.149425,0.501618,1010.01,19
354311905593,9687,115,-1.41547,1.33226,-0.191945,-0.00268555,0.00354897,7.96434e-05,-0.00829084,0.0106198,0.00387858,0.0129841,-0.0214339,2.46361,-0.223583,-0.127614,-9.81024,0.00193436,-0.00810905,-0.00260414,-0.191535,-0.14975,0.502164,1010.03,19
354321928824,10008,127,-1.41554,1.33224,-0.191936,-0.00342392,-0.000917016,0.000477861,-0.0100305,0.0110508,0.00182431,0.0129816,-0.0214272,2.46364,-0.193366,-0.117183,-9.82894,0.00143954,-0.00905326,-0.00461976,-0.191661,-0.146558,0.503155,1010.03,19
354331959901,10050,113,-1.41554,1.33224,-0.191936,-0.00342392,-0.000917016,0.000477861,-0.0100305,0.0110508,0.00182431,0.0129769,-0.0214243,2.46365,-0.21899,-0.1367,-9.82569,0.00162663,-0.00832587,-0.00206977,-0.190371,-0.1476,0.503424,1010.04,19
354341931747,9953,128,-1.41549,1.33218,-0.191951,0.00242354,-0.0029416,-0.000752519,-0.00978774,0.0101615,0.00314438,0.0129769,-0.0214243,2.46365,-0.228586,-0.121063,-9.79599,0.00137767,-0.00831537,-0.00333565,-0.189213,-0.14839,0.502177,1010.04,19
354352447670,10533,115,-1.41549,1.33218,-0.191951,0.00242354,-0.0029416,-0.000752519,-0.00978774,0.0101615,0.00314438,0.0129606,-0.0214259,2.46368,-0.239167,-0.130348,-9.82562,0.00155472,-0.0080938,-0.0044004,-0.192312,-0.148395,0.502842,1010.04,19
354361939054,9480,125,-1.41564,1.33217,-0.191929,-0.00722299,-0.000285823,0.0010763,-0.0109348,0.0111574,0.00289105,0.0129661,-0.0214245,2.46368,-0.205185,-0.127339,-9.81673,0.00326241,-0.00872591,-0.00446403,-0.190634,-0.149995,0.502772,1010.05,19
354372602362,10673,116,-1.41564,1.33217,-0.191929,-0.00722299,-0.000285823,0.0010763,-0.0109348,0.0111574,0.00289105,0.0129707,-0.0214234,2.46369,-0.210708,-0.138254,-9.79745,0.00246654,-0.00821509,-0.00262297,-0.189844,-0.147512,0.502446,1010.05,19
354381933208,9312,131,-1.41543,1.33221,-0.191932,0.0102241,0.00190549,-0.000151844,-0.008334,0.0105945,0.00425524,0.0129787,-0.0214198,2.4637,-0.210708,-0.138254,-9.79745,0.00246654,-0.00821509,-0.00262297,-0.189844,-0.147512,0.502446,1010.05,19
354391912516,9992,120,-1.41543,1.33221,-0.191932,0.0102241,0.00190549,-0.000151844,-0.008334,0.0105945,0.00425524,0.0129867,-0.0214165,2.46372,-0.21271,-0.128868,-9.79409,0.00331887,-0.00852831,-0.00265431,-0.190313,-0.149195,0.502768,1010.05,19
354402361285,10453,119,-1.4155,1.33221,-0.191942,-0.00338224,-4.16825e-05,-0.000483071,-0.00973241,0.0106149,0.000892394,0.0129856,-0.0214073,2.46374,-0.193237,-0.127535,-9.80354,0.00136719,-0.00766574,-0.00364621,-0.19227,-0.149426,0.501711,1010.05,19
354411905977,9544,118,-1.4155,1.33221,-0.191942,-0.00338224,-4.16825e-05,-0.000483071,-0.00973241,0.0106149,0.000892394,0.0129776,-0.021406,2.46376,-0.193237,-0.127535,-9.80354,0.00136719,-0.00766574,-0.00364621,-0.19227,-0.149426,0.501711,1010.05,19
354421933516,10014,127,-1.41548,1.33221,-0.191946,0.00117902,4.76372e-05,-0.00022851,-0.00894354,0.0104036,0.00316865,0.0129776,-0.021406,2.46376,-0.2051,-0.146312,-9.83614,0.00246627,-0.0091722,-0.00263086,-0.190478,-0.148154,0.502622,1010.02,19
354431914208,9991,118,-1.41548,1.33221,-0.191946,0.00117902,4.76372e-05,-0.00022851,-0.00894354,0.0104036,0.00316865,0.0129826,-0.0214143,2.46379,-0.210698,-0.127787,-9.84875,0.00263968,-0.00809905,-0.00379933,-0.192697,-0.149979,0.500921,1010.02,19
354442164977,10246,128,-1.41551,1.33221,-0.191936,-0.00168517,0.00016673,0.000526242,-0.0107933,0.0108407,0.00160778,0.0129841,-0.0214119,2.46379,-0.218228,-0.11539,-9.78573,0.00138504,-0.00831718,-0.00311695,-0.188662,-0.149668,0.501908,1009.98,19
354451907824,9754,116,-1.41551,1.33221,-0.191936,-0.00168517,0.00016673,0.000526242,-0.0107933,0.0108407,0.00160778,0.0129781,-0.021407,2.4638,-0.217785,-0.135444,-9.81567,0.00190527,-0.00789065,-0.00355707,-0.190975,-0.15023,0.502141,1009.98,19
354461931131,10021,117,-1.41549,1.33225,-0.191941,0.000866699,0.00194702,-0.000267792,-0.00850308,0.0106205,0.00401751,0.0129758,-0.0214033,2.46381,-0.212984,-0.131257,-9.79992,0.00232198,-0.00746182,-0.00367674,-0.191931,-0.14855,0.502268,1009.98,19
354471903593,9974,116,-1.41549,1.33225,-0.191941,0.000866699,0.00194702,-0.000267792,-0.00850308,0.0106205,0.00401751,0.0129737,-0.0213966,2.46382,-0.212984,-0.131257,-9.79992,0.00232198,-0.00746182,-0.00367674,-0.191931,-0.14855,0.502268,1009.98,19
354481930900,10013,128,-1.41555,1.33224,-0.191924,-0.00275105,-0.000381098,0.000832907,-0.0091463,0.0109943,0.00275217,0.0129656,-0.021387,2.46384,-0.210461,-0.110266,-9.82569,0.00157766,-0.00831277,-0.00365865,-0.18872,-0.150154,0.502546,1009.98,19
354491911977,9992,117,-1.41555,1.33224,-0.191924,-0.00275105,-0.000381098,0.000832907,-0.0091463,0.0109943,0.00275217,0.0129603,-0.021386,2.46385,-0.212707,-0.108142,-9.84956,0.00232387,-0.0092704,-0.00369172,-0.191099,-0.148158,0.503203,1009.98,19
354501914593,10002,118,-1.41551,1.33221,-0.191938,0.00175662,-0.00161966,-0.000702649,-0.00961309,0.0104773,0.00344345,0.0129587,-0.0213881,2.46386,-0.222273,-0.136433,-9.80343,0.00246243,-0.00927172,-0.00274469,-0.191595,-0.148554,0.502737,1009.98,19
354511906900,9994,118,-1.41551,1.33221,-0.191938,0.00175662,-0.00161966,-0.000702649,-0.00961309,0.0104773,0.00344345,0.0129618,-0.0213921,2.46387,-0.222273,-0.136433,-9.80343,0.00246243,-0.00927172,-0.00274469,-0.191595,-0.148554,0.502737,1009.98,19
354522013285,10100,125,-1.4155,1.33227,-0.19191,0.00060142,0.00266768,0.00140902,-0.0083772,0.0111091,0.00302555,0.012975,-0.0214,2.46389,-0.229277,-0.143163,-9.79865,0.00326694,-0.00830663,-0.00446007,-0.19182,-0.148299,0.500825,1010.06,19
354531914131,9902,119,-1.4155,1.33227,-0.19191,0.00060142,0.00266768,0.00140902,-0.0083772,0.0111091,0.00302555,0.0129808,-0.0214001,2.4639,-0.209802,-0.129757,-9.84162,0.0021098,-0.00905973,-0.00368277,-0.190158,-0.147034,0.502621,1010.06,19
354541930977,10010,129,-1.41551,1.33225,-0.191927,-0.000559737,-0.000946789,-0.000861191,-0.00885374,0.0105282,0.00378378,0.0129881,-0.0214033,2.46393,-0.215845,-0.130693,-9.81477,0.00276739,-0.00917067,-0.00317556,-0.191725,-0.146802,0.503636,1010.02,19
354552197824,10254,143,-1.41551,1.33225,-0.191927,-0.000559737,-0.000946789,-0.000861191,-0.00885374,0.0105282,0.00378378,0.0129947,-0.0213983,2.46395,-0.202323,-0.126051,-9.79695,0.00214785,-0.00725736,-0.00260432,-0.191414,-0.1496,0.503362,1010.02,19
354561926131,9742,128,-1.41555,1.33221,-0.191938,-0.00195908,-0.00175662,-0.000519543,-0.0102709,0.0107169,0.00193068,0.0130002,-0.0213883,2.46396,-0.223095,-0.132652,-9.86671,0.00350838,-0.00906121,-0.00330401,-0.190963,-0.147192,0.502486,1010.02,19
354571903593,9990,113,-1.41555,1.33221,-0.191938,-0.00195908,-0.00175662,-0.000519543,-0.0102709,0.0107169,0.00193068,0.0130107,-0.0213872,2.46398,-0.223095,-0.132652,-9.86671,0.00350838,-0.00906121,-0.00330401,-0.190963,-0.147192,0.502486,1010.02,19
354582152131,10239,127,-1.4155,1.33225,-0.191946,0.00241759,0.00189953,-0.000399706,-0.0088257,0.01066,0.00331121,0.0130149,-0.0213891,2.46399,-0.229155,-0.143042,-9.80446,0.00222599,-0.00873526,-0.0034721,-0.191107,-0.148236,0.502963,1009.95,19
354591906747,9765,117,-1.4155,1.33225,-0.191946,0.00241759,0.00189953,-0.000399706,-0.0088257,0.01066,0.00331121,0.0130179,-0.0213894,2.46399,-0.229155,-0.143042,-9.80446,0.00222599,-0.00873526,-0.0034721,-0.191107,-0.148236,0.502963,1009.95,19
354602067747,10155,123,-1.41555,1.33219,-0.191921,-0.00244736,-0.00313215,0.00126387,-0.0103597,0.0110694,0.00155018,0.0130236,-0.0213901,2.46401,-0.225925,-0.128867,-9.81793,0.00307723,-0.00831454,-0.00349391,-0.189284,-0.147112,0.50243,1009.95,19
354611912208,9843,121,-1.41555,1.33219,-0.191921,-0.00244736,-0.00313215,0.00126387,-0.0103597,0.0110694,0.00155018,0.0130236,-0.0213901,2.46401,-0.225925,-0.128867,-9.81793,0.00307723,-0.00831454,-0.00349391,-0.189284,-0.147112,0.50243,1009.95,19
354621925747,10008,128,-1.41554,1.33223,-0.191939,0.000702649,0.00238186,-0.000904362,-0.0101009,0.0104838,0.00328563,0.0130303,-0.02139,2.46402,-0.206251,-0.160259,-9.79994,0.00214716,-0.00927931,-0.00262097,-0.189407,-0.149122,0.503539,1010.12,19
354631921362,9999,122,-1.41554,1.33223,-0.191939,0.000702649,0.00238186,-0.000904362,-0.0101009,0.0104838,0.00328563,0.0130307,-0.0213965,2.46404,-0.216998,-0.127154,-9.80708,0.00180827,-0.00863677,-0.00335212,-0.189407,-0.149122,0.503539,1010.12,19
354642550131,10624,131,-1.4155,1.33221,-0.19194,0.00203649,-0.00131002,-6.40125e-05,-0.00936348,0.010701,0.00367088,0.0130295,-0.0213977,2.46404,-0.207901,-0.107895,-9.7921,0.00241627,-0.00830926,-0.00411299,-0.19084,-0.148003,0.503756,1010.03,19
354651930516,9375,130,-1.4155,1.33221,-0.19194,0.00203649,-0.00131002,-6.40125e-05,-0.00936348,0.010701,0.00367088,0.0130271,-0.0213998,2.46405,-0.233441,-0.120417,-9.81173,0.00234931,-0.00938309,-0.00294773,-0.189914,-0.148555,0.50276,1010.03,19
354661941439,10008,131,-1.41558,1.33223,-0.191918,-0.0041623,0.00113138,0.00108523,-0.0115284,0.0106727,0.0019384,0.0130252,-0.0214076,2.46406,-0.233441,-0.120417,-9.81173,0.00234931,-0.00938309,-0.00294773,-0.189914,-0.148555,0.50276,1010.03,19
354671914362,9989,118,-1.41558,1.33223,-0.191918,-0.0041623,0.00113138,0.00108523,-0.0115284,0.0106727,0.0019384,0.0130171,-0.0214185,2.46407,-0.22422,-0.104444,-9.80038,0.00129735,-0.00832154,-0.0025844,-0.189839,-0.148234,0.5026,1010.07,19
354682194285,10281,122,-1.41555,1.33225,-0.191945,0.0016018,0.00084556,-0.00131374,-0.00960951,0.011199,0.00221336,0.0130057,-0.0214166,2.46409,-0.21359,-0.122462,-9.81878,0.00126186,-0.00831277,-0.00364799,-0.190415,-0.14839,0.502138,1010.07,19
354691913746,9718,120,-1.41555,1.33225,-0.191945,0.0016018,0.00084556,-0.00131374,-0.00960951,0.011199,0.00221336,0.0129971,-0.0214128,2.4641,-0.240569,-0.128075,-9.83356,0.002643,-0.00831276,-0.00369459,-0.19097,-0.151031,0.502295,1010.07,19
354702244439,10338,117,-1.41554,1.33224,-0.191954,0.000535918,-0.000577601,-0.000479349,-0.00942296,0.010783,0.00330778,0.013,-0.0214132,2.46411,-0.225641,-0.12745,-9.80044,0.00271726,-0.00936905,-0.00466405,-0.19111,-0.147036,0.502893,1010.07,19
354711913285,9663,119,-1.41554,1.33224,-0.191954,0.000535918,-0.000577601,-0.000479349,-0.00942296,0.010783,0.00330778,0.0130038,-0.0214177,2.46412,-0.225641,-0.12745,-9.80044,0.00271726,-0.00936905,-0.00466405,-0.19111,-0.147036,0.502893,1010.07,19
354722239593,10328,121,-1.41549,1.33225,-0.191931,0.00214367,0.000452553,0.00113511,-0.00853024,0.0109503,0.00179044,0.0130063,-0.0214265,2.46413,-0.235302,-0.129006,-9.78254,0.0024375,-0.0093787,-0.00348361,-0.191326,-0.149202,0.503603,1010.06,19
354731912054,9667,122,-1.41549,1.33225,-0.191931,0.00214367,0.000452553,0.00113511,-0.00853024,0.0109503,0.00179044,0.0130067,-0.0214391,2.46415,-0.220249,-0.127053,-9.81731,0.00137398,-0.00863388,-0.00344492,-0.191929,-0.148871,0.502345,1010.06,19
354742046823,10117,142,-1.41549,1.33222,-0.191939,0.000273914,-0.00125048,-0.000365467,-0.00873609,0.0108903,0.0042299,0.0130013,-0.0214458,2.46417,-0.215981,-0.136579,-9.82597,0.0013381,-0.00905068,-0.00450854,-0.191645,-0.146642,0.503635,1010.06,19
354751926131,9886,132,-1.41549,1.33222,-0.191939,0.000273914,-0.00125048,-0.000365467,-0.00873609,0.0108903,0.0042299,0.0130013,-0.0214458,2.46417,-0.215981,-0.136579,-9.82597,0.0013381,-0.00905068,-0.00450854,-0.191645,-0.146642,0.503635,1010.06,19
354761943593,10012,137,-1.41549,1.33225,-0.191932,5.35918e-05,0.00164944,0.000325273,-0.00861399,0.0109084,0.00353435,0.0129989,-0.021454,2.46417,-0.215981,-0.136579,-9.82597,0.0013381,-0.00905068,-0.00450854,-0.191645,-0.146642,0.503635,1010.06,19
354772180823,10249,132,-1.41549,1.33225,-0.191932,5.35918e-05,0.00164944,0.000325273,-0.00861399,0.0109084,0.00353435,0.0129966,-0.0214531,2.46418,-0.216312,-0.148521,-9.82913,0.00145571,-0.00969248,-0.00419848,-0.190578,-0.150149,0.502049,1010.03,19
354782221285,10047,125,-1.41559,1.33224,-0.19201,-0.00489472,-0.000750286,-0.00388541,-0.00931325,0.00991263,0.00258714,0.0129914,-0.0214572,2.46418,-0.202921,-0.112659,-9.78749,0.00181582,-0.00906903,-0.00304226,-0.188362,-0.147283,0.503679,1010.03,19
354792200746,9987,116,-1.41559,1.33224,-0.19201,-0.00489472,-0.000750286,-0.00388541,-0.00931325,0.00991263,0.00258714,0.0129794,-0.0214639,2.4642,-0.220628,-0.11358,-9.77394,0.00104778,-0.00884366,-0.00364516,-0.189941,-0.148708,0.501959,1010.03,19
354802216669,10008,125,-1.41551,1.33222,-0.191947,0.00359065,-0.000851515,0.00316266,-0.00934017,0.0105871,0.00283322,0.0129775,-0.0214642,2.46421,-0.201262,-0.151935,-9.7992,0.00139926,-0.00874828,-0.00269578,-0.190585,-0.149767,0.504213,1010.03,19
354811919593,9700,124,-1.41551,1.33222,-0.191947,0.00359065,-0.000851515,0.00316266,-0.00934017,0.0105871,0.00283322,0.0129763,-0.0214636,2.46422,-0.22427,-0.126222,-9.80415,0.00296078,-0.00757438,-0.00359283,-0.188858,-0.149439,0.503197,1010.04,19
354822041285,10125,124,-1.41544,1.33216,-0.191938,0.00383479,-0.0028761,0.000448832,-0.0090273,0.0103678,0.00328255,0.0129837,-0.0214627,2.46423,-0.22427,-0.126222,-9.80415,0.00296078,-0.00757438,-0.00359283,-0.188858,-0.149439,0.503197,1010.04,19
354831904823,9873,114,-1.41544,1.33216,-0.191938,0.00383479,-0.0028761,0.000448832,-0.0090273,0.0103678,0.00328255,0.0129886,-0.0214699,2.46425,-0.22427,-0.126222,-9.80415,0.00296078,-0.00757438,-0.00359283,-0.188858,-0.149439,0.503197,1010.04,19
354842176439,10268,119,-1.41551,1.33225,-0.191945,-0.00384075,0.00448981,-0.000358768,-0.0108664,0.0104862,0.000989583,0.0129875,-0.0214771,2.46426,-0.220726,-0.130147,-9.79682,0.00138461,-0.00916951,-0.00313011,-0.191185,-0.149757,0.503033,1010.04,19
354851909439,9731,117,-1.41551,1.33225,-0.191945,-0.00384075,0.00448981,-0.000358768,-0.0108664,0.0104862,0.000989583,0.0129819,-0.0214826,2.46427,-0.241558,-0.117748,-9.82422,0.00232412,-0.0088414,-0.00368819,-0.191022,-0.149358,0.503111,1010.06,19
354862172977,10259,126,-1.41553,1.33222,-0.191928,-0.000744331,-0.0017983,0.000855237,-0.0105048,0.0108118,0.00196678,0.0129798,-0.021484,2.46428,-0.225465,-0.143942,-9.85936,0.000335734,-0.00832067,-0.00265713,-0.191984,-0.146717,0.503085,1010.06,19
354871919977,9745,124,-1.41553,1.33222,-0.191928,-0.000744331,-0.0017983,0.000855237,-0.0105048,0.0108118,0.00196678,0.0129707,-0.0214859,2.46429,-0.225465,-0.143942,-9.85936,0.000335734,-0.00832067,-0.00265713,-0.191984,-0.146717,0.503085,1010.06,19
354882036669,10124,119,-1.41551,1.33223,-0.191962,0.000905107,0.000797923,-0.00170005,-0.00920961,0.0104174,0.00346147,0.0129564,-0.0214909,2.46431,-0.231124,-0.105883,-9.80098,0.00298949,-0.00884917,-0.00295906,-0.19143,-0.149916,0.50288,1010.07,19
354891901746,9872,114,-1.41551,1.33223,-0.191962,0.000905107,0.000797923,-0.00170005,-0.00920961,0.0104174,0.00346147,0.0129557,-0.0214946,2.46432,-0.231124,-0.105883,-9.80098,0.00298949,-0.00884917,-0.00295906,-0.19143,-0.149916,0.50288,1010.07,19
354902259900,10352,119,-1.41547,1.33224,-0.191947,0.0021139,0.000297732,0.000755496,-0.00862412,0.0105835,0.0022003,0.012939,-0.0215018,2.46435,-0.219476,-0.12062,-9.8226,0.000903643,-0.00833032,-0.00150633,-0.191263,-0.151198,0.503104,1010.07,19
354911908669,9648,117,-1.41547,1.33224,-0.191947,0.0021139,0.000297732,0.000755496,-0.00862412,0.0105835,0.0022003,0.0129267,-0.0215021,2.46437,-0.219476,-0.12062,-9.8226,0.000903643,-0.00833032,-0.00150633,-0.191263,-0.151198,0.503104,1010.07,19
354922075516,10164,121,-1.41554,1.33225,-0.191948,-0.00369784,0.000464463,-4.46599e-05,-0.00959065,0.010876,0.00295291,0.0129246,-0.0215015,2.46437,-0.205884,-0.12819,-9.81687,0.00138166,-0.00799177,-0.00321721,-0.191169,-0.149601,0.503514,1010.07,19
354931912746,9840,118,-1.41554,1.33225,-0.191948,-0.00369784,0.000464463,-4.46599e-05,-0.00959065,0.010876,0.00295291,0.0129237,-0.0214974,2.46439,-0.205884,-0.12819,-9.81687,0.00138166,-0.00799177,-0.00321721,-0.191169,-0.149601,0.503514,1010.07,19
354941919900,10003,123,-1.41545,1.33222,-0.191963,0.00485304,-0.00130407,-0.000792713,-0.00789448,0.0106856,0.00253601,0.0129222,-0.021502,2.46441,-0.205884,-0.12819,-9.81687,0.00138166,-0.00799177,-0.00321721,-0.191169,-0.149601,0.503514,1010.07,19
354952189054,10267,126,-1.41545,1.33222,-0.191963,0.00485304,-0.00130407,-0.000792713,-0.00789448,0.0106856,0.00253601,0.0129159,-0.021504,2.46441,-0.208103,-0.105138,-9.80511,0.000948641,-0.00725034,-0.00341569,-0.191057,-0.147349,0.502088,1010.05,19
354962545900,10360,123,-1.41547,1.33225,-0.19194,-0.00125122,0.00162964,0.00117416,-0.00798258,0.0105641,0.00247672,0.0129008,-0.0214962,2.46444,-0.200749,-0.138903,-9.80661,0.00190512,-0.00863258,-0.00345897,-0.19196,-0.148643,0.503789,1010.05,19
354971974746,9438,116,-1.41547,1.33225,-0.19194,-0.00125122,0.00162964,0.00117416,-0.00798258,0.0105641,0.00247672,0.0129001,-0.0214955,2.46446,-0.198799,-0.11934,-9.85556,0.00320047,-0.00821255,-0.00296674,-0.192484,-0.144632,0.502479,1010.05,19
354982077669,10086,131,-1.41543,1.33218,-0.191921,0.00177449,-0.00376929,0.000976562,-0.0085861,0.010487,0.00239657,0.0129007,-0.0214944,2.46447,-0.21861,-0.131293,-9.77593,0.00245952,-0.00757886,-0.00283109,-0.190895,-0.15039,0.502137,1010.05,19
354991919054,9844,124,-1.41543,1.33218,-0.191921,0.00177449,-0.00376929,0.000976562,-0.0085861,0.010487,0.00239657,0.012913,-0.0214845,2.46451,-0.200786,-0.125294,-9.77257,0.00166866,-0.00798912,-0.00419109,-0.190031,-0.148706,0.501642,1010.05,19
355001945592,10015,133,-1.41549,1.33221,-0.191951,-0.00253668,0.00175067,-0.00151099,-0.00985386,0.0101622,0.00152852,0.0129116,-0.0214781,2.46451,-0.200786,-0.125294,-9.77257,0.00166866,-0.00798912,-0.00419109,-0.190031,-0.148706,0.501642,1010.05,19
355012295439,10373,115,-1.41549,1.33221,-0.191951,-0.00253668,0.00175067,-0.00151099,-0.00985386,0.0101622,0.00152852,0.0129021,-0.0214796,2.46452,-0.229084,-0.127945,-9.79766,0.00212612,-0.0077886,-0.003243,-0.191556,-0.147985,0.501539,1010.05,19
355022271746,9961,131,-1.41554,1.33225,-0.1919,-0.0028225,0.00161966,0.00255454,-0.0103591,0.010949,0.00159466,0.012898,-0.0214789,2.46454,-0.214134,-0.0956128,-9.80197,0.00200063,-0.00863657,-0.00367558,-0.18893,-0.147681,0.503454,1010.05,19
355031917977,9649,124,-1.41554,1.33225,-0.1919,-0.0028225,0.00161966,0.00255454,-0.0103591,0.010949,0.00159466,0.0128939,-0.0214792,2.46454,-0.214134,-0.0956128,-9.80197,0.00200063,-0.00863657,-0.00367558,-0.18893,-0.147681,0.503454,1010.05,19
355041935208,10013,128,-1.41554,1.33225,-0.191937,0.000321551,-5.95465e-05,-0.00185264,-0.00997983,0.0104593,0.00312248,0.0128947,-0.0214798,2.46456,-0.218602,-0.127469,-9.80646,0.00244706,-0.00831418,-0.003516,-0.190445,-0.149742,0.501247,1010.05,19
355052271746,10340,129,-1.41554,1.33225,-0.191937,0.000321551,-5.95465e-05,-0.00185264,-0.00997983,0.0104593,0.00312248,0.0128982,-0.0214805,2.46458,-0.216307,-0.134659,-9.84097,0.00221668,-0.00745543,-0.00367313,-0.191297,-0.148789,0.502084,1010.06,19
355061932900,9659,128,-1.41547,1.33225,-0.191947,0.00335842,0.000387052,-0.000480094,-0.00787658,0.0107119,0.0018341,0.0129035,-0.0214776,2.46459,-0.233422,-0.12197,-9.826,0.00136704,-0.00820643,-0.00365067,-0.189702,-0.146008,0.504295,1010.06,19
355072170362,10237,133,-1.41547,1.33225,-0.191947,0.00335842,0.000387052,-0.000480094,-0.00787658,0.0107119,0.0018341,0.0128996,-0.0214773,2.46461,-0.231262,-0.118249,-9.80573,0.00172194,-0.0086475,-0.00260142,-0.191462,-0.147908,0.501937,1010.06,19
355082518515,10354,126,-1.41546,1.33222,-0.191937,0.000250095,-0.0016673,0.000477861,-0.00829243,0.0101113,0.0022984,0.0128945,-0.0214783,2.46463,-0.225037,-0.138202,-9.82592,0.000303429,-0.00820033,-0.00361474,-0.189249,-0.147441,0.503467,1010.06,19
355092603054,10096,117,-1.41546,1.33222,-0.191937,0.000250095,-0.0016673,0.000477861,-0.00829243,0.0101113,0.0022984,0.0128855,-0.0214747,2.46465,-0.216795,-0.134533,-9.84281,0.00211883,-0.00810251,-0.00335563,-0.192294,-0.15016,0.503387,1010.06,19
355101939131,9311,133,-1.4155,1.33222,-0.191958,-0.00203054,-0.000119093,-0.00101973,-0.00939106,0.0106635,0.00340489,0.0128823,-0.021473,2.46466,-0.216795,-0.134533,-9.84281,0.00211883,-0.00810251,-0.00335563,-0.192294,-0.15016,0.503387,1010.06,19
355111915977,9996,120,-1.4155,1.33222,-0.191958,-0.00203054,-0.000119093,-0.00101973,-0.00939106,0.0106635,0.00340489,0.012881,-0.0214734,2.46467,-0.209707,-0.142293,-9.83147,0.00213893,-0.00917132,-0.00293683,-0.189722,-0.148943,0.501309,1010.06,19
355121932592,10015,123,-1.41545,1.33222,-0.191942,0.00251286,0.000357279,0.000756985,-0.00842919,0.0102904,0.00259557,0.0128832,-0.0214748,2.46467,-0.217128,-0.117826,-9.80935,0.00328621,-0.00959583,-0.00372688,-0.189722,-0.148943,0.501309,1010.06,19
355132296977,10375,114,-1.41545,1.33222,-0.191942,0.00251286,0.000357279,0.000756985,-0.00842919,0.0102904,0.00259557,0.0128943,-0.0214828,2.46469,-0.216237,-0.115621,-9.78406,0.0024663,-0.00906727,-0.00262999,-0.191364,-0.148872,0.502486,1010.1,19
355141920900,9611,122,-1.41555,1.33224,-0.191942,-0.00465058,0.000613329,1.71196e-05,-0.00979558,0.0105913,0.00269053,0.0128938,-0.0214875,2.46471,-0.206582,-0.137874,-9.80889,0.00211189,-0.00831277,-0.00367667,-0.192544,-0.147997,0.503093,1010.1,19
355152143669,10224,124,-1.41555,1.33224,-0.191942,-0.00465058,0.000613329,1.71196e-05,-0.00979558,0.0105913,0.00269053,0.0128944,-0.0214889,2.46473,-0.227341,-0.140341,-9.84136,0.00297418,-0.00896609,-0.00349683,-0.19299,-0.149426,0.501736,1010.07,19
355161927208,9777,127,-1.41553,1.33226,-0.191954,0.000720513,0.000970608,-0.000599187,-0.00947249,0.0105954,0.00315275,0.0129051,-0.0214883,2.46474,-0.227341,-0.140341,-9.84136,0.00297418,-0.00896609,-0.00349683,-0.19299,-0.149426,0.501736,1010.07,19
355171909438,9991,120,-1.41553,1.33226,-0.191954,0.000720513,0.000970608,-0.000599187,-0.00947249,0.0105954,0.00315275,0.0129146,-0.0214927,2.46474,-0.217774,-0.134552,-9.83609,0.0024306,-0.00841934,-0.0036883,-0.190256,-0.15231,0.5021,1010.07,19
355181977746,10069,121,-1.41554,1.33227,-0.191921,-0.000220322,0.000762195,0.0016472,-0.00970046,0.0109456,0.00113381,0.0129221,-0.0214986,2.46476,-0.220053,-0.129559,-9.81959,0.00256932,-0.00863646,-0.00273653,-0.190737,-0.148469,0.502068,1010.07,19
355191909746,9930,117,-1.41554,1.33227,-0.191921,-0.000220322,0.000762195,0.0016472,-0.00970046,0.0109456,0.00113381,0.0129229,-0.0215056,2.46477,-0.220414,-0.154278,-9.79809,0.00244122,-0.00809981,-0.00337344,-0.191386,-0.150467,0.501833,1009.99,19
355201932285,10013,128,-1.41548,1.33223,-0.191935,0.00281059,-0.00226872,-0.000681063,-0.00921317,0.0107796,0.00245541,0.0129277,-0.0215066,2.46478,-0.221209,-0.136781,-9.81099,0.00230955,-0.00874192,-0.00411988,-0.191939,-0.146469,0.502045,1009.99,19
355212438054,10526,113,-1.41548,1.33223,-0.191935,0.00281059,-0.00226872,-0.000681063,-0.00921317,0.0107796,0.00245541,0.0129323,-0.021506,2.46479,-0.205074,-0.119983,-9.83926,0.00394988,-0.00937838,-0.0035744,-0.190869,-0.149817,0.50054,1009.99,19
355222235900,9779,130,-1.41557,1.33224,-0.191919,-0.0042933,0.000815787,0.000779315,-0.010683,0.0108279,0.00122554,0.0129389,-0.0215087,2.4648,-0.224416,-0.132315,-9.7927,0.00161591,-0.00747025,-0.00258813,-0.191556,-0.149344,0.501528,1009.99,19
355231913669,9683,121,-1.41557,1.33224,-0.191919,-0.0042933,0.000815787,0.000779315,-0.010683,0.0108279,0.00122554,0.0129421,-0.0215096,2.46482,-0.224416,-0.132315,-9.7927,0.00161591,-0.00747025,-0.00258813,-0.191556,-0.149344,0.501528,1009.99,19
355241929054,10013,127,-1.41557,1.33219,-0.191879,-0.000363234,-0.00252477,0.00202309,-0.0116904,0.0114456,0.00140344,0.0129407,-0.0215036,2.46483,-0.19799,-0.130649,-9.78835,0.0013994,-0.00778882,-0.00269153,-0.190699,-0.152379,0.500834,1010.06,19
355252216746,10301,116,-1.41557,1.33219,-0.191879,-0.000363234,-0.00252477,0.00202309,-0.0116904,0.0114456,0.00140344,0.0129448,-0.0214995,2.46484,-0.199726,-0.116235,-9.82071,0.00264135,-0.00810199,-0.00369279,-0.192191,-0.151426,0.501692,1010.06,19
355261940361,9719,118,-1.41554,1.33226,-0.19195,0.00147675,0.00350133,-0.00354599,-0.0104001,0.0103193,0.00176137,0.0129493,-0.0214952,2.46485,-0.226927,-0.140319,-9.80502,0.00138457,-0.00938132,-0.00313105,-0.191761,-0.148793,0.50258,1010.01,19
355272401208,10471,110,-1.41554,1.33226,-0.19195,0.00147675,0.00350133,-0.00354599,-0.0104001,0.0103193,0.00176137,0.0129492,-0.0214969,2.46486,-0.196727,-0.118431,-9.82219,0.00321014,-0.00821419,-0.00264805,-0.190756,-0.148624,0.501507,1010.01,19
355281942438,9510,133,-1.41549,1.33226,-0.191944,0.00264386,0.000148866,0.000302943,-0.00813237,0.0105988,0.0037833,0.0129515,-0.0214981,2.46487,-0.196727,-0.118431,-9.82219,0.00321014,-0.00821419,-0.00264805,-0.190756,-0.148624,0.501507,1010.01,19
355292042361,10120,121,-1.41549,1.33226,-0.191944,0.00264386,0.000148866,0.000302943,-0.00813237,0.0105988,0.0037833,0.0129582,-0.0214903,2.4649,-0.210241,-0.12287,-9.80487,0.00243764,-0.00756351,-0.00347923,-0.192369,-0.148301,0.501164,1010.08,19
355301929977,9877,125,-1.41566,1.33225,-0.191857,-0.00821146,-0.000875333,0.00434243,-0.0111377,0.0124091,0.00120201,0.0129585,-0.0214875,2.46491,-0.210241,-0.12287,-9.80487,0.00243764,-0.00756351,-0.00347923,-0.192369,-0.148301,0.501164,1010.08,19
355311910977,9991,116,-1.41566,1.33225,-0.191857,-0.00821146,-0.000875333,0.00434243,-0.0111377,0.0124091,0.00120201,0.0129618,-0.0214849,2.46492,-0.220831,-0.139299,-9.79425,0.00246636,-0.0088578,-0.00262827,-0.189959,-0.150964,0.503782,1010.08,19
355321922054,10010,121,-1.41555,1.33224,-0.191927,0.00541278,-0.000184594,-0.00352366,-0.0103758,0.0111494,0.00105997,0.0129615,-0.0214851,2.46493,-0.193829,-0.107479,-9.81415,0.000728729,-0.0086333,-0.00363265,-0.189794,-0.149185,0.50155,1010.08,19
355331920669,9993,123,-1.41555,1.33224,-0.191927,0.00541278,-0.000184594,-0.00352366,-0.0103758,0.0111494,0.00105997,0.0129525,-0.0214835,2.46494,-0.222517,-0.134266,-9.81413,0.00245207,-0.00905913,-0.0030518,-0.186415,-0.15015,0.502068,1010.04,19
355341910438,10002,116,-1.4156,1.33224,-0.191934,-0.00245332,-5.95465e-06,-0.000331227,-0.0115489,0.0106756,0.00194406,0.0129526,-0.0214854,2.46494,-0.241729,-0.125513,-9.80247,0.00169073,-0.00906139,-0.00356367,-0.186415,-0.15015,0.502068,1010.04,19
355351909284,9994,116,-1.4156,1.33224,-0.191934,-0.00245332,-5.95465e-06,-0.000331227,-0.0115489,0.0106756,0.00194406,0.0129519,-0.0214914,2.46497,-0.212021,-0.151315,-9.78292,0.00243063,-0.00831277,-0.00368742,-0.19082,-0.149748,0.50198,1010.04,19
355361935977,10027,120,-1.41554,1.33226,-0.191953,0.00291778,0.000905107,-0.000969119,-0.00942068,0.0108837,0.00220182,0.0129535,-0.0214911,2.46497,-0.221977,-0.137371,-9.81033,0.00209312,-0.00830842,-0.00420324,-0.190487,-0.150552,0.502362,1010.05,19
355371894054,9967,108,-1.41554,1.33226,-0.191953,0.00291778,0.000905107,-0.000969119,-0.00942068,0.0108837,0.00220182,0.0129581,-0.0214921,2.46498,-0.221977,-0.137371,-9.81033,0.00209312,-0.00830842,-0.00420324,-0.190487,-0.150552,0.502362,1010.05,19
355382490823,10589,119,-1.41554,1.33228,-0.19195,-0.000131002,0.000815787,0.000153332,-0.00935035,0.0109022,0.00333756,0.0129627,-0.0214994,2.46498,-0.219978,-0.125408,-9.83641,0.0013668,-0.00907073,-0.00365779,-0.188217,-0.15224,0.503232,1010.01,19
355391894131,9411,109,-1.41554,1.33228,-0.19195,-0.000131002,0.000815787,0.000153332,-0.00935035,0.0109022,0.00333756,0.0129612,-0.0215048,2.46498,-0.219978,-0.125408,-9.83641,0.0013668,-0.00907073,-0.00365779,-0.188217,-0.15224,0.503232,1010.01,19
355402016592,10114,120,-1.41554,1.33222,-0.191947,-0.000202458,-0.00271532,0.000148866,-0.0101944,0.0105717,0.00375044,0.0129609,-0.0215029,2.465,-0.208483,-0.141988,-9.80944,0.00151045,-0.00832154,-0.00259159,-0.188899,-0.149509,0.501997,1010.01,19
355412001823,9990,115,-1.41554,1.33222,-0.191947,-0.000202458,-0.00271532,0.000148866,-0.0101944,0.0105717,0.00375044,0.0129609,-0.0215029,2.465,-0.191792,-0.129103,-9.83181,0.00349374,-0.0101154,-0.00373816,-0.190231,-0.148636,0.50285,1010.01,19
355422279131,10273,119,-1.41543,1.3322,-0.191943,0.00592488,-0.00139934,0.000209901,-0.00839265,0.0103594,0.00293951,0.0129759,-0.0215075,2.46502,-0.221615,-0.128341,-9.83065,0.0027726,-0.00938399,-0.00285283,-0.188165,-0.148072,0.502385,1010.01,19
355431911823,9634,114,-1.41543,1.3322,-0.191943,0.00592488,-0.00139934,0.000209901,-0.00839265,0.0103594,0.00293951,0.0129829,-0.0215151,2.46503,-0.216533,-0.133207,-9.82875,0.00212959,-0.00884728,-0.00314726,-0.190966,-0.148552,0.502395,1010.02,19
355442244823,10324,128,-1.41556,1.33223,-0.191921,-0.00680021,0.00190549,0.00107705,-0.0100589,0.0110759,0.000514956,0.0129851,-0.021521,2.46504,-0.210776,-0.130939,-9.81353,0.00276045,-0.00842181,-0.00338,-0.190511,-0.149906,0.501648,1010.02,19
355451901746,9664,118,-1.41556,1.33223,-0.191921,-0.00680021,0.00190549,0.00107705,-0.0100589,0.0110759,0.000514956,0.0129922,-0.0215241,2.46505,-0.210776,-0.130939,-9.81353,0.00276045,-0.00842181,-0.00338,-0.190511,-0.149906,0.501648,1010.02,19
355461944823,10036,125,-1.41566,1.33216,-0.1919,-0.00500488,-0.00375977,0.00109406,-0.0120757,0.0108214,0.00247194,0.0129908,-0.0215302,2.46506,-0.205023,-0.137136,-9.79334,0.000664773,-0.00938832,-0.00225634,-0.189765,-0.150552,0.502418,1010.02,19
355472527669,10594,116,-1.41566,1.33216,-0.1919,-0.00500488,-0.00375977,0.00109406,-0.0120757,0.0108214,0.00247194,0.0129904,-0.0215326,2.46507,-0.202714,-0.143003,-9.80382,0.0019378,-0.00864838,-0.00260871,-0.189578,-0.148219,0.50083,1010.03,19
355481923131,9387,122,-1.41557,1.33224,-0.191939,0.00473395,0.00390625,-0.0019695,-0.0105532,0.0108242,0.00174674,0.0129912,-0.0215333,2.46509,-0.208793,-0.162688,-9.82593,0.00147305,-0.00831277,-0.00365512,-0.189639,-0.148884,0.503788,1010.03,19
355492243207,10326,117,-1.41557,1.33224,-0.191939,0.00473395,0.00390625,-0.0019695,-0.0105532,0.0108242,0.00174674,0.0129917,-0.0215319,2.4651,-0.219174,-0.130699,-9.84266,0.00293625,-0.00883965,-0.00445386,-0.188182,-0.149348,0.501894,1010.06,19
355501937900,9674,129,-1.41558,1.33229,-0.191847,-0.000803878,0.00239972,0.00461783,-0.0114561,0.012195,0.000521285,0.0129962,-0.0215292,2.46509,-0.219174,-0.130699,-9.84266,0.00293625,-0.00883965,-0.00445386,-0.188182,-0.149348,0.501894,1010.06,19
355511920592,9995,120,-1.41558,1.33229,-0.191847,-0.000803878,0.00239972,0.00461783,-0.0114561,0.012195,0.000521285,0.0129995,-0.0215347,2.46509,-0.20834,-0.118809,-9.83343,0.00214707,-0.00959856,-0.0026236,-0.189003,-0.151183,0.501267,1010.06,19
355522574054,10663,118,-1.41549,1.33221,-0.191936,0.00448385,-0.00398366,-0.00442356,-0.0094512,0.0104665,0.00366434,0.0130001,-0.0215378,2.4651,-0.209853,-0.114319,-9.82381,0.00233884,-0.00927373,-0.0033748,-0.190493,-0.15263,0.502185,1010.06,19
355531908592,9335,115,-1.41549,1.33221,-0.191936,0.00448385,-0.00398366,-0.00442356,-0.0094512,0.0104665,0.00366434,0.0130071,-0.0215445,2.46511,-0.208991,-0.132464,-9.80317,0.00172224,-0.0083218,-0.00259874,-0.190154,-0.150395,0.502753,1010.06,19
355541958207,10053,115,-1.41549,1.33221,-0.191936,0.00448385,-0.00398366,-0.00442356,-0.0094512,0.0104665,0.00366434,0.013001,-0.0215437,2.46512,-0.212489,-0.121034,-9.8266,0.000732231,-0.00915767,-0.0036371,-0.190228,-0.148636,0.50293,1010.06,19
355551973130,9973,144,-1.41554,1.33224,-0.191911,-0.00253668,0.00148866,0.00123633,-0.0111846,0.0106503,0.000374493,0.0129881,-0.0215458,2.46514,-0.225235,-0.115638,-9.81057,0.0022179,-0.00831276,-0.00368025,-0.189841,-0.147113,0.502529,1010.06,19
355562316284,10373,126,-1.41547,1.33224,-0.191915,0.00375143,0.000113138,-0.00022851,-0.00816503,0.0108716,0.00390803,0.0129876,-0.0215453,2.46515,-0.227312,-0.134935,-9.82177,0.00239475,-0.00830399,-0.004751,-0.192023,-0.150788,0.501932,1009.99,19
355572103823,9779,133,-1.41547,1.33224,-0.191915,0.00375143,0.000113138,-0.00022851,-0.00816503,0.0108716,0.00390803,0.0129894,-0.0215454,2.46515,-0.216639,-0.104631,-9.81004,0.00266105,-0.0097003,-0.00317461,-0.191747,-0.148956,0.502978,1009.99,19
355582309054,10203,135,-1.41549,1.3322,-0.19192,-0.0012207,-0.00210795,-0.000210646,-0.0100941,0.0105122,0.00148604,0.0129952,-0.0215512,2.46516,-0.172117,-0.130605,-9.79607,0.0024558,-0.00863394,-0.00294126,-0.191843,-0.149352,0.502498,1009.99,19
355591913130,9614,125,-1.41549,1.3322,-0.19192,-0.0012207,-0.00210795,-0.000210646,-0.0100941,0.0105122,0.00148604,0.0129967,-0.0215526,2.46516,-0.172117,-0.130605,-9.79607,0.0024558,-0.00863394,-0.00294126,-0.191843,-0.149352,0.502498,1009.99,19
355602014207,10097,130,-1.41545,1.33217,-0.191923,0.00216154,-0.00120284,-0.000176406,-0.00918733,0.00999562,0.00434899,0.0130036,-0.0215556,2.46517,-0.208404,-0.120989,-9.80011,0.00221683,-0.00937695,-0.00368899,-0.191692,-0.14943,0.502252,1010.04,19
355611916207,9910,119,-1.41545,1.33217,-0.191923,0.00216154,-0.00120284,-0.000176406,-0.00918733,0.00999562,0.00434899,0.0130063,-0.0215616,2.46518,-0.218176,-0.123305,-9.80679,0.00140304,-0.00779543,-0.00258363,-0.188163,-0.148313,0.502463,1010.04,19
355621917515,10004,119,-1.4156,1.33224,-0.191881,-0.00763982,0.00324528,0.00211911,-0.0105826,0.0112021,0.00112244,0.0129997,-0.0215615,2.46518,-0.21852,-0.118988,-9.8095,0.00128309,-0.00777909,-0.0031178,-0.188728,-0.149992,0.502308,1010.04,19
355632177130,10244,134,-1.4156,1.33224,-0.191881,-0.00763982,0.00324528,0.00211911,-0.0105826,0.0112021,0.00112244,0.0129866,-0.0215578,2.46519,-0.242254,-0.123714,-9.81786,0.00254479,-0.00799487,-0.00347568,-0.189865,-0.153588,0.501836,1010.04,19
