# Time(ns),period(us),execution,x,y,z,Vx,Vy,Vz,roll_OT,pitch_OT,yaw_OT,roll_PX4,pitch_PX4,yaw_PX4,imu_acc_x,imu_acc_y,imu_acc_z,imu_gyr_x,imu_gyr_y,imu_gyr_z,imu_mag_x,imu_mag_y,imu_mag_z,imu_absolute_pressure,ultrasonic_distance
1775535263961,10083,120,-1.33418,1.23799,-0.193163,0.000553782,-0.000928925,0.00273095,-0.0212799,0.0165119,-0.0613351,0.00619158,-0.0137301,2.45383,-0.147296,-0.0636189,-9.81247,0.000560064,-0.00513075,-0.00232023,-0.184876,-0.149574,0.509706,1010.17,19
1775545245576,9926,156,-1.33418,1.23799,-0.193163,0.000553782,-0.000928925,0.00273095,-0.0212799,0.0165119,-0.0613351,0.00619413,-0.0137313,2.45383,-0.147296,-0.0636189,-9.81247,0.000560064,-0.00513075,-0.00232023,-0.184876,-0.149574,0.509706,1010.17,19
1775555277115,10089,121,-1.3342,1.23802,-0.193273,-0.000780059,0.00164348,-0.00548423,-0.0206255,0.0144904,-0.0616346,0.00619882,-0.0137324,2.45383,-0.129937,-0.0728303,-9.77834,0.00228633,-0.00534974,-0.00163562,-0.18306,-0.153728,0.50897,1010.17,19
1775565935038,10639,140,-1.3342,1.23802,-0.193273,-0.000780059,0.00164348,-0.00548423,-0.0206255,0.0144904,-0.0616346,0.00620475,-0.0137299,2.45384,-0.109281,-0.076582,-9.78209,-0.00050195,-0.00513076,-0.00228286,-0.183223,-0.153168,0.5089,1010.25,19
1775575222269,9265,147,-1.33422,1.23808,-0.193251,-0.000964653,0.00299519,0.00108375,-0.0204819,0.0153107,-0.0622046,0.00620105,-0.0137271,2.45384,-0.109281,-0.076582,-9.78209,-0.00050195,-0.00513076,-0.00228286,-0.183223,-0.153168,0.5089,1010.25,19
1775585644884,10447,136,-1.33422,1.23808,-0.193251,-0.000964653,0.00299519,0.00108375,-0.0204819,0.0153107,-0.0622046,0.0061975,-0.0137243,2.45385,-0.141107,-0.0497928,-9.79203,0.00143604,-0.00545113,-0.00160553,-0.181538,-0.152769,0.509006,1010.25,19
1775595174115,9542,124,-1.33422,1.23814,-0.193246,-0.000101229,0.00302496,0.000260516,-0.0202081,0.0158303,-0.0617157,0.00619311,-0.0137244,2.45386,-0.141107,-0.0497928,-9.79203,0.00143604,-0.00545113,-0.00160553,-0.181538,-0.152769,0.509006,1010.25,19
1775605734038,10545,138,-1.33422,1.23814,-0.193246,-0.000101229,0.00302496,0.000260516,-0.0202081,0.0158303,-0.0617157,0.0061984,-0.0137252,2.45387,-0.154272,-0.0603667,-9.81859,0.00220582,-0.00514476,-0.000674866,-0.181775,-0.15109,0.509108,1010.25,19
1775615807884,10093,119,-1.33425,1.23806,-0.193224,-0.00145889,-0.00430521,0.0010964,-0.0209382,0.0149137,-0.0620925,0.00620281,-0.0137271,2.45388,-0.127946,-0.0580806,-9.79723,0.00103228,-0.00514215,-0.000952073,-0.180816,-0.15261,0.509063,1010.2,19
1775625552576,9724,138,-1.33425,1.23806,-0.193224,-0.00145889,-0.00430521,0.0010964,-0.0209382,0.0149137,-0.0620925,0.00620357,-0.0137263,2.45388,-0.126368,-0.0534397,-9.80816,0.000896614,-0.00619931,-0.0018093,-0.182991,-0.152606,0.508657,1010.2,19
1775635382038,9843,127,-1.33412,1.23805,-0.193268,0.00639529,-0.000381098,-0.00221885,-0.0208017,0.0145212,-0.0621943,0.00620313,-0.0137277,2.45389,-0.126368,-0.0534397,-9.80816,0.000896614,-0.00619931,-0.0018093,-0.182991,-0.152606,0.508657,1010.2,19
1775645231192,9812,147,-1.33412,1.23805,-0.193268,0.00639529,-0.000381098,-0.00221885,-0.0208017,0.0145212,-0.0621943,0.00620245,-0.0137287,2.45389,-0.138794,-0.0620424,-9.78466,0.000598764,-0.00588155,-0.00125995,-0.183432,-0.150535,0.509809,1010.15,19
1775655182115,9982,129,-1.33415,1.23803,-0.193224,-0.00143507,-0.000881288,0.00219801,-0.0206026,0.0152411,-0.061182,0.00620372,-0.0137336,2.45391,-0.119863,-0.0760301,-9.79881,0.00229489,-0.00492625,-0.00141966,-0.183734,-0.15212,0.507965,1010.15,19
1775665218653,10018,149,-1.33415,1.23803,-0.193224,-0.00143507,-0.000881288,0.00219801,-0.0206026,0.0152411,-0.061182,0.00620879,-0.0137288,2.45393,-0.119863,-0.0760301,-9.79881,0.00229489,-0.00492625,-0.00141966,-0.183734,-0.15212,0.507965,1010.15,19
1775675492653,10305,122,-1.33422,1.23808,-0.193222,-0.00354897,0.00245332,0.000131747,-0.0205788,0.0155334,-0.0621395,0.00620756,-0.0137233,2.45395,-0.135067,-0.0482279,-9.83035,0.00196296,-0.00513689,-0.00162221,-0.185232,-0.150685,0.508668,1010.11,19
1775685224192,9692,152,-1.33422,1.23808,-0.193222,-0.00354897,0.00245332,0.000131747,-0.0205788,0.0155334,-0.0621395,0.00620657,-0.0137211,2.45397,-0.135067,-0.0482279,-9.83035,0.00196296,-0.00513689,-0.00162221,-0.185232,-0.150685,0.508668,1010.11,19
1775695567961,10376,129,-1.33422,1.23813,-0.193222,-1.19093e-05,0.00263196,-9.67631e-06,-0.0211559,0.0161714,-0.0624535,0.00620243,-0.0137195,2.45397,-0.118917,-0.0513062,-9.8347,0.000347285,-0.00534369,-0.00231471,-0.185925,-0.155012,0.509456,1010.11,19
1775705229961,9623,157,-1.33422,1.23813,-0.193222,-1.19093e-05,0.00263196,-9.67631e-06,-0.0211559,0.0161714,-0.0624535,0.00620243,-0.0137195,2.45397,-0.118917,-0.0513062,-9.8347,0.000347285,-0.00534369,-0.00231471,-0.185925,-0.155012,0.509456,1010.11,19
1775715854730,10671,120,-1.3342,1.23808,-0.193185,0.000899152,-0.00262005,0.00183999,-0.020168,0.0159156,-0.0619981,0.00618627,-0.0137227,2.45397,-0.148342,-0.0553492,-9.83002,0.000903353,-0.00492766,-0.00147825,-0.182763,-0.157483,0.508288,1010.17,19
1775725212345,9328,149,-1.3342,1.23808,-0.193185,0.000899152,-0.00262005,0.00183999,-0.020168,0.0159156,-0.0619981,0.006183,-0.0137211,2.45397,-0.148342,-0.0553492,-9.83002,0.000903353,-0.00492766,-0.00147825,-0.182763,-0.157483,0.508288,1010.17,19
1775735235192,10049,125,-1.33411,1.23803,-0.193199,0.00457913,-0.00246522,-0.000688506,-0.0202063,0.0155207,-0.0609229,0.00618411,-0.0137158,2.45399,-0.139695,-0.0491907,-9.80487,0.00126654,-0.00514742,-0.000320839,-0.182804,-0.153332,0.509445,1010.17,19
1775745166345,9937,119,-1.33411,1.23803,-0.193199,0.00457913,-0.00246522,-0.000688506,-0.0202063,0.0155207,-0.0609229,0.0061844,-0.0137117,2.45399,-0.118592,-0.0430679,-9.78912,0.00183988,-0.004812,-0.00225392,-0.182858,-0.152199,0.507855,1010.19,19
1775755232499,10026,146,-1.33422,1.23805,-0.193256,-0.00513291,0.000952744,-0.0028694,-0.0214962,0.0152546,-0.0613668,0.00618903,-0.0137089,2.454,-0.123012,-0.0617775,-9.78632,0.00214974,-0.00619317,-0.0025956,-0.184104,-0.151567,0.508863,1010.19,19
1775765493269,10288,130,-1.33422,1.23805,-0.193256,-0.00513291,0.000952744,-0.0028694,-0.0214962,0.0152546,-0.0613668,0.00619122,-0.0137094,2.45399,-0.150944,-0.0637395,-9.80573,0.000972906,-0.00512723,-0.0027604,-0.18353,-0.153231,0.506908,1010.17,19
1775775521499,10016,141,-1.33393,1.23773,-0.193142,0.0144519,-0.0158453,0.0056986,-0.023022,0.0146291,-0.0566217,0.00619122,-0.0137094,2.45399,-0.177199,-0.0757056,-9.78115,0.00140357,-0.0058831,-0.00256787,-0.182333,-0.150511,0.50681,1010.17,19
1775785257269,9756,124,-1.33393,1.23773,-0.193142,0.0144519,-0.0158453,0.0056986,-0.023022,0.0146291,-0.0566217,0.00619481,-0.0137172,2.454,-0.152448,-0.0537962,-9.79329,0.00228338,-0.00513601,-0.0017395,-0.185658,-0.151738,0.510275,1010.17,19
1775795193730,9927,126,-1.33387,1.23771,-0.193149,0.00285228,-0.00104206,-0.000327506,-0.0226269,0.0147427,-0.0559389,0.00620022,-0.0137206,2.45402,-0.112462,-0.0598056,-9.79845,0.00064406,-0.00565195,-0.00296368,-0.185314,-0.149884,0.508597,1010.17,19
1775805826807,10641,124,-1.33387,1.23771,-0.193149,0.00285228,-0.00104206,-0.000327506,-0.0226269,0.0147427,-0.0559389,0.00620201,-0.0137202,2.45402,-0.134486,-0.0795465,-9.77846,0.000673937,-0.00619669,-0.0021194,-0.184838,-0.151884,0.508485,1010.17,19
1775815560192,9741,118,-1.33412,1.23799,-0.193198,-0.0124095,0.0138386,-0.00246895,-0.0214301,0.0151448,-0.0603246,0.00620433,-0.0137253,2.45403,-0.135189,-0.0498065,-9.81669,0.00250333,-0.00494382,-0.00153236,-0.183137,-0.152689,0.509061,1010.2,19
1775825180576,9608,123,-1.33412,1.23799,-0.193198,-0.0124095,0.0138386,-0.00246895,-0.0214301,0.0151448,-0.0603246,0.00620433,-0.0137253,2.45403,-0.135189,-0.0498065,-9.81669,0.00250333,-0.00494382,-0.00153236,-0.183137,-0.152689,0.509061,1010.2,19
1775835301730,10137,112,-1.33415,1.23801,-0.193237,-0.00153034,0.00085747,-0.00194717,-0.0207038,0.014892,-0.061756,0.00621415,-0.0137227,2.45405,-0.144273,-0.0543807,-9.84734,0.00119274,-0.00481306,-0.00255193,-0.183137,-0.152689,0.509061,1010.2,19
1775845173730,9863,118,-1.33415,1.23801,-0.193237,-0.00153034,0.00085747,-0.00194717,-0.0207038,0.014892,-0.061756,0.00622006,-0.013721,2.45405,-0.14823,-0.0529303,-9.80956,0.00194078,-0.00513075,-0.00236623,-0.184485,-0.151492,0.509437,1010.14,19
1775855456653,10275,130,-1.33419,1.23808,-0.193263,-0.0019829,0.00374547,-0.00128844,-0.0205592,0.0152617,-0.0607923,0.00622299,-0.013721,2.45406,-0.132325,-0.0491784,-9.77117,0.00142141,-0.00619756,-0.00203903,-0.186211,-0.15388,0.508114,1010.14,19
1775865176961,9725,122,-1.33419,1.23808,-0.193263,-0.0019829,0.00374547,-0.00128844,-0.0205592,0.0152617,-0.0607923,0.00622345,-0.0137212,2.45406,-0.129862,-0.0583327,-9.79621,0.00126255,-0.00514654,-0.000427314,-0.185544,-0.153967,0.508892,1010.11,19
1775875533345,10369,115,-1.33389,1.2377,-0.193153,0.0147913,-0.0188405,0.00546488,-0.0227442,0.0148453,-0.0561144,0.00622441,-0.0137166,2.45409,-0.111344,-0.0502306,-9.79166,0.00123213,-0.00566919,-0.00149546,-0.183558,-0.151484,0.508445,1010.11,19
1775885521576,9983,118,-1.33389,1.2377,-0.193153,0.0147913,-0.0188405,0.00546488,-0.0227442,0.0148453,-0.0561144,0.00622612,-0.0137148,2.4541,-0.139875,-0.0754894,-9.77518,0.00197539,-0.00407447,-0.0013997,-0.184293,-0.15262,0.510381,1010.11,19
1775895497422,9979,117,-1.33391,1.23776,-0.193172,-0.000958699,0.00299519,-0.000922226,-0.0227944,0.0143886,-0.0569321,0.00623136,-0.0137111,2.45411,-0.130038,-0.0573744,-9.80236,0.000448447,-0.00544825,-0.00253206,-0.184097,-0.152449,0.509095,1010.11,19
1775905164192,9668,114,-1.33391,1.23776,-0.193172,-0.000958699,0.00299519,-0.000922226,-0.0227944,0.0143886,-0.0569321,0.00623096,-0.0137131,2.45411,-0.13352,-0.0598413,-9.81405,0.00137146,-0.00522751,-0.00351975,-0.185419,-0.150598,0.507874,1010.11,19
1775915167961,9994,122,-1.33418,1.23798,-0.193244,-0.0132491,0.0105635,-0.00361447,-0.0210399,0.0150081,-0.061148,0.00623111,-0.0137127,2.45412,-0.13352,-0.0598413,-9.81405,0.00137146,-0.00522751,-0.00351975,-0.185419,-0.150598,0.507874,1010.11,19
1775925177268,10009,122,-1.33418,1.23798,-0.193244,-0.0132491,0.0105635,-0.00361447,-0.0210399,0.0150081,-0.061148,0.00623376,-0.0137146,2.45412,-0.127378,-0.0607675,-9.83105,0.00131885,-0.00534414,-0.0014957,-0.184475,-0.153334,0.509741,1010.16,19
1775935237115,10067,117,-1.3341,1.23797,-0.193197,0.00385266,-0.000142912,0.00233794,-0.0209067,0.0144105,-0.0610601,0.00624264,-0.013713,2.45413,-0.137844,-0.0742222,-9.84256,0.00193917,-0.00512987,-0.00247332,-0.185214,-0.15453,0.509196,1010.16,19
1775945171884,9931,120,-1.3341,1.23797,-0.193197,0.00385266,-0.000142912,0.00233794,-0.0209067,0.0144105,-0.0610601,0.00624671,-0.0137116,2.45414,-0.14577,-0.0561911,-9.7938,0.00140363,-0.00566095,-0.00256604,-0.187655,-0.152439,0.508015,1010.14,19
1775955731730,10563,116,-1.3341,1.23794,-0.193246,0.000101229,-0.00148866,-0.00240196,-0.0217489,0.0143579,-0.0605142,0.00624819,-0.0137137,2.45415,-0.134495,-0.0437116,-9.79034,0.00271671,-0.00588093,-0.00144212,-0.184789,-0.151256,0.509929,1010.14,19
1775965422191,9688,119,-1.3341,1.23794,-0.193246,0.000101229,-0.00148866,-0.00240196,-0.0217489,0.0143579,-0.0605142,0.00624874,-0.0137164,2.45416,-0.136185,-0.0563111,-9.77916,-0.000184439,-0.00502433,-0.00229424,-0.18411,-0.152766,0.508693,1010.19,19
1775975481422,10060,118,-1.33372,1.23762,-0.193078,0.0189239,-0.016417,0.00836479,-0.0232065,0.0159233,-0.0540927,0.00624178,-0.0137126,2.45417,-0.149121,-0.0576941,-9.81501,0.00119394,-0.00619317,-0.00256336,-0.185712,-0.152605,0.508668,1010.19,19
1775985357115,9874,121,-1.33372,1.23762,-0.193078,0.0189239,-0.016417,0.00836479,-0.0232065,0.0159233,-0.0540927,0.00623847,-0.0137192,2.45418,-0.128838,-0.0536475,-9.83726,0.00107715,-0.005981,-0.00255766,-0.183484,-0.151562,0.508282,1010.19,19
1775995170115,9811,122,-1.33414,1.23802,-0.193213,-0.021521,0.02052,-0.00691376,-0.0206048,0.0146808,-0.0608584,0.0062375,-0.0137218,2.45418,-0.128838,-0.0536475,-9.83726,0.00107715,-0.005981,-0.00255766,-0.183484,-0.151562,0.508282,1010.19,19
1776005179730,10004,124,-1.33414,1.23802,-0.193213,-0.021521,0.02052,-0.00691376,-0.0206048,0.0146808,-0.0608584,0.00623721,-0.0137308,2.45421,-0.138756,-0.056926,-9.84784,0.00111969,-0.00566919,-0.00149167,-0.185069,-0.149166,0.508755,1010.19,19
1776015498884,10331,116,-1.33415,1.23808,-0.193236,-0.000780059,0.00320956,-0.00114032,-0.0197363,0.0155933,-0.0625949,0.00623161,-0.0137328,2.45424,-0.167816,-0.0476494,-9.78184,0.000586554,-0.00439235,-0.00157043,-0.185854,-0.147009,0.5092,1010.19,19
1776025174038,9667,120,-1.33415,1.23808,-0.193236,-0.000780059,0.00320956,-0.00114032,-0.0197363,0.0155933,-0.0625949,0.00622794,-0.0137323,2.45425,-0.151995,-0.0633515,-9.80157,0.00112443,-0.0053521,-0.00148921,-0.18468,-0.150523,0.508411,1010.19,19
1776035166576,9995,120,-1.33393,1.23778,-0.193137,0.0110518,-0.0150534,0.00492375,-0.0220513,0.0148797,-0.0568392,0.00622721,-0.0137334,2.45425,-0.130991,-0.0550414,-9.78833,0.000853666,-0.00597598,-0.00308252,-0.185582,-0.153638,0.507775,1010.19,19
1776045165576,10003,117,-1.33393,1.23778,-0.193137,0.0110518,-0.0150534,0.00492375,-0.0220513,0.0148797,-0.0568392,0.00621937,-0.0137374,2.45427,-0.132515,-0.0533832,-9.78821,0.000589687,-0.00588959,-0.00147561,-0.183808,-0.149801,0.508147,1010.11,19
1776055170191,10000,120,-1.3339,1.23771,-0.193147,0.00165539,-0.00338224,-0.000498702,-0.023228,0.0151623,-0.0561936,0.00621678,-0.0137376,2.45427,-0.118002,-0.0547036,-9.80039,0.000552771,-0.00555493,-0.00253646,-0.181935,-0.15109,0.509114,1010.11,19
1776065422807,10258,116,-1.3339,1.23771,-0.193147,0.00165539,-0.00338224,-0.000498702,-0.023228,0.0151623,-0.0561936,0.00621263,-0.0137393,2.45429,-0.134717,-0.0502976,-9.78482,0.00196655,-0.00620108,-0.00163026,-0.184254,-0.15181,0.509186,1010.11,19
1776075163422,9741,115,-1.3341,1.23801,-0.193201,-0.0101586,0.0151248,-0.00269373,-0.0209188,0.0158159,-0.0609152,0.00621454,-0.0137404,2.45429,-0.130162,-0.0640657,-9.82734,0.000340078,-0.00545008,-0.00252842,-0.185431,-0.149495,0.509885,1010.12,19
1776085177884,10004,124,-1.3341,1.23801,-0.193201,-0.0101586,0.0151248,-0.00269373,-0.0209188,0.0158159,-0.0609152,0.00621771,-0.0137429,2.45431,-0.130162,-0.0640657,-9.82734,0.000340078,-0.00545008,-0.00252842,-0.185431,-0.149495,0.509885,1010.12,19
1776095166038,9993,120,-1.33416,1.23804,-0.193156,-0.00275105,0.00135766,0.00227468,-0.0216828,0.0156867,-0.061094,0.0062082,-0.0137582,2.45433,-0.131778,-0.0538489,-9.79626,-7.24069e-05,-0.00735681,-0.00173154,-0.183453,-0.14613,0.509206,1010.12,19
1776105329422,10171,116,-1.33416,1.23804,-0.193156,-0.00275105,0.00135766,0.00227468,-0.0216828,0.0156867,-0.061094,0.00619467,-0.0137718,2.45437,-0.124998,-0.0500183,-9.81669,0.00130492,-0.0054489,-0.00234687,-0.188515,-0.149484,0.508629,1010.12,19
1776115157114,9828,115,-1.33415,1.23803,-0.193221,0.000208413,-0.000404916,-0.00326538,-0.0210427,0.0151925,-0.0619119,0.00619184,-0.0137721,2.45437,-0.142424,-0.0648254,-9.78686,0.000745805,-0.00491152,-0.0030681,-0.184584,-0.151487,0.50888,1010.12,19
1776125168961,10009,115,-1.33415,1.23803,-0.193221,0.000208413,-0.000404916,-0.00326538,-0.0210427,0.0151925,-0.0619119,0.00618556,-0.0137636,2.45437,-0.136403,-0.0528358,-9.79845,0.000661096,-0.00512899,-0.0025366,-0.183289,-0.153731,0.509298,1010.18,19
1776135883499,10717,117,-1.33408,1.23799,-0.193225,0.0035847,-0.00219727,-0.000197992,-0.0212748,0.0145325,-0.0608294,0.00617712,-0.0137609,2.45437,-0.149065,-0.0592531,-9.79938,-8.52796e-05,-0.00512899,-0.00251142,-0.184711,-0.154196,0.507501,1010.18,19
1776145172884,9282,120,-1.33408,1.23799,-0.193225,0.0035847,-0.00219727,-0.000197992,-0.0212748,0.0145325,-0.0608294,0.00617187,-0.0137628,2.45438,-0.149065,-0.0592531,-9.79938,-8.52796e-05,-0.00512899,-0.00251142,-0.184711,-0.154196,0.507501,1010.18,19
1776155157653,9994,112,-1.33415,1.23803,-0.193214,-0.00339415,0.00182212,0.000529964,-0.0205206,0.0148519,-0.0622995,0.00617235,-0.0137639,2.45438,-0.141717,-0.0707884,-9.79427,0.00140348,-0.00619317,-0.00257043,-0.184144,-0.150037,0.507676,1010.15,19
1776165768499,10613,112,-1.33415,1.23803,-0.193214,-0.00339415,0.00182212,0.000529964,-0.0205206,0.0148519,-0.0622995,0.00618232,-0.0137736,2.4544,-0.130069,-0.0470862,-9.81442,0.00143591,-0.0062011,-0.00160923,-0.185055,-0.149249,0.509154,1010.15,19
1776175164961,9391,117,-1.33416,1.23809,-0.193254,-0.000529964,0.00309642,-0.00197471,-0.0205329,0.0153269,-0.0615991,0.00618232,-0.0137736,2.4544,-0.130069,-0.0470862,-9.81442,0.00143591,-0.0062011,-0.00160923,-0.185055,-0.149249,0.509154,1010.15,19
1776185168037,9998,119,-1.33416,1.23809,-0.193254,-0.000529964,0.00309642,-0.00197471,-0.0205329,0.0153269,-0.0615991,0.00618609,-0.0137796,2.45442,-0.147983,-0.0538413,-9.7887,-0.00061715,-0.00544819,-0.00249611,-0.185595,-0.154534,0.509769,1010.18,19
1776195167653,10003,115,-1.33411,1.23805,-0.193207,0.0024295,-0.00172089,0.00234836,-0.0206865,0.0148578,-0.0611042,0.00617744,-0.0137852,2.45443,-0.146373,-0.0724764,-9.79006,0.000368666,-0.00609368,-0.00168102,-0.185083,-0.153162,0.508322,1010.18,19
1776205816807,10651,116,-1.33411,1.23805,-0.193207,0.0024295,-0.00172089,0.00234836,-0.0206865,0.0148578,-0.0611042,0.00617137,-0.0137863,2.45443,-0.117192,-0.0686105,-9.79792,0.000551704,-0.00555466,-0.00253642,-0.184254,-0.15197,0.509185,1010.18,19
1776215168345,9345,119,-1.33413,1.23805,-0.193211,-0.00104802,-0.000250095,-0.000213623,-0.020491,0.0153524,-0.0618025,0.00616972,-0.0137839,2.45443,-0.150437,-0.0352755,-9.83303,0.0015105,-0.00480947,-0.00256262,-0.182064,-0.154598,0.507648,1010.18,19
1776225564037,10402,119,-1.33413,1.23805,-0.193211,-0.00104802,-0.000250095,-0.000213623,-0.020491,0.0153524,-0.0618025,0.00616707,-0.0137788,2.45443,-0.139795,-0.056121,-9.81117,0.000555079,-0.00459314,-0.0025286,-0.184091,-0.15061,0.50927,1010.14,19
1776235173191,9602,121,-1.33417,1.23806,-0.193233,-0.00195312,0.000363234,-0.00107109,-0.0205009,0.0148976,-0.0610268,0.00616259,-0.0137743,2.45444,-0.169711,-0.0512246,-9.81571,0.000556514,-0.00512988,-0.00242553,-0.183378,-0.153389,0.506662,1010.14,19
1776245175576,10002,121,-1.33417,1.23806,-0.193233,-0.00195312,0.000363234,-0.00107109,-0.0205009,0.0148976,-0.0610268,0.00615785,-0.013777,2.45444,-0.159564,-0.0246439,-9.79051,0.00138982,-0.00417147,-0.0029755,-0.183716,-0.152124,0.508525,1010.14,19
1776255865114,10698,116,-1.33404,1.23796,-0.193168,0.00666325,-0.00489472,0.00322965,-0.0220386,0.0144072,-0.0601155,0.00615119,-0.0137772,2.45444,-0.130935,-0.0640426,-9.82919,0.000989218,-0.00513162,-0.00222864,-0.184068,-0.152276,0.507575,1010.18,19
1776265170422,9299,118,-1.33404,1.23796,-0.193168,0.00666325,-0.00489472,0.00322965,-0.0220386,0.0144072,-0.0601155,0.00615403,-0.013772,2.45445,-0.130935,-0.0640426,-9.82919,0.000989218,-0.00513162,-0.00222864,-0.184068,-0.152276,0.507575,1010.18,19
1776275288653,10122,118,-1.33413,1.23803,-0.193202,-0.00474586,0.00366211,-0.00167921,-0.020281,0.0155766,-0.0624964,0.00615299,-0.0137682,2.45446,-0.130159,-0.0701887,-9.81319,0.000890111,-0.0053439,-0.00201393,-0.184652,-0.15339,0.506865,1010.18,19
1776285177653,9880,126,-1.33413,1.23803,-0.193202,-0.00474586,0.00366211,-0.00167921,-0.020281,0.0155766,-0.0624964,0.00615299,-0.0137682,2.45446,-0.130159,-0.0701887,-9.81319,0.000890111,-0.0053439,-0.00201393,-0.184652,-0.15339,0.506865,1010.18,19
1776295174499,9997,123,-1.33399,1.23791,-0.193202,0.00708603,-0.00579387,-3.72166e-06,-0.021264,0.0151639,-0.0594459,0.00614757,-0.0137632,2.45448,-0.131957,-0.0562832,-9.78261,0.000718134,-0.0053533,-0.000727983,-0.183799,-0.153804,0.508434,1010.11,19
1776305189345,10024,119,-1.33399,1.23791,-0.193202,0.00708603,-0.00579387,-3.72166e-06,-0.021264,0.0151639,-0.0594459,0.0061479,-0.0137635,2.45449,-0.152285,-0.0694013,-9.81689,0.00129675,-0.00619317,-0.00256682,-0.185472,-0.152525,0.508661,1010.11,19
1776315709499,10520,119,-1.33419,1.23809,-0.193224,-0.00992045,0.00863424,-0.00110682,-0.0202314,0.0154471,-0.0618272,0.00615117,-0.0137715,2.4545,-0.154058,-0.0701162,-9.78933,0.000897269,-0.00545351,-0.00190833,-0.182476,-0.151254,0.509691,1010.11,19
1776325179653,9461,124,-1.33419,1.23809,-0.193224,-0.00992045,0.00863424,-0.00110682,-0.0202314,0.0154471,-0.0618272,0.00615658,-0.0137819,2.4545,-0.154058,-0.0701162,-9.78933,0.000897269,-0.00545351,-0.00190833,-0.182476,-0.151254,0.509691,1010.11,19
1776335155730,9994,106,-1.33401,1.23796,-0.193216,0.00899152,-0.00631193,0.000410871,-0.0216389,0.0144363,-0.0589814,0.00615658,-0.0137841,2.45451,-0.127137,-0.0652878,-9.81691,0.00107947,-0.00565918,-0.00277023,-0.186128,-0.153241,0.508197,1010.14,19
1776345309576,10151,113,-1.33401,1.23796,-0.193216,0.00899152,-0.00631193,0.000410871,-0.0216389,0.0144363,-0.0589814,0.00615704,-0.0137846,2.45452,-0.130677,-0.054861,-9.77961,0.00149786,-0.0051246,-0.00309763,-0.185136,-0.152609,0.509129,1010.14,19
1776355724037,10398,129,-1.33389,1.23774,-0.193123,0.00586533,-0.0110756,0.00463421,-0.0221672,0.0160574,-0.0565766,0.00615966,-0.0137815,2.45452,-0.140911,-0.0684145,-9.7919,0.00185966,-0.00513601,-0.00172534,-0.180421,-0.150848,0.508905,1010.2,19
1776365401114,9688,118,-1.33389,1.23774,-0.193123,0.00586533,-0.0110756,0.00463421,-0.0221672,0.0160574,-0.0565766,0.00616829,-0.0137782,2.45453,-0.140285,-0.054155,-9.8162,0.00108973,-0.00619585,-0.00223477,-0.184816,-0.150369,0.509137,1010.2,19
1776375164114,9760,120,-1.33419,1.2381,-0.193211,-0.0149879,0.017995,-0.00441909,-0.0203768,0.0154856,-0.0623614,0.00617164,-0.013779,2.45453,-0.140285,-0.054155,-9.8162,0.00108973,-0.00619585,-0.00223477,-0.184816,-0.150369,0.509137,1010.2,19
1776385168960,10008,116,-1.33419,1.2381,-0.193211,-0.0149879,0.017995,-0.00441909,-0.0203768,0.0154856,-0.0623614,0.00617167,-0.0137822,2.45455,-0.155329,-0.07054,-9.84429,0.0007253,-0.00610167,-0.00073653,-0.183001,-0.150763,0.508352,1010.17,19
1776395381653,10211,119,-1.33409,1.23799,-0.193274,0.00523414,-0.00526986,-0.00312694,-0.0202062,0.0149671,-0.0609488,0.00617301,-0.0137837,2.45455,-0.155329,-0.07054,-9.84429,0.0007253,-0.00610167,-0.00073653,-0.183001,-0.150763,0.508352,1010.17,19
1776405175807,9790,120,-1.33409,1.23799,-0.193274,0.00523414,-0.00526986,-0.00312694,-0.0202062,0.0149671,-0.0609488,0.00617492,-0.013781,2.45456,-0.139513,-0.0541214,-9.78592,0.00217625,-0.00407183,-0.00172711,-0.183444,-0.155492,0.509449,1010.17,19
1776415171268,9997,120,-1.33415,1.23804,-0.193242,-0.0028761,0.00219727,0.00159436,-0.0206039,0.014589,-0.0604509,0.00617595,-0.0137664,2.45456,-0.122488,-0.0691214,-9.81094,0.000376137,-0.00481542,-0.00145954,-0.184425,-0.154687,0.508848,1010.17,19
1776425180960,10006,123,-1.33415,1.23804,-0.193242,-0.0028761,0.00219727,0.00159436,-0.0206039,0.014589,-0.0604509,0.00617584,-0.0137633,2.45456,-0.130969,-0.0664848,-9.82304,0.00111329,-0.00556182,-0.0017034,-0.183855,-0.15445,0.509151,1010.17,19
1776435279576,10108,117,-1.33417,1.23807,-0.19323,-0.0012207,0.00142912,0.000592488,-0.0207206,0.0152564,-0.0604241,0.00617528,-0.0137628,2.45456,-0.148953,-0.0593077,-9.84399,0.000588876,-0.00513803,-0.00146938,-0.182938,-0.152919,0.507852,1010.18,19
1776445196653,9915,119,-1.33417,1.23807,-0.19323,-0.0012207,0.00142912,0.000592488,-0.0207206,0.0152564,-0.0604241,0.00617094,-0.0137636,2.45458,-0.129925,-0.0636944,-9.80673,0.00175702,-0.00524656,-0.00150664,-0.183804,-0.151722,0.508291,1010.18,19
1776455172883,9968,120,-1.33417,1.23808,-0.193265,5.95465e-06,0.000714558,-0.00174025,-0.0201583,0.0151261,-0.0607527,0.00617549,-0.0137734,2.45461,-0.142978,-0.0808495,-9.80512,0.000685774,-0.00566487,-0.001477,-0.185386,-0.151726,0.508825,1010.11,19
1776465456345,10294,117,-1.33417,1.23808,-0.193265,5.95465e-06,0.000714558,-0.00174025,-0.0201583,0.0151261,-0.0607527,0.00618327,-0.0137735,2.45462,-0.13406,-0.0632126,-9.84352,0.00204049,-0.00512899,-0.00258314,-0.185086,-0.151882,0.508253,1010.11,19
1776475567191,10103,123,-1.33416,1.23809,-0.1932,0.000404916,0.00034537,0.00323114,-0.0201256,0.0156614,-0.0606681,0.00618327,-0.0137735,2.45462,-0.134985,-0.0262624,-9.79292,0.0014324,-0.00545526,-0.00171343,-0.183435,-0.151574,0.509721,1010.15,19
1776485180114,9607,126,-1.33416,1.23809,-0.1932,0.000404916,0.00034537,0.00323114,-0.0201256,0.0156614,-0.0606681,0.00618425,-0.013768,2.45463,-0.134985,-0.0262624,-9.79292,0.0014324,-0.00545526,-0.00171343,-0.183435,-0.151574,0.509721,1010.15,19
1776495176653,10015,113,-1.33416,1.23807,-0.193234,-5.49316e-05,-0.000946045,-0.00171432,-0.0210979,0.0149167,-0.0618213,0.00617806,-0.0137707,2.45464,-0.142576,-0.0635718,-9.79845,0.00141093,-0.00523716,-0.00234982,-0.183293,-0.151669,0.511556,1010.15,19
1776505170345,9985,120,-1.33416,1.23807,-0.193234,-5.49316e-05,-0.000946045,-0.00171432,-0.0210979,0.0149167,-0.0618213,0.00617288,-0.0137724,2.45464,-0.142576,-0.0635718,-9.79845,0.00141093,-0.00523716,-0.00234982,-0.183293,-0.151669,0.511556,1010.15,19
1776515166114,9996,117,-1.33421,1.23797,-0.193216,-0.00238781,-0.00476372,0.000883521,-0.021087,0.0156112,-0.0609381,0.00616196,-0.0137747,2.45465,-0.143485,-0.0490179,-9.79638,0.00135219,-0.00610387,-0.00107836,-0.183319,-0.154444,0.508412,1010.15,19
1776525167730,10003,118,-1.33421,1.23797,-0.193216,-0.00238781,-0.00476372,0.000883521,-0.021087,0.0156112,-0.0609381,0.00615664,-0.0137709,2.45466,-0.115686,-0.0779094,-9.80255,0.000889852,-0.00534622,-0.00201368,-0.182844,-0.150202,0.508271,1010.15,19
1776535173268,9999,126,-1.33373,1.23763,-0.193066,0.0239198,-0.0172685,0.00748648,-0.0231714,0.0153925,-0.0541424,0.00615619,-0.0137693,2.45466,-0.115686,-0.0779094,-9.80255,0.000889852,-0.00534622,-0.00201368,-0.182844,-0.150202,0.508271,1010.15,19
1776545174883,10002,124,-1.33373,1.23763,-0.193066,0.0239198,-0.0172685,0.00748648,-0.0231714,0.0153925,-0.0541424,0.00615455,-0.0137615,2.45467,-0.138673,-0.0510824,-9.83164,0.000446037,-0.0045969,-0.00252496,-0.183854,-0.15189,0.509172,1010.18,19
1776555177422,10000,120,-1.33361,1.23755,-0.193081,0.00618093,-0.00394793,-0.000735399,-0.023609,0.0155198,-0.0533602,0.0061461,-0.0137576,2.45468,-0.143532,-0.0596077,-9.78719,0.00140378,-0.00512899,-0.00256166,-0.184526,-0.153082,0.508224,1010.18,19
1776565179037,10003,121,-1.33361,1.23755,-0.193081,0.00618093,-0.00394793,-0.000735399,-0.023609,0.0155198,-0.0533602,0.00614954,-0.013756,2.45468,-0.134577,-0.0602338,-9.82381,0.00205578,-0.00566679,-0.00205727,-0.184112,-0.150845,0.508629,1010.22,19
1776575368114,10200,115,-1.33418,1.23802,-0.193228,-0.028618,0.0233958,-0.00735622,-0.0208691,0.0155103,-0.0618956,0.00615135,-0.0137544,2.45469,-0.137337,-0.0547143,-9.79902,0.000769998,-0.00512987,-0.0024338,-0.184195,-0.149804,0.50856,1010.22,19
1776585251729,9883,116,-1.33418,1.23802,-0.193228,-0.028618,0.0233958,-0.00735622,-0.0208691,0.0155103,-0.0618956,0.00615058,-0.0137518,2.45469,-0.106682,-0.0699156,-9.76028,0.00185434,-0.00482144,-0.00214364,-0.185249,-0.153161,0.508168,1010.19,19
1776595215037,9963,116,-1.33419,1.23806,-0.193203,-0.00060142,0.00212581,0.00126685,-0.0206614,0.0157604,-0.0618837,0.00615172,-0.0137434,2.4547,-0.144302,-0.0696882,-9.80585,0.000904081,-0.00513602,-0.00169178,-0.183553,-0.152285,0.508598,1010.19,19
1776605176729,9953,121,-1.33419,1.23806,-0.193203,-0.00060142,0.00212581,0.00126685,-0.0206614,0.0157604,-0.0618837,0.00615415,-0.0137328,2.45471,-0.144302,-0.0696882,-9.80585,0.000904081,-0.00513602,-0.00169178,-0.183553,-0.152285,0.508598,1010.19,19
1776615177499,9993,126,-1.33377,1.23768,-0.193091,0.0212521,-0.0191442,0.00557132,-0.0232159,0.0155879,-0.0549331,0.00615793,-0.0137296,2.45472,-0.131544,-0.0541854,-9.80142,0.00248186,-0.00556534,-0.00216858,-0.18459,-0.151726,0.508718,1010.19,19
1776625180191,10005,126,-1.33377,1.23768,-0.193091,0.0212521,-0.0191442,0.00557132,-0.0232159,0.0155879,-0.0549331,0.00615223,-0.0137346,2.45474,-0.137763,-0.0537826,-9.76739,0.000339718,-0.00565756,-0.002539,-0.185677,-0.151154,0.507318,1010.19,19
1776635212806,10044,117,-1.33393,1.23774,-0.193141,-0.00814001,0.00306069,-0.00248458,-0.0240369,0.0144557,-0.056895,0.00614747,-0.0137377,2.45474,-0.134112,-0.0447426,-9.78862,0.00143937,-0.00620195,-0.00150685,-0.182839,-0.152764,0.50841,1010.14,19
1776645691653,10479,118,-1.33393,1.23774,-0.193141,-0.00814001,0.00306069,-0.00248458,-0.0240369,0.0144557,-0.056895,0.00614483,-0.0137401,2.45475,-0.140195,-0.0558424,-9.80674,0.000571726,-0.00513335,-0.00200467,-0.183274,-0.153475,0.507378,1010.14,19
1776655391806,9704,115,-1.33415,1.23804,-0.19323,-0.0108315,0.0152439,-0.00444217,-0.0210421,0.0146862,-0.0610787,0.00614395,-0.0137396,2.45475,-0.14341,-0.0774248,-9.80186,0.00191778,-0.0051246,-0.00311152,-0.184662,-0.151888,0.508959,1010.21,19
1776665177960,9774,124,-1.33415,1.23804,-0.19323,-0.0108315,0.0152439,-0.00444217,-0.0210421,0.0146862,-0.0610787,0.0061462,-0.0137377,2.45476,-0.125701,-0.0466144,-9.79558,0.00247463,-0.00534534,-0.00238314,-0.184925,-0.150122,0.508262,1010.21,19
1776675170114,9994,120,-1.33409,1.23799,-0.193205,0.00304878,-0.00264982,0.0012542,-0.0209322,0.0150949,-0.060053,0.00616972,-0.0137314,2.45477,-0.125701,-0.0466144,-9.79558,0.00247463,-0.00534534,-0.00238314,-0.184925,-0.150122,0.508262,1010.21,19
1776685296883,10130,123,-1.33409,1.23799,-0.193205,0.00304878,-0.00264982,0.0012542,-0.0209322,0.0150949,-0.060053,0.00617567,-0.0137229,2.45476,-0.132114,-0.069486,-9.80738,0.00081952,-0.0048229,-0.000942129,-0.18248,-0.155554,0.507174,1010.15,19
1776695168499,9870,118,-1.33414,1.23804,-0.1932,-0.00251286,0.00230445,0.000262005,-0.0208861,0.0146388,-0.0622314,0.00617353,-0.0137189,2.45477,-0.117851,-0.076026,-9.78419,0.00108246,-0.00512899,-0.00255082,-0.182734,-0.15093,0.509142,1010.15,19
1776705175652,10007,122,-1.33414,1.23804,-0.1932,-0.00251286,0.00230445,0.000262005,-0.0208861,0.0146388,-0.0622314,0.00616785,-0.0137068,2.45477,-0.0950699,-0.0577446,-9.78444,0.000376193,-0.0046116,-0.00145786,-0.182863,-0.153478,0.507684,1010.15,19
1776715265345,10097,116,-1.33411,1.238,-0.193226,0.00151248,-0.00158394,-0.00132119,-0.0207245,0.0149873,-0.0605942,0.00616146,-0.0136984,2.45479,-0.146829,-0.0412023,-9.81047,0.000894604,-0.00566494,-0.00180576,-0.183715,-0.150604,0.508537,1010.15,19
1776725167345,9899,118,-1.33411,1.238,-0.193226,0.00151248,-0.00158394,-0.00132119,-0.0207245,0.0149873,-0.0605942,0.00615964,-0.0136996,2.45479,-0.12774,-0.0592146,-9.83328,0.000588474,-0.00620195,-0.00147814,-0.181816,-0.15252,0.507897,1010.15,19
1776735166729,9999,118,-1.33392,1.23776,-0.19316,0.0091523,-0.0120046,0.0033093,-0.0221489,0.014613,-0.057097,0.00615529,-0.0137041,2.4548,-0.12774,-0.0592146,-9.83328,0.000588474,-0.00620195,-0.00147814,-0.181816,-0.15252,0.507897,1010.15,19
1776745167960,10001,120,-1.33392,1.23776,-0.19316,0.0091523,-0.0120046,0.0033093,-0.0221489,0.014613,-0.057097,0.00614563,-0.0137049,2.45481,-0.161109,-0.0432861,-9.81803,0.000265951,-0.00513685,-0.00156922,-0.183809,-0.151481,0.508133,1010.19,19
1776755224345,10061,117,-1.33416,1.23805,-0.193178,-0.0117545,0.0140947,-0.000905107,-0.0215506,0.015479,-0.0612682,0.00614366,-0.0136989,2.45483,-0.119656,-0.0669193,-9.79972,0.000350873,-0.00534446,-0.00220846,-0.184745,-0.149627,0.506499,1010.19,19
1776765171576,9939,124,-1.33416,1.23805,-0.193178,-0.0117545,0.0140947,-0.000905107,-0.0215506,0.015479,-0.0612682,0.00614215,-0.0136975,2.45483,-0.119656,-0.0669193,-9.79972,0.000350873,-0.00534446,-0.00220846,-0.184745,-0.149627,0.506499,1010.19,19
1776775175422,10000,121,-1.33415,1.23809,-0.193214,0.000541873,0.00213772,-0.00180054,-0.0200575,0.0158101,-0.0608413,0.00613617,-0.0136925,2.45484,-0.134807,-0.0672085,-9.79401,0.0003759,-0.00566906,-0.00146657,-0.184678,-0.152284,0.508476,1010.17,19
1776785788883,10619,122,-1.33415,1.23809,-0.193214,0.000541873,0.00213772,-0.00180054,-0.0200575,0.0158101,-0.0608413,0.00612991,-0.0136884,2.45485,-0.131776,-0.0616024,-9.77071,0.000914542,-0.00481447,-0.00147769,-0.183034,-0.152355,0.507379,1010.17,19
1776795551806,9766,118,-1.33412,1.23798,-0.193201,0.00131002,-0.00563905,0.000668409,-0.0211811,0.0151768,-0.0607199,0.00612991,-0.0136884,2.45485,-0.116738,-0.0757908,-9.80293,0.00239093,-0.00513776,-0.00153017,-0.18232,-0.153714,0.507184,1010.18,19
1776805279345,9728,118,-1.33412,1.23798,-0.193201,0.00131002,-0.00563905,0.000668409,-0.0211811,0.0151768,-0.0607199,0.00613495,-0.0136851,2.45487,-0.150239,-0.0717907,-9.7994,-7.27503e-05,-0.00523891,-0.00197571,-0.186056,-0.151639,0.507967,1010.18,19
1776815163499,9881,118,-1.33383,1.23769,-0.193136,0.0147675,-0.0141721,0.00324901,-0.0231016,0.0146498,-0.0551498,0.00613657,-0.0136841,2.45488,-0.150239,-0.0717907,-9.7994,-7.27503e-05,-0.00523891,-0.00197571,-0.186056,-0.151639,0.507967,1010.18,19
1776825179499,10013,122,-1.33383,1.23769,-0.193136,0.0147675,-0.0141721,0.00324901,-0.0231016,0.0146498,-0.0551498,0.00613714,-0.013679,2.45488,-0.136795,-0.0489742,-9.76889,0.00277192,-0.00587041,-0.00303987,-0.182831,-0.151966,0.508656,1010.18,19
1776835168883,9991,120,-1.33407,1.23794,-0.193216,-0.0120165,0.0125822,-0.00399557,-0.0213513,0.0147297,-0.0600168,0.00613876,-0.0136808,2.45487,-0.132459,-0.0712818,-9.82472,0.00128866,-0.0056582,-0.0028802,-0.182666,-0.153327,0.5088,1010.18,19
1776845161037,9998,116,-1.33407,1.23794,-0.193216,-0.0120165,0.0125822,-0.00399557,-0.0213513,0.0147297,-0.0600168,0.0061393,-0.0136816,2.45487,-0.137241,-0.0644316,-9.81049,0.000258811,-0.00513513,-0.00177773,-0.181893,-0.15244,0.507981,1010.17,19
1776855183268,10005,130,-1.33419,1.23805,-0.193204,-0.00603206,0.00548423,0.000558993,-0.0207192,0.0158124,-0.0623413,0.00613745,-0.0136809,2.45487,-0.134627,-0.0654295,-9.81647,0.00110878,-0.00513341,-0.00201502,-0.18184,-0.153074,0.507173,1010.17,19
1776865244960,10072,124,-1.33419,1.23805,-0.193204,-0.00603206,0.00548423,0.000558993,-0.0207192,0.0158124,-0.0623413,0.00613423,-0.0136776,2.45487,-0.135339,-0.0562995,-9.83893,0.000904681,-0.00460506,-0.0015821,-0.18888,-0.152132,0.50966,1010.18,19
1776875171652,9926,123,-1.33417,1.23806,-0.193217,0.000821742,0.000184594,-0.000635659,-0.0209497,0.0156763,-0.0618344,0.00613266,-0.0136682,2.45489,-0.135339,-0.0562995,-9.83893,0.000904681,-0.00460506,-0.0015821,-0.18888,-0.152132,0.50966,1010.18,19
1776885179268,10007,123,-1.33417,1.23806,-0.193217,0.000821742,0.000184594,-0.000635659,-0.0209497,0.0156763,-0.0618344,0.00613043,-0.0136657,2.45491,-0.136915,-0.0402998,-9.80725,0.0014216,-0.0058766,-0.0020336,-0.185319,-0.147243,0.508459,1010.18,19
1776895258652,10089,116,-1.33386,1.23771,-0.193126,0.0155238,-0.0176019,0.00452926,-0.0230611,0.0146141,-0.0555759,0.00612896,-0.013666,2.45491,-0.143058,-0.0276406,-9.82771,0.0014216,-0.00534447,-0.00203334,-0.185643,-0.153802,0.508336,1010.17,19
1776905175806,9909,120,-1.33386,1.23771,-0.193126,0.0155238,-0.0176019,0.00452926,-0.0230611,0.0146141,-0.0555759,0.00612785,-0.0136662,2.45492,-0.140501,-0.0776953,-9.8139,0.00124477,-0.00514213,-0.000962305,-0.184747,-0.151166,0.508808,1010.17,19
1776915294806,10118,125,-1.33421,1.2381,-0.193195,-0.0172625,0.0196265,-0.00343509,-0.0201385,0.0160462,-0.0621013,0.00612955,-0.0136666,2.45492,-0.140501,-0.0776953,-9.8139,0.00124477,-0.00514213,-0.000962305,-0.184747,-0.151166,0.508808,1010.17,19
1776925175345,9881,119,-1.33421,1.2381,-0.193195,-0.0172625,0.0196265,-0.00343509,-0.0201385,0.0160462,-0.0621013,0.00613527,-0.0136694,2.45492,-0.146145,-0.0622618,-9.81207,0.00140357,-0.00587384,-0.0025678,-0.184325,-0.155312,0.507078,1010.17,19
1776935277960,10110,117,-1.33381,1.23766,-0.193096,0.0198111,-0.022056,0.00495129,-0.0231769,0.015626,-0.0549095,0.00613918,-0.0136693,2.45493,-0.130627,-0.0360364,-9.77041,0.000908061,-0.00535055,-0.0014819,-0.181771,-0.152991,0.506851,1010.12,19
1776945166960,9889,116,-1.33381,1.23766,-0.193096,0.0198111,-0.022056,0.00495129,-0.0231769,0.015626,-0.0549095,0.00613232,-0.013663,2.45493,-0.130627,-0.0360364,-9.77041,0.000908061,-0.00535055,-0.0014819,-0.181771,-0.152991,0.506851,1010.12,19
1776955169422,10005,115,-1.33416,1.238,-0.1932,-0.017459,0.016941,-0.00519841,-0.0210132,0.0153042,-0.0613891,0.00613003,-0.0136631,2.45494,-0.124559,-0.0734619,-9.81703,0.00127663,-0.00512458,-0.00309257,-0.184487,-0.155152,0.507005,1010.12,19
1776965451652,10278,119,-1.33416,1.238,-0.1932,-0.017459,0.016941,-0.00519841,-0.0210132,0.0153042,-0.0613891,0.00613171,-0.013655,2.45494,-0.144955,-0.0639775,-9.77662,0.000591616,-0.00513776,-0.00146947,-0.185825,-0.155877,0.507685,1010.16,19
1776975680345,10236,111,-1.33406,1.23795,-0.193214,0.00477563,-0.00212581,-0.000700416,-0.0214741,0.0147472,-0.0597139,0.00612968,-0.0136521,2.45495,-0.122876,-0.0841138,-9.7889,0.00147192,-0.00578028,-0.000541898,-0.183764,-0.152513,0.507082,1010.16,19
1776985173037,9481,119,-1.33406,1.23795,-0.193214,0.00477563,-0.00212581,-0.000700416,-0.0214741,0.0147472,-0.0597139,0.00612948,-0.0136509,2.45495,-0.122876,-0.0841138,-9.7889,0.00147192,-0.00578028,-0.000541898,-0.183764,-0.152513,0.507082,1010.16,19
1776995281421,10113,118,-1.33398,1.23788,-0.193191,0.00419312,-0.00378418,0.00118027,-0.0208515,0.0150895,-0.0584659,0.00612615,-0.0136461,2.45495,-0.159079,-0.0592032,-9.80543,0.00138583,-0.0051246,-0.00309371,-0.184031,-0.156526,0.508659,1010.13,19
1777005667268,10383,123,-1.33398,1.23788,-0.193191,0.00419312,-0.00378418,0.00118027,-0.0208515,0.0150895,-0.0584659,0.00612373,-0.0136413,2.45495,-0.159079,-0.0592032,-9.80543,0.00138583,-0.0051246,-0.00309371,-0.184031,-0.156526,0.508659,1010.13,19
1777015351345,9692,115,-1.33386,1.23771,-0.19309,0.0060797,-0.00836033,0.00505773,-0.022702,0.0155653,-0.0555181,0.00612017,-0.0136385,2.45496,-0.159079,-0.0592032,-9.80543,0.00138583,-0.0051246,-0.00309371,-0.184031,-0.156526,0.508659,1010.13,19
1777025185652,9817,127,-1.33386,1.23771,-0.19309,0.0060797,-0.00836033,0.00505773,-0.022702,0.0155653,-0.0555181,0.00611511,-0.0136259,2.45498,-0.110933,-0.0718892,-9.83401,-0.000147886,-0.00502988,-0.00144363,-0.184052,-0.15532,0.50803,1010.13,19
1777035214806,10035,124,-1.33387,1.2377,-0.193152,-0.000518054,-0.00076815,-0.00310684,-0.0227905,0.0148836,-0.0559408,0.00611415,-0.0136227,2.45498,-0.141524,-0.0250955,-9.79588,0.00250328,-0.00513776,-0.00153396,-0.184769,-0.152521,0.508157,1010.13,19
1777045706114,10501,116,-1.33387,1.2377,-0.193152,-0.000518054,-0.00076815,-0.00310684,-0.0227905,0.0148836,-0.0559408,0.00611783,-0.0136171,2.45499,-0.150791,-0.0551767,-9.80048,0.00131614,-0.00481445,-0.00202207,-0.182944,-0.156678,0.507661,1010.2,19
1777055222652,9515,116,-1.3342,1.23802,-0.193223,-0.0164051,0.0159763,-0.00352292,-0.0210251,0.0149729,-0.0617964,0.00611874,-0.0136164,2.45499,-0.153179,-0.0516964,-9.78661,0.00143237,-0.00556168,-0.0017143,-0.184475,-0.153254,0.509742,1010.2,19
1777065177037,9944,122,-1.3342,1.23802,-0.193223,-0.0164051,0.0159763,-0.00352292,-0.0210251,0.0149729,-0.0617964,0.0061217,-0.0136153,2.45499,-0.153179,-0.0516964,-9.78661,0.00143237,-0.00556168,-0.0017143,-0.184475,-0.153254,0.509742,1010.2,19
1777075171883,9995,120,-1.33414,1.23801,-0.193238,0.00289396,-0.000452553,-0.000756985,-0.0204205,0.0147574,-0.0614713,0.00611181,-0.0136108,2.45501,-0.118843,-0.054021,-9.82525,0.000599536,-0.0051404,-0.0011503,-0.184944,-0.150997,0.507695,1010.23,19
1777085311960,10151,116,-1.33414,1.23801,-0.193238,0.00289396,-0.000452553,-0.000756985,-0.0204205,0.0147574,-0.0614713,0.00611331,-0.0136079,2.45502,-0.144502,-0.0614668,-9.82018,0.00193503,-0.00619317,-0.00258836,-0.18294,-0.151798,0.507781,1010.23,19
1777095522421,10205,122,-1.33417,1.23803,-0.19322,-0.00143507,0.0012207,0.000905851,-0.0212365,0.0153365,-0.0614826,0.0061147,-0.0136083,2.45502,-0.144502,-0.0614668,-9.82018,0.00193503,-0.00619317,-0.00258836,-0.18294,-0.151798,0.507781,1010.23,19
1777105167883,9649,115,-1.33417,1.23803,-0.19322,-0.00143507,0.0012207,0.000905851,-0.0212365,0.0153365,-0.0614826,0.00610287,-0.0136112,2.45503,-0.142094,-0.0499541,-9.79903,0.000322036,-0.00618881,-0.00306312,-0.183864,-0.149247,0.508874,1010.18,19
1777115159652,9995,115,-1.33415,1.23804,-0.193218,0.00108375,0.000393007,8.55981e-05,-0.0205826,0.0152439,-0.0605928,0.00609933,-0.0136113,2.45503,-0.101827,-0.0647435,-9.80038,0.000573687,-0.00513606,-0.00167583,-0.182998,-0.150684,0.508433,1010.18,19
1777125462883,10298,119,-1.33415,1.23804,-0.193218,0.00108375,0.000393007,8.55981e-05,-0.0205826,0.0152439,-0.0605928,0.00609364,-0.0136069,2.45503,-0.139755,-0.0622702,-9.81374,0.00175157,-0.00513601,-0.00172156,-0.183961,-0.152843,0.508367,1010.18,19
1777135882575,10422,116,-1.33413,1.2381,-0.193214,0.0010242,0.00279869,0.000190549,-0.0204252,0.0153825,-0.062573,0.00609723,-0.0135962,2.45505,-0.125992,-0.0515254,-9.80444,0.00218552,-0.00513776,-0.00152324,-0.183585,-0.149957,0.507658,1010.18,19
1777145566652,9684,118,-1.33413,1.2381,-0.193214,0.0010242,0.00279869,0.000190549,-0.0204252,0.0153825,-0.062573,0.00610771,-0.0135878,2.45506,-0.125992,-0.0515254,-9.80444,0.00218552,-0.00513776,-0.00152324,-0.183585,-0.149957,0.507658,1010.18,19
1777155188806,9619,119,-1.33428,1.23811,-0.193212,-0.00756836,0.00084556,9.97404e-05,-0.0210244,0.0155546,-0.0618387,0.00610771,-0.0135878,2.45506,-0.131817,-0.0662212,-9.8132,0.0017846,-0.00439408,-0.000545205,-0.183527,-0.151872,0.507,1010.27,19
1777165184575,9988,123,-1.33428,1.23811,-0.193212,-0.00756836,0.00084556,9.97404e-05,-0.0210244,0.0155546,-0.0618387,0.00611187,-0.0135819,2.45508,-0.134586,-0.0651076,-9.78875,0.000562695,-0.00641143,-0.00222185,-0.181463,-0.151328,0.508856,1010.27,19
1777175172883,9990,123,-1.33404,1.23796,-0.193202,0.0121356,-0.00766959,0.000526986,-0.0215436,0.0145749,-0.0594177,0.00611139,-0.013573,2.4551,-0.138318,-0.0459102,-9.82121,0.00155013,-0.00439427,-0.00138927,-0.185392,-0.151405,0.508667,1010.13,19
1777185170268,10001,122,-1.33404,1.23796,-0.193202,0.0121356,-0.00766959,0.000526986,-0.0215436,0.0145749,-0.0594177,0.00611201,-0.0135662,2.45511,-0.130842,-0.0500839,-9.78424,0.00111444,-0.00513776,-0.00148711,-0.183748,-0.151876,0.507567,1010.13,19
1777195302960,10139,117,-1.33419,1.23812,-0.193243,-0.00771127,0.0078125,-0.00205584,-0.0200201,0.0154684,-0.0612665,0.00611201,-0.0135662,2.45511,-0.153018,-0.0631905,-9.79376,0.00143619,-0.00513692,-0.0016009,-0.183946,-0.155247,0.508827,1010.2,19
1777205429191,10126,119,-1.33419,1.23812,-0.193243,-0.00771127,0.0078125,-0.00205584,-0.0200201,0.0154684,-0.0612665,0.0061122,-0.0135656,2.45512,-0.146637,-0.0651498,-9.81203,0.00108696,-0.00512899,-0.00255097,-0.185035,-0.152354,0.507367,1010.2,19
1777215163652,9731,118,-1.33419,1.23812,-0.193208,0.000190549,0.000285823,0.00172536,-0.0199446,0.0157282,-0.0623835,0.00611393,-0.0135699,2.45513,-0.146637,-0.0651498,-9.81203,0.00108696,-0.00512899,-0.00255097,-0.185035,-0.152354,0.507367,1010.2,19
1777225177421,10009,123,-1.33419,1.23812,-0.193208,0.000190549,0.000285823,0.00172536,-0.0199446,0.0157282,-0.0623835,0.00610197,-0.0135711,2.45513,-0.143573,-0.0821368,-9.8164,2.48842e-05,-0.00512982,-0.00241411,-0.183415,-0.15356,0.507943,1010.2,19
1777235173652,9996,122,-1.33419,1.23806,-0.193202,-0.000232231,-0.00306664,0.000291033,-0.0208103,0.0153709,-0.0625333,0.00609866,-0.0135581,2.45515,-0.114824,-0.0571919,-9.84861,0.00153463,-0.00407096,-0.00181031,-0.182852,-0.149561,0.508037,1010.2,19
1777245653344,10484,122,-1.33419,1.23806,-0.193202,-0.000232231,-0.00306664,0.000291033,-0.0208103,0.0153709,-0.0625333,0.00610589,-0.0135582,2.45516,-0.155287,-0.058765,-9.79965,0.00140732,-0.00512986,-0.00245671,-0.18658,-0.150848,0.509032,1010.16,19
1777255783267,10140,112,-1.33413,1.23808,-0.193238,0.00287014,0.000780059,-0.00180203,-0.0201764,0.0153178,-0.0614389,0.00610946,-0.0135655,2.45517,-0.132195,-0.0754867,-9.80221,0.00141441,-0.00577014,-0.00224665,-0.184664,-0.152607,0.508873,1010.16,19
1777265184806,9399,115,-1.33413,1.23808,-0.193238,0.00287014,0.000780059,-0.00180203,-0.0201764,0.0153178,-0.0614389,0.00611319,-0.0135649,2.45517,-0.111793,-0.0642636,-9.82182,0.00142915,-0.00523799,-0.00180953,-0.182547,-0.150536,0.509939,1010.16,19
1777275224575,10037,117,-1.33412,1.23805,-0.193219,0.000690739,-0.00125643,0.000946789,-0.0207718,0.0148648,-0.0607692,0.00611393,-0.0135637,2.45517,-0.122897,-0.0507445,-9.84614,0.00109109,-0.00619407,-0.00245063,-0.18226,-0.151568,0.508961,1010.23,19
1777285175806,9943,120,-1.33412,1.23805,-0.193219,0.000690739,-0.00125643,0.000946789,-0.0207718,0.0148648,-0.0607692,0.00611418,-0.0135646,2.45517,-0.134786,-0.0622345,-9.81577,0.000801449,-0.00577614,-0.00148181,-0.182009,-0.151731,0.509271,1010.23,19
1777295164191,9993,116,-1.33406,1.23797,-0.193234,0.00298923,-0.00424567,-0.000727212,-0.0209685,0.0151399,-0.0599266,0.0061138,-0.0135711,2.45518,-0.134786,-0.0622345,-9.81577,0.000801449,-0.00577614,-0.00148181,-0.182009,-0.151731,0.509271,1010.23,19
1777305178575,10010,121,-1.33406,1.23797,-0.193234,0.00298923,-0.00424567,-0.000727212,-0.0209685,0.0151399,-0.0599266,0.00612244,-0.0135727,2.45519,-0.150147,-0.0689887,-9.80213,0.00234947,-0.00512636,-0.00291313,-0.183947,-0.151566,0.508777,1010.16,19
1777315154652,9987,111,-1.33407,1.23803,-0.193205,-0.00058951,0.00329888,0.00145219,-0.0208882,0.0149611,-0.0613364,0.00613065,-0.0135727,2.45518,-0.131369,-0.0644013,-9.78532,0.00235748,-0.00502169,-0.00269943,-0.184428,-0.156686,0.508751,1010.16,19
1777325487806,10332,115,-1.33407,1.23803,-0.193205,-0.00058951,0.00329888,0.00145219,-0.0208882,0.0149611,-0.0613364,0.00612815,-0.0135648,2.45518,-0.155556,-0.0777747,-9.81518,0.000803102,-0.0047106,-0.00147308,-0.183493,-0.15428,0.508019,1010.16,19
1777335162883,9673,118,-1.33417,1.23807,-0.193212,-0.00510313,0.00186381,-0.000339415,-0.0207822,0.0155879,-0.0624035,0.00612815,-0.0135648,2.45518,-0.136773,-0.0583978,-9.81829,0.00127233,-0.00458674,-0.00330175,-0.184275,-0.152284,0.508542,1010.16,19
1777345177421,10008,118,-1.33417,1.23807,-0.193212,-0.00510313,0.00186381,-0.000339415,-0.0207822,0.0155879,-0.0624035,0.00612631,-0.0135554,2.45519,-0.117335,-0.0498469,-9.8089,0.00206677,-0.00619932,-0.00184745,-0.184366,-0.152442,0.508224,1010.16,19
1777355553575,10376,124,-1.33379,1.23769,-0.193096,0.0191502,-0.0187869,0.00576633,-0.023009,0.0156277,-0.0552207,0.00612854,-0.0135555,2.45519,-0.120881,-0.0555148,-9.79028,0.00080814,-0.00513776,-0.00147678,-0.184616,-0.148999,0.507941,1010.23,19
1777365408498,9856,122,-1.33379,1.23769,-0.193096,0.0191502,-0.0187869,0.00576633,-0.023009,0.0156277,-0.0552207,0.00612505,-0.0135527,2.45521,-0.129773,-0.0651352,-9.81651,6.21606e-05,-0.00609187,-0.00113452,-0.183881,-0.153003,0.508363,1010.23,19
1777375165498,9756,121,-1.3338,1.23768,-0.193069,-0.000518054,-0.000464463,0.00138222,-0.0230224,0.0157416,-0.0553627,0.00611284,-0.0135519,2.45524,-0.129773,-0.0651352,-9.81651,6.21606e-05,-0.00609187,-0.00113452,-0.183881,-0.153003,0.508363,1010.23,19
1777385179267,10010,125,-1.3338,1.23768,-0.193069,-0.000518054,-0.000464463,0.00138222,-0.0230224,0.0157416,-0.0553627,0.0061039,-0.0135611,2.45525,-0.131768,-0.0622393,-9.81068,0.000152199,-0.0061993,-0.00178473,-0.183876,-0.152444,0.508528,1010.24,19
1777395173037,9995,122,-1.33411,1.23797,-0.193215,-0.0153928,0.0141602,-0.00729742,-0.0212084,0.0139391,-0.0596878,0.00610276,-0.0135641,2.45526,-0.131037,-0.0856688,-9.8449,0.000904161,-0.00492455,-0.00147826,-0.183153,-0.150445,0.5086,1010.24,19
1777405279114,10117,114,-1.33411,1.23797,-0.193215,-0.0153928,0.0141602,-0.00729742,-0.0212084,0.0139391,-0.0596878,0.00610623,-0.0135661,2.45526,-0.136553,-0.0696656,-9.81652,0.00145757,-0.00514215,-0.000967087,-0.181282,-0.152773,0.509478,1010.14,19
1777415161652,9874,120,-1.33408,1.238,-0.193212,0.00135766,0.00156607,0.000117604,-0.0210725,0.0149417,-0.0611144,0.00610623,-0.0135661,2.45526,-0.136553,-0.0696656,-9.81652,0.00145757,-0.00514215,-0.000967087,-0.181282,-0.152773,0.509478,1010.14,19
1777425191652,10037,117,-1.33408,1.238,-0.193212,0.00135766,0.00156607,0.000117604,-0.0210725,0.0149417,-0.0611144,0.00611532,-0.0135671,2.45529,-0.108585,-0.0875545,-9.82669,0.00146485,-0.00514393,-0.000751356,-0.183161,-0.150363,0.508361,1010.14,19
1777435308806,10117,116,-1.33414,1.23805,-0.193226,-0.00306069,0.00254264,-0.00067883,-0.0202213,0.0152717,-0.0613617,0.00611803,-0.0135657,2.4553,-0.124585,-0.0563088,-9.805,0.00143209,-0.00620017,-0.00172239,-0.181909,-0.150996,0.507513,1010.14,19
1777445177498,9858,121,-1.33414,1.23805,-0.193226,-0.00306069,0.00254264,-0.00067883,-0.0202213,0.0152717,-0.0613617,0.00612202,-0.0135641,2.45531,-0.124585,-0.0563088,-9.805,0.00143209,-0.00620017,-0.00172239,-0.181909,-0.150996,0.507513,1010.14,19
1777455194037,10026,117,-1.33395,1.23783,-0.19321,0.00958699,-0.0107779,0.000792713,-0.0217735,0.0146125,-0.0578941,0.00611882,-0.0135607,2.45533,-0.126509,-0.0644157,-9.81203,0.00109531,-0.00566547,-0.00223249,-0.184429,-0.149806,0.508728,1010.21,19
1777465330190,10142,113,-1.33395,1.23783,-0.19321,0.00958699,-0.0107779,0.000792713,-0.0217735,0.0146125,-0.0578941,0.00611301,-0.0135569,2.45535,-0.114325,-0.0652291,-9.82596,0.00146802,-0.00620895,-0.000657431,-0.184372,-0.15356,0.508055,1010.21,19
1777475156421,9823,114,-1.3338,1.23768,-0.193098,0.00755645,-0.00792564,0.00562044,-0.0228538,0.0156229,-0.0550058,0.00611771,-0.0135577,2.45536,-0.114325,-0.0652291,-9.82596,0.00146802,-0.00620895,-0.000657431,-0.184372,-0.15356,0.508055,1010.21,19
1777485182960,10015,121,-1.3338,1.23768,-0.193098,0.00755645,-0.00792564,0.00562044,-0.0228538,0.0156229,-0.0550058,0.00611953,-0.0135624,2.45537,-0.143796,-0.0567999,-9.80591,0.00216456,-0.00587674,-0.00205773,-0.183468,-0.153326,0.508747,1010.16,19
1777495453652,10283,114,-1.33418,1.23809,-0.193213,-0.0194031,0.0213318,-0.0059227,-0.0205459,0.0156177,-0.0608785,0.0061232,-0.0135695,2.45537,-0.132056,-0.0514375,-9.81962,0.00144315,-0.00566834,-0.00139467,-0.184463,-0.153478,0.507738,1010.16,19
1777505179883,9714,122,-1.33418,1.23809,-0.193213,-0.0194031,0.0213318,-0.0059227,-0.0205459,0.0156177,-0.0608785,0.00612325,-0.0135714,2.45537,-0.163507,-0.052705,-9.80073,0.0012861,-0.00608405,-0.00289341,-0.182858,-0.154999,0.507832,1010.15,19
1777515602575,10436,115,-1.33417,1.23807,-0.193202,0.000410871,-0.00125643,0.000570902,-0.0207952,0.0157209,-0.0619112,0.00612456,-0.0135749,2.45536,-0.129173,-0.066851,-9.78701,0.00250366,-0.00375256,-0.00152255,-0.183274,-0.153955,0.507374,1010.15,19
1777525185652,9566,126,-1.33417,1.23807,-0.193202,0.000410871,-0.00125643,0.000570902,-0.0207952,0.0157209,-0.0619112,0.00613029,-0.0135691,2.45537,-0.129173,-0.066851,-9.78701,0.00250366,-0.00375256,-0.00152255,-0.183274,-0.153955,0.507374,1010.15,19
1777535198036,10026,116,-1.33415,1.23805,-0.193184,0.000928925,-0.000970608,0.000892453,-0.0211365,0.0156035,-0.0610859,0.00614047,-0.0135666,2.45538,-0.13887,-0.0742069,-9.78461,0.00247774,-0.00513152,-0.00229096,-0.181392,-0.152606,0.508603,1010.15,19
1777545174421,9970,120,-1.33415,1.23805,-0.193184,0.000928925,-0.000970608,0.000892453,-0.0211365,0.0156035,-0.0610859,0.0061519,-0.013566,2.45539,-0.118613,-0.0776999,-9.79037,0.000884277,-0.00534374,-0.00233277,-0.184027,-0.150606,0.508788,1010.15,19
1777555175036,9995,123,-1.33423,1.23804,-0.193215,-0.00397771,-0.000113138,-0.00155044,-0.0207573,0.0156198,-0.0627992,0.00616101,-0.0135648,2.4554,-0.118613,-0.0776999,-9.79037,0.000884277,-0.00534374,-0.00233277,-0.184027,-0.150606,0.508788,1010.15,19
1777565170729,10004,122,-1.33423,1.23804,-0.193215,-0.00397771,-0.000113138,-0.00155044,-0.0207573,0.0156198,-0.0627992,0.00617055,-0.0135596,2.45541,-0.1259,-0.0781757,-9.82876,0.00143981,-0.00460607,-0.0014937,-0.185024,-0.150597,0.507701,1010.26,19
1777575546575,10378,118,-1.33411,1.238,-0.19323,0.00600824,-0.00200672,-0.00076815,-0.0210502,0.0150508,-0.0597685,0.00617692,-0.0135545,2.45541,-0.132398,-0.0722124,-9.80069,0.000905478,-0.00620105,-0.00159784,-0.18352,-0.154674,0.507216,1010.26,19
1777585180344,9625,122,-1.33411,1.238,-0.19323,0.00600824,-0.00200672,-0.00076815,-0.0210502,0.0150508,-0.0597685,0.00617924,-0.0135603,2.45542,-0.132398,-0.0722124,-9.80069,0.000905478,-0.00620105,-0.00159784,-0.18352,-0.154674,0.507216,1010.26,19
1777595164652,9994,116,-1.33403,1.23789,-0.1932,0.00390625,-0.00564501,0.00149462,-0.0218874,0.0142675,-0.0587452,0.00618647,-0.0135675,2.45543,-0.142717,-0.0694155,-9.78773,0.00143937,-0.00620195,-0.00150685,-0.185696,-0.151549,0.506755,1010.19,19
1777605270575,10107,117,-1.33403,1.23789,-0.1932,0.00390625,-0.00564501,0.00149462,-0.0218874,0.0142675,-0.0587452,0.00618812,-0.0135693,2.45544,-0.127221,-0.0639626,-9.81128,0.00119734,-0.00619761,-0.00202522,-0.186098,-0.150608,0.509098,1010.12,19
1777615677267,10406,116,-1.33416,1.23806,-0.193254,-0.00656798,0.00817573,-0.00269373,-0.0200052,0.0149473,-0.0621342,0.00619625,-0.0135716,2.45544,-0.140485,-0.0699925,-9.83462,0.000664986,-0.00534264,-0.00232409,-0.185457,-0.155009,0.50912,1010.12,19
1777625742113,10065,116,-1.33416,1.23806,-0.193254,-0.00656798,0.00817573,-0.00269373,-0.0200052,0.0149473,-0.0621342,0.00619847,-0.0135697,2.45544,-0.140485,-0.0699925,-9.83462,0.000664986,-0.00534264,-0.00232409,-0.185457,-0.155009,0.50912,1010.12,19
1777635170575,9422,123,-1.33413,1.23803,-0.193231,0.00195908,-0.00134575,0.00117009,-0.0205659,0.0152349,-0.0608901,0.00619904,-0.0135686,2.45544,-0.140485,-0.0699925,-9.83462,0.000664986,-0.00534264,-0.00232409,-0.185457,-0.155009,0.50912,1010.12,19
1777645168421,10002,118,-1.33413,1.23803,-0.193231,0.00195908,-0.00134575,0.00117009,-0.0205659,0.0152349,-0.0608901,0.00619749,-0.0135745,2.45546,-0.139766,-0.0371072,-9.81444,0.00139998,-0.00587291,-0.00267428,-0.184909,-0.150126,0.508742,1010.12,19
1777655174498,9997,122,-1.33424,1.23807,-0.193244,-0.00591892,0.00219727,-0.000675853,-0.0206963,0.0151358,-0.0621088,0.00619628,-0.0135757,2.45546,-0.139766,-0.0371072,-9.81444,0.00139998,-0.00587291,-0.00267428,-0.184909,-0.150126,0.508742,1010.12,19
1777665609575,10449,113,-1.33424,1.23807,-0.193244,-0.00591892,0.00219727,-0.000675853,-0.0206963,0.0151358,-0.0621088,0.00619326,-0.0135616,2.45546,-0.112536,-0.0546582,-9.83143,0.00129238,-0.00406481,-0.00254912,-0.183595,-0.153094,0.509714,1010.15,19
1777675168806,9549,121,-1.33427,1.23816,-0.193207,-0.00112543,0.00413253,0.00186604,-0.0209929,0.0162297,-0.0620917,0.00619326,-0.0135616,2.45546,-0.112536,-0.0546582,-9.83143,0.00129238,-0.00406481,-0.00254912,-0.183595,-0.153094,0.509714,1010.15,19
1777685167421,10006,117,-1.33427,1.23816,-0.193207,-0.00112543,0.00413253,0.00186604,-0.0209929,0.0162297,-0.0620917,0.00619718,-0.0135473,2.45548,-0.127255,-0.0454899,-9.81421,0.000368792,-0.00588116,-0.00167725,-0.18434,-0.154128,0.50901,1010.2,19
1777695277652,10111,117,-1.33421,1.23805,-0.193239,0.00276891,-0.00532346,-0.00157203,-0.020701,0.0158181,-0.0620019,0.00618874,-0.0135465,2.45547,-0.0929338,-0.0490575,-9.81445,0.000864797,-0.00512636,-0.00286291,-0.181819,-0.153719,0.507807,1010.2,19
1777705163421,9885,117,-1.33421,1.23805,-0.193239,0.00276891,-0.00532346,-0.00157203,-0.020701,0.0158181,-0.0620019,0.00617864,-0.0135425,2.45547,-0.136152,-0.048362,-9.84298,-7.10563e-05,-0.0051325,-0.00208585,-0.184267,-0.152926,0.508777,1010.09,19
1777715165806,9997,118,-1.33418,1.23805,-0.193252,0.00170898,0.000196503,-0.00067362,-0.0205635,0.0151722,-0.0606237,0.00616939,-0.0135387,2.45548,-0.136152,-0.048362,-9.84298,-7.10563e-05,-0.0051325,-0.00208585,-0.184267,-0.152926,0.508777,1010.09,19
1777725170806,10008,118,-1.33418,1.23805,-0.193252,0.00170898,0.000196503,-0.00067362,-0.0205635,0.0151722,-0.0606237,0.00617145,-0.01354,2.45548,-0.133033,-0.0393156,-9.79925,0.00142147,-0.00534848,-0.00203742,-0.183763,-0.152452,0.509484,1010.09,19
1777735153267,9986,114,-1.33416,1.23807,-0.193231,0.000982517,0.000833651,0.00106216,-0.0207921,0.0152291,-0.0604361,0.00617395,-0.0135405,2.45549,-0.123204,-0.0554008,-9.80543,0.000984997,-0.00544915,-0.00244062,-0.187415,-0.153479,0.507998,1010.09,19
1777745178806,10015,123,-1.33416,1.23807,-0.193231,0.000982517,0.000833651,0.00106216,-0.0207921,0.0152291,-0.0604361,0.00617446,-0.0135357,2.4555,-0.125247,-0.0595806,-9.81851,0.000376225,-0.00449553,-0.0014569,-0.185206,-0.155412,0.509429,1010.09,19
1777755524806,10366,107,-1.33415,1.238,-0.193234,0.000482327,-0.0036502,-0.000154077,-0.02108,0.0148912,-0.0607714,0.00617051,-0.0135283,2.45552,-0.134953,-0.0530434,-9.79933,0.00111976,-0.00673311,-0.00150045,-0.18698,-0.151408,0.509041,1010.2,19
1777765170036,9634,117,-1.33415,1.238,-0.193234,0.000482327,-0.0036502,-0.000154077,-0.02108,0.0148912,-0.0607714,0.00616253,-0.0135329,2.45553,-0.134953,-0.0530434,-9.79933,0.00111976,-0.00673311,-0.00150045,-0.18698,-0.151408,0.509041,1010.2,19
1777775161036,9993,115,-1.33419,1.23806,-0.193233,-0.002364,0.00327506,2.97732e-05,-0.02062,0.0152592,-0.0620672,0.00615991,-0.0135373,2.45553,-0.130666,-0.0576916,-9.81518,0.000125191,-0.00619317,-0.0025273,-0.184071,-0.153556,0.507484,1010.2,19
1777785175344,10006,121,-1.33419,1.23806,-0.193233,-0.002364,0.00327506,2.97732e-05,-0.02062,0.0152592,-0.0620672,0.00615429,-0.0135454,2.45554,-0.158905,-0.0508582,-9.80084,0.00142892,-0.00492601,-0.00181649,-0.183971,-0.149481,0.508075,1010.21,19
1777795191498,10023,116,-1.33421,1.23805,-0.193238,-0.000595465,-0.000672875,-0.000258283,-0.0205348,0.0151521,-0.0618415,0.00615575,-0.0135447,2.45555,-0.132916,-0.0428947,-9.78084,0.000442482,-0.00577786,-0.00253458,-0.182309,-0.151476,0.507522,1010.21,19
1777805449267,10259,117,-1.33421,1.23805,-0.193238,-0.000595465,-0.000672875,-0.000258283,-0.0205348,0.0151521,-0.0618415,0.00615542,-0.013544,2.45555,-0.132916,-0.0428947,-9.78084,0.000442482,-0.00577786,-0.00253458,-0.182309,-0.151476,0.507522,1010.21,19
1777815168421,9711,120,-1.33417,1.238,-0.193238,0.00197694,-0.00243545,2.53073e-05,-0.0210659,0.0151423,-0.0606711,0.00615893,-0.0135483,2.45556,-0.144353,-0.0597804,-9.82278,0.00215905,-0.00534462,-0.00226922,-0.183809,-0.151801,0.50813,1010.17,19
1777825175959,10006,122,-1.33417,1.238,-0.193238,0.00197694,-0.00243545,2.53073e-05,-0.0210659,0.0151423,-0.0606711,0.0061656,-0.013555,2.45556,-0.137323,-0.039647,-9.82781,0.000469245,-0.00619845,-0.0018986,-0.182641,-0.151653,0.509533,1010.17,19
1777835448806,10281,119,-1.33414,1.23796,-0.193237,0.00152439,-0.00197099,2.97732e-05,-0.0212248,0.0147723,-0.0611605,0.00616694,-0.0135573,2.45557,-0.122327,-0.0344207,-9.8226,0.00185476,-0.00513514,-0.00183086,-0.184504,-0.151007,0.508881,1010.17,19
1777845879882,10431,120,-1.33414,1.23796,-0.193237,0.00152439,-0.00197099,2.97732e-05,-0.0212248,0.0147723,-0.0611605,0.00617157,-0.0135538,2.45559,-0.126091,-0.0504656,-9.79178,0.00126282,-0.00514654,-0.000427325,-0.183691,-0.15109,0.509253,1010.17,19
1777855220882,9302,141,-1.33388,1.23772,-0.19314,0.0125643,-0.0120998,0.0048456,-0.022891,0.0146625,-0.0562076,0.00617242,-0.0135503,2.4556,-0.126091,-0.0504656,-9.79178,0.00126282,-0.00514654,-0.000427325,-0.183691,-0.15109,0.509253,1010.17,19
1777865371267,10177,130,-1.33388,1.23772,-0.19314,0.0125643,-0.0120998,0.0048456,-0.022891,0.0146625,-0.0562076,0.00617929,-0.0135482,2.45562,-0.13029,-0.0553619,-9.79545,0.00121549,-0.00502701,-0.00201578,-0.183515,-0.149235,0.507341,1010.15,19
1777875190421,9807,136,-1.33413,1.23806,-0.193222,-0.0124214,0.0169886,-0.00405586,-0.0204219,0.0153201,-0.0602436,0.00618197,-0.0135482,2.45563,-0.13029,-0.0553619,-9.79545,0.00121549,-0.00502701,-0.00201578,-0.183515,-0.149235,0.507341,1010.15,19
1777885432575,10261,122,-1.33413,1.23806,-0.193222,-0.0124214,0.0169886,-0.00405586,-0.0204219,0.0153201,-0.0602436,0.00617679,-0.0135454,2.45565,-0.145273,-0.0565778,-9.80136,0.00036539,-0.00513516,-0.00177803,-0.185245,-0.151962,0.508258,1010.16,19
1777895173113,9739,121,-1.33411,1.23802,-0.193231,0.00111947,-0.00173876,-0.000456275,-0.0205343,0.015049,-0.0608014,0.00617686,-0.0135396,2.45565,-0.12164,-0.0634554,-9.7809,0.00175076,-0.00513511,-0.00183089,-0.185046,-0.154372,0.509432,1010.16,19
1777905173344,10004,119,-1.33411,1.23802,-0.193231,0.00111947,-0.00173876,-0.000456275,-0.0205343,0.015049,-0.0608014,0.00618411,-0.0135385,2.45566,-0.120095,-0.0635597,-9.7969,0.00142886,-0.00565998,-0.00181817,-0.185172,-0.15118,0.510423,1010.16,19
