# Time(ns),period(us),execution,x,y,z,Vx,Vy,Vz,roll_OT,pitch_OT,yaw_OT,roll_PX4,pitch_PX4,yaw_PX4,imu_acc_x,imu_acc_y,imu_acc_z,imu_gyr_x,imu_gyr_y,imu_gyr_z,imu_mag_x,imu_mag_y,imu_mag_z,imu_absolute_pressure,ultrasonic_distance
494302192493,9853,140,-1.38267,1.29504,-0.19313,0,0,0,-0.0176081,0.012086,0.205074,0.00677534,-0.0174837,2.76391,-0.161229,-0.0544854,-9.81968,-0.000149232,-0.00747963,-0.0014638,-0.214968,-0.0994672,0.498006,1010.12,19
494312463570,10296,131,-1.38267,1.29504,-0.19313,0,0,0,-0.0176081,0.012086,0.205074,0.00675774,-0.0174928,2.76393,-0.150936,-0.0647222,-9.85527,0.000340136,-0.00524002,-0.00252669,-0.215152,-0.101161,0.49968,1010.12,19
494322424416,9957,132,-1.38267,1.29501,-0.193079,4.16825e-05,-0.00128025,0.00254115,-0.0170956,0.0111376,0.205356,0.00674807,-0.0174878,2.76395,-0.151404,-0.0677129,-9.81799,-0.000669515,-0.00568211,-0.000891176,-0.214891,-0.0999466,0.49792,1010.07,19
494332530416,10117,121,-1.38267,1.29501,-0.193079,4.16825e-05,-0.00128025,0.00254115,-0.0170956,0.0111376,0.205356,0.0067379,-0.017486,2.76398,-0.173832,-0.0552558,-9.84612,0.00133234,-0.00641653,-0.00150501,-0.216916,-0.10124,0.499578,1010.07,19
494342170570,9625,138,-1.38263,1.29497,-0.193093,0.00201267,-0.0021139,-0.000680319,-0.0175899,0.0118466,0.205923,0.00673586,-0.0174909,2.76399,-0.173832,-0.0552558,-9.84612,0.00133234,-0.00641653,-0.00150501,-0.216916,-0.10124,0.499578,1010.07,19
494352245954,10084,126,-1.38263,1.29497,-0.193093,0.00201267,-0.0021139,-0.000680319,-0.0175899,0.0118466,0.205923,0.00674771,-0.0174933,2.76401,-0.153699,-0.0709077,-9.83749,0.00178381,-0.00525085,-0.000765754,-0.212722,-0.102749,0.498144,1010.05,19
494362738724,10484,134,-1.38265,1.29495,-0.193037,-0.000702649,-0.000833651,0.00278008,-0.0186404,0.0119285,0.205493,0.00675413,-0.0174925,2.76403,-0.17503,-0.0702786,-9.82485,0.00147522,-0.00631711,-0.000444147,-0.209312,-0.0983618,0.499586,1010.05,19
494372253570,9467,158,-1.38265,1.29495,-0.193037,-0.000702649,-0.000833651,0.00278008,-0.0186404,0.0119285,0.205493,0.00676561,-0.0174967,2.76406,-0.17503,-0.0702786,-9.82485,0.00147522,-0.00631711,-0.000444147,-0.209312,-0.0983618,0.499586,1010.05,19
494382171339,9966,133,-1.38267,1.295,-0.193081,-0.00110756,0.002495,-0.0021794,-0.017321,0.0110591,0.205508,0.0067716,-0.017499,2.76408,-0.16699,-0.0608043,-9.81935,0.00144676,-0.00620375,-0.00128775,-0.217364,-0.100908,0.498155,1010.05,19
494392176339,10016,127,-1.38267,1.295,-0.193081,-0.00110756,0.002495,-0.0021794,-0.017321,0.0110591,0.205508,0.00677578,-0.017506,2.7641,-0.16436,-0.0551369,-9.84081,0.00218201,-0.00610169,-0.00142991,-0.213988,-0.101552,0.498596,1010.05,19
494402464723,10272,140,-1.38265,1.29493,-0.193063,0.000666921,-0.00343583,0.000864913,-0.017398,0.0130917,0.205693,0.00677743,-0.0175118,2.76412,-0.16436,-0.0551369,-9.84081,0.00218201,-0.00610169,-0.00142991,-0.213988,-0.101552,0.498596,1010.05,19
494412224570,9736,148,-1.38265,1.29493,-0.193063,0.000666921,-0.00343583,0.000864913,-0.017398,0.0130917,0.205693,0.00677911,-0.0175194,2.76416,-0.149443,-0.0628954,-9.81173,0.00147525,-0.00621072,-0.00044327,-0.213496,-0.0994751,0.498917,1010.05,19
494422477877,10293,126,-1.38271,1.295,-0.193089,-0.00263196,0.00310833,-0.00130556,-0.0169916,0.0120345,0.205017,0.00678283,-0.0175247,2.76419,-0.14865,-0.0486347,-9.80461,0.00145731,-0.00620633,-0.000975059,-0.21392,-0.0985892,0.498218,1010.05,19
494432231493,9717,147,-1.38271,1.295,-0.193089,-0.00263196,0.00310833,-0.00130556,-0.0169916,0.0120345,0.205017,0.00677929,-0.017531,2.76422,-0.157252,-0.0559407,-9.83582,0.000921416,-0.00610115,-0.000951854,-0.213888,-0.100357,0.499163,1010.12,19
494442347800,10143,133,-1.38271,1.29504,-0.193112,-0.00034537,0.00215558,-0.00112394,-0.0164942,0.0116903,0.204586,0.00677254,-0.017533,2.76424,-0.139759,-0.0453864,-9.85646,0.000193708,-0.00514477,-0.000605679,-0.215096,-0.101315,0.498956,1010.12,19
494452237647,9905,122,-1.38271,1.29504,-0.193112,-0.00034537,0.00215558,-0.00112394,-0.0164942,0.0116903,0.204586,0.00676259,-0.0175295,2.76427,-0.131766,-0.012907,-9.84727,0.00133511,-0.00609498,-0.00139894,-0.213297,-0.0990653,0.497713,1010.14,19
494462181339,9921,143,-1.38273,1.29501,-0.193097,-0.000842285,-0.0013855,0.000775909,-0.017406,0.0107898,0.204832,0.00675398,-0.0175263,2.76428,-0.131766,-0.012907,-9.84727,0.00133511,-0.00609498,-0.00139894,-0.213297,-0.0990653,0.497713,1010.14,19
494472218108,10025,152,-1.38273,1.29501,-0.193097,-0.000842285,-0.0013855,0.000775909,-0.017406,0.0107898,0.204832,0.00675398,-0.0175263,2.76428,-0.150714,-0.0570103,-9.84077,0.00243273,-0.00578202,-0.000472034,-0.214854,-0.104116,0.499005,1010.14,19
494482191570,9974,143,-1.38265,1.29501,-0.193053,0.00385861,-0.000142912,0.00220248,-0.0181189,0.0118794,0.20516,0.00675286,-0.0175282,2.76435,-0.171705,-0.0569827,-9.83846,0.00200922,-0.00568509,-0.000456947,-0.214431,-0.0978011,0.499683,1010.14,19
494492522877,10350,136,-1.38265,1.29501,-0.193053,0.00385861,-0.000142912,0.00220248,-0.0181189,0.0118794,0.20516,0.00675238,-0.0175288,2.76437,-0.15672,-0.0654256,-9.8352,0.000343601,-0.00587321,-0.00242395,-0.212092,-0.0997866,0.497827,1010.14,19
494502223108,9713,121,-1.38265,1.29493,-0.193003,0.00034537,-0.00399557,0.00247192,-0.0183623,0.0127777,0.205957,0.0067492,-0.0175275,2.7644,-0.167106,-0.0601869,-9.83031,0.000906268,-0.00556608,-0.00148362,-0.213651,-0.0987565,0.499088,1010.14,19
494512244954,9967,159,-1.38265,1.29493,-0.193003,0.00034537,-0.00399557,0.00247192,-0.0183623,0.0127777,0.205957,0.0067492,-0.0175275,2.7644,-0.167106,-0.0601869,-9.83031,0.000906268,-0.00556608,-0.00148362,-0.213651,-0.0987565,0.499088,1010.14,19
494522207570,9971,151,-1.38265,1.29493,-0.193003,0.00034537,-0.00399557,0.00247192,-0.0183623,0.0127777,0.205957,0.00674286,-0.0175316,2.76443,-0.167106,-0.0601869,-9.83031,0.000906268,-0.00556608,-0.00148362,-0.213651,-0.0987565,0.499088,1010.14,19
494532295954,10120,138,-1.38259,1.29486,-0.19291,0.00278678,-0.00365615,0.00467961,-0.0196548,0.0134633,0.206597,0.00674361,-0.0175311,2.76444,-0.168981,-0.0410523,-9.8576,0.00176047,-0.00513776,-0.0015089,-0.212291,-0.0977165,0.499051,1010.17,19
494542415339,10131,126,-1.38269,1.29504,-0.193131,-0.00510313,0.00889029,-0.0110489,-0.0166426,0.0110953,0.205032,0.00675591,-0.0175224,2.76448,-0.165834,-0.0689663,-9.80335,0.00124967,-0.00620806,-0.00075808,-0.214088,-0.099807,0.500375,1010.13,19
494552220262,9776,143,-1.38269,1.29504,-0.193131,-0.00510313,0.00889029,-0.0110489,-0.0166426,0.0110953,0.205032,0.0067588,-0.0175278,2.76452,-0.165834,-0.0689663,-9.80335,0.00124967,-0.00620806,-0.00075808,-0.214088,-0.099807,0.500375,1010.13,19
494562570954,10382,123,-1.38269,1.29502,-0.193094,-4.16825e-05,-0.000655011,0.00183999,-0.0164772,0.0116691,0.204978,0.00675234,-0.0175332,2.76455,-0.164023,-0.0682617,-9.83805,0.000906731,-0.00726613,-0.00149766,-0.213435,-0.0970706,0.498375,1010.13,19
494572180800,9601,129,-1.38269,1.29502,-0.193094,-4.16825e-05,-0.000655011,0.00183999,-0.0164772,0.0116691,0.204978,0.00674601,-0.0175414,2.76457,-0.144175,-0.0575347,-9.86866,-0.000158399,-0.00694773,-0.0014591,-0.21328,-0.100689,0.500581,1010.13,19
494582255954,10083,124,-1.38261,1.29481,-0.192808,0.0043588,-0.0107303,0.0142659,-0.0209363,0.0157671,0.20708,0.00674423,-0.0175388,2.76459,-0.142734,-0.0556534,-9.82408,0.00161708,-0.00491579,-0.00224018,-0.213477,-0.0985198,0.499485,1010.13,19
494592169416,9915,125,-1.38261,1.29481,-0.192808,0.0043588,-0.0107303,0.0142659,-0.0209363,0.0157671,0.20708,0.00674578,-0.0175351,2.7646,-0.142734,-0.0556534,-9.82408,0.00161708,-0.00491579,-0.00224018,-0.213477,-0.0985198,0.499485,1010.13,19
494602871493,10708,119,-1.38261,1.29481,-0.192808,0.0043588,-0.0107303,0.0142659,-0.0209363,0.0157671,0.20708,0.00675754,-0.0175256,2.76464,-0.151115,-0.0507629,-9.83144,0.00115402,-0.00503518,-0.000422735,-0.214019,-0.0977847,0.497668,1010.09,19
494612321954,9445,123,-1.38265,1.29496,-0.193021,-0.00211986,0.00768745,-0.0106462,-0.0178182,0.0125761,0.205689,0.00675768,-0.017518,2.76469,-0.182071,-0.0497462,-9.82046,0.000580824,-0.00566931,-0.00168582,-0.216271,-0.0994811,0.499731,1010.09,19
494622465723,10134,131,-1.38269,1.29497,-0.193087,-0.00190549,0.000428735,-0.00325794,-0.0183059,0.00971496,0.205719,0.00675514,-0.0175171,2.7647,-0.182071,-0.0497462,-9.82046,0.000580824,-0.00566931,-0.00168582,-0.216271,-0.0994811,0.499731,1010.09,19
494632305339,9850,123,-1.38269,1.29497,-0.193087,-0.00190549,0.000428735,-0.00325794,-0.0183059,0.00971496,0.205719,0.00674562,-0.0175166,2.76472,-0.1537,-0.0583421,-9.82291,0.000350917,-0.00566375,-0.00220703,-0.216982,-0.100603,0.499986,1010.13,19
494642623416,10308,131,-1.38275,1.29502,-0.193087,-0.00337033,0.00259623,-2.38186e-05,-0.0177127,0.0108204,0.204784,0.00673838,-0.0175172,2.76473,-0.1537,-0.0583421,-9.82291,0.000350917,-0.00566375,-0.00220703,-0.216982,-0.100603,0.499986,1010.13,19
494652172723,9554,127,-1.38275,1.29502,-0.193087,-0.00337033,0.00259623,-2.38186e-05,-0.0177127,0.0108204,0.204784,0.00673525,-0.0175169,2.76475,-0.157021,-0.0609042,-9.8024,0.00143957,-0.00545263,-0.00150067,-0.216191,-0.0998011,0.499726,1010.1,19
494662243877,10077,122,-1.3826,1.29487,-0.192784,0.00796732,-0.00779464,0.0151434,-0.0199829,0.0154162,0.206944,0.00673591,-0.0175174,2.76476,-0.153068,-0.0550187,-9.81991,0.000426249,-0.00515004,2.59402e-05,-0.213966,-0.102998,0.499224,1010.1,19
494672290416,10048,121,-1.3826,1.29487,-0.192784,0.00796732,-0.00779464,0.0151434,-0.0199829,0.0154162,0.206944,0.00673275,-0.0175173,2.76479,-0.177446,-0.0510205,-9.86782,0.0013618,-0.00588971,-0.000649766,-0.211644,-0.0997984,0.499252,1010.1,19
494682154262,9862,117,-1.38265,1.2949,-0.193131,-0.00285228,0.00187571,-0.0173117,-0.0186757,0.0101193,0.206034,0.00672854,-0.0175177,2.76481,-0.177446,-0.0510205,-9.86782,0.0013618,-0.00588971,-0.000649766,-0.211644,-0.0997984,0.499252,1010.1,19
494692185493,10035,119,-1.38265,1.2949,-0.193131,-0.00285228,0.00187571,-0.0173117,-0.0186757,0.0101193,0.206034,0.00672267,-0.0175175,2.76485,-0.178685,-0.050986,-9.84077,0.00122736,-0.00513777,-0.00149092,-0.214871,-0.100051,0.50088,1010.1,19
494702158800,9966,125,-1.38263,1.29495,-0.192949,0.00085747,0.00253073,0.00907712,-0.019285,0.010543,0.206143,0.00672069,-0.0175169,2.76487,-0.178685,-0.050986,-9.84077,0.00122736,-0.00513777,-0.00149092,-0.214871,-0.100051,0.50088,1010.1,19
494712172416,10015,123,-1.38263,1.29495,-0.192949,0.00085747,0.00253073,0.00907712,-0.019285,0.010543,0.206143,0.00671491,-0.0175189,2.76489,-0.170471,-0.060263,-9.79368,0.000445618,-0.00619317,-0.00253811,-0.215482,-0.100758,0.499374,1010.09,19
494722556031,10380,130,-1.38266,1.29492,-0.193068,-0.00100634,-0.0017983,-0.00597326,-0.0171651,0.0128388,0.206315,0.00671267,-0.0175191,2.7649,-0.166402,-0.0497837,-9.8172,0.000556418,-0.0053427,-0.00242835,-0.213786,-0.0989224,0.499812,1010.09,19
494732449954,9900,122,-1.38266,1.29492,-0.193068,-0.00100634,-0.0017983,-0.00597326,-0.0171651,0.0128388,0.206315,0.00670811,-0.0175218,2.76492,-0.150768,-0.0479403,-9.83574,0.00109564,-0.00513162,-0.00223201,-0.218457,-0.101954,0.498984,1010.1,19
494742749108,10304,119,-1.38262,1.29491,-0.19294,0.00185785,-0.000369188,0.00640423,-0.0188031,0.0136262,0.20637,0.00670705,-0.0175224,2.76493,-0.16729,-0.0837233,-9.85745,0.00114518,-0.00599525,-0.00075008,-0.213283,-0.0998083,0.500508,1010.1,19
494752179723,9416,126,-1.38262,1.29491,-0.19294,0.00185785,-0.000369188,0.00640423,-0.0188031,0.0136262,0.20637,0.00670846,-0.0175249,2.76496,-0.16729,-0.0837233,-9.85745,0.00114518,-0.00599525,-0.00075008,-0.213283,-0.0998083,0.500508,1010.1,19
494762796339,10620,129,-1.38264,1.29487,-0.192982,-0.00104206,-0.00190549,-0.00208041,-0.0180355,0.0130035,0.206171,0.00671029,-0.0175247,2.76497,-0.164824,-0.0492896,-9.81873,0.000894295,-0.00567006,-0.00179904,-0.216263,-0.101723,0.499953,1010.1,19
494772429262,9632,128,-1.38264,1.29487,-0.192982,-0.00104206,-0.00190549,-0.00208041,-0.0180355,0.0130035,0.206171,0.00670605,-0.0175246,2.76499,-0.178676,-0.0512161,-9.84711,0.000375987,-0.00535219,-0.00146396,-0.215623,-0.0996431,0.499948,1010.1,19
494782155646,9734,119,-1.38274,1.29499,-0.193128,-0.00520436,0.0060797,-0.0072803,-0.016852,0.0114227,0.204591,0.00670006,-0.0175267,2.765,-0.165194,-0.0572532,-9.83794,0.000368481,-0.00662531,-0.00168644,-0.212874,-0.102831,0.498388,1010.1,19
494792513339,10366,116,-1.38274,1.29499,-0.193128,-0.00520436,0.0060797,-0.0072803,-0.016852,0.0114227,0.204591,0.00669328,-0.0175319,2.76502,-0.152587,-0.0567868,-9.86734,0.000910441,-0.00545317,-0.00148282,-0.214123,-0.100758,0.499328,1010.1,19
494802161646,9632,125,-1.38274,1.29499,-0.193128,-0.00520436,0.0060797,-0.0072803,-0.016852,0.0114227,0.204591,0.00669101,-0.017534,2.76503,-0.152587,-0.0567868,-9.86734,0.000910441,-0.00545317,-0.00148282,-0.214123,-0.100758,0.499328,1010.1,19
494812433800,10281,121,-1.38267,1.29501,-0.193068,0.00344774,0.000928925,0.00297584,-0.017805,0.0120136,0.20508,0.0066821,-0.0175326,2.76506,-0.138969,-0.0405427,-9.80522,0.000667694,-0.00651458,-0.00233865,-0.212789,-0.0979717,0.500907,1010.13,19
494822154723,9716,118,-1.38284,1.29491,-0.1932,-0.00833651,-0.00528177,-0.00658286,-0.0165155,0.0113162,0.204554,0.00667954,-0.0175364,2.76508,-0.159636,-0.0642079,-9.80783,0.002393,-0.00630749,-0.00164638,-0.215319,-0.0988391,0.499464,1010.13,19
494832230723,10083,118,-1.38284,1.29491,-0.1932,-0.00833651,-0.00528177,-0.00658286,-0.0165155,0.0113162,0.204554,0.0066808,-0.0175459,2.76512,-0.137932,-0.0651775,-9.80809,0.00111749,-0.00620195,-0.00149599,-0.215438,-0.0978091,0.500678,1010.17,19
494842227877,10003,113,-1.38268,1.295,-0.193054,0.00827101,0.00444217,0.00726244,-0.0174026,0.0123953,0.20526,0.0066832,-0.017547,2.76513,-0.149448,-0.0648562,-9.81768,0.00143937,-0.00620195,-0.00150685,-0.214056,-0.0999551,0.498932,1010.17,19
494852185031,9934,130,-1.38268,1.295,-0.193054,0.00827101,0.00444217,0.00726244,-0.0174026,0.0123953,0.20526,0.00669101,-0.0175487,2.76515,-0.149448,-0.0648562,-9.81768,0.00143937,-0.00620195,-0.00150685,-0.214056,-0.0999551,0.498932,1010.17,19
494862603800,10434,119,-1.38265,1.29495,-0.193033,0.00120879,-0.00232827,0.00106886,-0.018145,0.0125462,0.205627,0.00669266,-0.0175395,2.76519,-0.144585,-0.0660589,-9.78702,-0.000386146,-0.00481407,-0.00196611,-0.214802,-0.0993283,0.500563,1010.11,19
494872188877,9567,135,-1.38265,1.29495,-0.193033,0.00120879,-0.00232827,0.00106886,-0.018145,0.0125462,0.205627,0.00669266,-0.0175395,2.76519,-0.14774,-0.0648556,-9.84585,0.000878206,-0.00566747,-0.00254837,-0.215493,-0.101636,0.499047,1010.11,19
494882635339,10463,122,-1.38265,1.29498,-0.193076,0.000214367,0.00170303,-0.00214591,-0.0178917,0.0126091,0.205665,0.00669184,-0.0175356,2.76521,-0.152352,-0.0734552,-9.82551,0.00142883,-0.00619937,-0.00181916,-0.213886,-0.100358,0.499243,1010.11,19
494892177031,9535,128,-1.38265,1.29498,-0.193076,0.000214367,0.00170303,-0.00214591,-0.0178917,0.0126091,0.205665,0.00669191,-0.0175398,2.76523,-0.173789,-0.061122,-9.85241,0.00132771,-0.00673866,-0.00150751,-0.214396,-0.0989297,0.500713,1010.11,19
494902386262,10225,115,-1.38268,1.29498,-0.193063,-0.00177449,-0.000273914,0.000632681,-0.0176668,0.0123374,0.205405,0.00668981,-0.0175443,2.76524,-0.158056,-0.0594996,-9.86002,0.000450303,-0.00544939,-0.00242538,-0.214633,-0.101471,0.498459,1010.11,19
494912477646,10088,118,-1.38268,1.29498,-0.193063,-0.00177449,-0.000273914,0.000632681,-0.0176668,0.0123374,0.205405,0.0066834,-0.0175497,2.76526,-0.144725,-0.0544952,-9.83308,0.000350476,-0.00565704,-0.00222026,-0.214272,-0.0998011,0.499661,1010.14,19
494922171723,9674,135,-1.3827,1.29499,-0.193056,-0.000946789,0.000690739,0.000343881,-0.0177965,0.0108681,0.204958,0.00667685,-0.0175521,2.76527,-0.144725,-0.0544952,-9.83308,0.000350476,-0.00565704,-0.00222026,-0.214272,-0.0998011,0.499661,1010.14,19
494932187723,10014,135,-1.3827,1.29499,-0.193056,-0.000946789,0.000690739,0.000343881,-0.0177965,0.0108681,0.204958,0.00666767,-0.0175529,2.7653,-0.172213,-0.0452103,-9.82274,0.00142499,-0.00619843,-0.00193281,-0.214272,-0.0998011,0.499661,1010.14,19
494942327492,10156,122,-1.38265,1.29494,-0.192983,0.00259623,-0.00254264,0.00365764,-0.0180885,0.0128879,0.206078,0.00666451,-0.0175554,2.76533,-0.141147,-0.0668651,-9.83408,0.0020812,-0.00609662,-0.00142136,-0.215457,-0.0985244,0.500112,1010.15,19
494952167185,9839,121,-1.38265,1.29494,-0.192983,0.00259623,-0.00254264,0.00365764,-0.0180885,0.0128879,0.206078,0.00667001,-0.0175521,2.76535,-0.148473,-0.0798163,-9.83157,0.000588532,-0.00694661,-0.00148429,-0.215077,-0.10028,0.499524,1010.15,19
494962161262,9989,128,-1.38267,1.29503,-0.193082,-0.00127563,0.00432129,-0.00507431,-0.0170699,0.0114647,0.205179,0.00667097,-0.0175515,2.76536,-0.148473,-0.0798163,-9.83157,0.000588532,-0.00694661,-0.00148429,-0.215077,-0.10028,0.499524,1010.15,19
494972464800,10311,121,-1.38267,1.29503,-0.193082,-0.00127563,0.00432129,-0.00507431,-0.0170699,0.0114647,0.205179,0.00666961,-0.0175525,2.76539,-0.134454,-0.0636421,-9.84851,0.00134397,-0.00620458,-0.00118457,-0.212736,-0.0962052,0.500119,1010.09,19
494982158108,9688,125,-1.38266,1.29498,-0.192951,0.000827696,-0.00208413,0.00656351,-0.0172451,0.0123507,0.205534,0.00667468,-0.0175516,2.76542,-0.151338,-0.0465465,-9.85965,0.00174028,-0.00704891,-0.00205642,-0.213654,-0.0992358,0.499005,1010.09,19
494992453569,10299,125,-1.38266,1.29498,-0.192951,0.000827696,-0.00208413,0.00656351,-0.0172451,0.0123507,0.205534,0.00667989,-0.017553,2.76542,-0.140181,-0.0570803,-9.82837,0.00108602,-0.00534388,-0.00234535,-0.212098,-0.102365,0.500047,1010.09,19
495002486185,10036,120,-1.38272,1.29497,-0.193087,-0.00315001,-0.000726467,-0.00680244,-0.017048,0.0111034,0.205072,0.00668184,-0.0175512,2.76543,-0.140181,-0.0570803,-9.82837,0.00108602,-0.00534388,-0.00234535,-0.212098,-0.102365,0.500047,1010.09,19
495012169031,9680,122,-1.38272,1.29497,-0.193087,-0.00315001,-0.000726467,-0.00680244,-0.017048,0.0111034,0.205072,0.0066835,-0.017552,2.76545,-0.162062,-0.0809569,-9.80884,0.000801108,-0.0065212,-0.00148795,-0.214096,-0.100605,0.500129,1010.09,19
495022159031,9983,123,-1.38269,1.29504,-0.193142,0.0014053,0.00347156,-0.00273021,-0.0172991,0.0115031,0.20506,0.00668376,-0.0175524,2.76545,-0.16126,-0.0582516,-9.83453,0.00143966,-0.00513776,-0.00149808,-0.21622,-0.102774,0.501223,1010.14,19
495032169415,10015,124,-1.38269,1.29504,-0.193142,0.0014053,0.00347156,-0.00273021,-0.0172991,0.0115031,0.20506,0.00668599,-0.0175524,2.76548,-0.168008,-0.0670763,-9.83695,-0.000280511,-0.00619753,-0.00198427,-0.215658,-0.100034,0.498906,1010.14,19
495042160723,9989,124,-1.38273,1.29502,-0.193073,-0.00199481,-0.000887243,0.00343881,-0.0168653,0.0113731,0.204673,0.00667793,-0.0175607,2.76551,-0.147473,-0.065169,-9.83715,0.000375485,-0.0071587,-0.00147885,-0.216497,-0.100204,0.500133,1010.08,19
495052877415,10729,117,-1.38273,1.29502,-0.193073,-0.00199481,-0.000887243,0.00343881,-0.0168653,0.0113731,0.204673,0.00667602,-0.0175601,2.76551,-0.136813,-0.0699963,-9.79114,0.000133079,-0.00512899,-0.00251879,-0.215786,-0.0995426,0.497473,1010.08,19
495062158338,9268,126,-1.3827,1.29504,-0.193107,0.0016673,0.000863424,-0.00172164,-0.0167367,0.0118824,0.204867,0.00667315,-0.0175549,2.76553,-0.136813,-0.0699963,-9.79114,0.000133079,-0.00512899,-0.00251879,-0.215786,-0.0995426,0.497473,1010.08,19
495072198338,10044,125,-1.3827,1.29504,-0.193107,0.0016673,0.000863424,-0.00172164,-0.0167367,0.0118824,0.204867,0.00668061,-0.0175502,2.76554,-0.179378,-0.0558546,-9.83294,0.00143942,-0.00598916,-0.00150509,-0.214216,-0.100435,0.498934,1010.08,19
495082156723,9958,120,-1.38265,1.29492,-0.192999,0.00263791,-0.00613924,0.00541575,-0.0184178,0.0136518,0.206039,0.00668217,-0.017552,2.76558,-0.167954,-0.0312879,-9.84854,0.000375751,-0.00620195,-0.00147097,-0.215627,-0.0963619,0.499815,1010.08,19
495092704492,10550,122,-1.38265,1.29492,-0.192999,0.00263791,-0.00613924,0.00541575,-0.0184178,0.0136518,0.206039,0.00667511,-0.0175551,2.7656,-0.144765,-0.0558071,-9.84159,0.000358332,-0.00513343,-0.00198734,-0.214632,-0.100431,0.498467,1010.08,19
495102275492,9578,115,-1.38265,1.29492,-0.192999,0.00263791,-0.00613924,0.00541575,-0.0184178,0.0136518,0.206039,0.00666779,-0.017554,2.76563,-0.157548,-0.0667657,-9.78845,0.00143593,-0.00577698,-0.00160875,-0.214553,-0.0979704,0.500806,1010.08,19
495112172261,9888,123,-1.38265,1.29498,-0.193003,-5.95465e-06,0.00302496,-0.000220322,-0.0178512,0.01245,0.205817,0.00667101,-0.0175532,2.76565,-0.139628,-0.0730787,-9.803,0.00179807,-0.00568222,-0.000449802,-0.214423,-0.0974031,0.499926,1010.19,19
495122181569,9988,136,-1.38269,1.295,-0.193083,-0.00203054,0.000988472,-0.00398738,-0.0175464,0.0116621,0.205044,0.00667841,-0.0175505,2.76568,-0.139628,-0.0730787,-9.803,0.00179807,-0.00568222,-0.000449802,-0.214423,-0.0974031,0.499926,1010.19,19
495132179646,10013,126,-1.38269,1.295,-0.193083,-0.00203054,0.000988472,-0.00398738,-0.0175464,0.0116621,0.205044,0.00668381,-0.0175495,2.76571,-0.178085,-0.0531761,-9.78038,0.0020629,-0.00513513,-0.00183838,-0.216075,-0.0978097,0.500779,1010.19,19
495142155954,9984,116,-1.38271,1.29503,-0.193161,-0.00117902,0.00190549,-0.00389285,-0.0164597,0.00956375,0.204961,0.00668669,-0.0175474,2.76573,-0.161677,-0.0360128,-9.82612,0.00110987,-0.00491977,-0.00180461,-0.214659,-0.100345,0.497669,1010.12,19
495152172338,10015,124,-1.38271,1.29503,-0.193161,-0.00117902,0.00190549,-0.00389285,-0.0164597,0.00956375,0.204961,0.00668466,-0.0175445,2.76576,-0.161677,-0.0360128,-9.82612,0.00110987,-0.00491977,-0.00180461,-0.214659,-0.100345,0.497669,1010.12,19
495162335108,10159,129,-1.38276,1.29504,-0.193128,-0.00242354,0.00033346,0.00165911,-0.0167579,0.0112758,0.20435,0.00667882,-0.017549,2.7658,-0.17299,-0.0492505,-9.82102,0.00123356,-0.00545843,-0.00128032,-0.216318,-0.099649,0.500692,1010.11,19
495172523954,10196,122,-1.38276,1.29504,-0.193128,-0.00242354,0.00033346,0.00165911,-0.0167579,0.0112758,0.20435,0.0066736,-0.017547,2.76583,-0.132295,-0.0512806,-9.80982,0.000585046,-0.00513685,-0.00157972,-0.214763,-0.100598,0.499351,1010.11,19
495182157108,9627,126,-1.38262,1.2949,-0.192901,0.00701458,-0.00697289,0.0113161,-0.0186054,0.0139724,0.206407,0.00667091,-0.0175443,2.76583,-0.132295,-0.0512806,-9.80982,0.000585046,-0.00513685,-0.00157972,-0.214763,-0.100598,0.499351,1010.11,19
495192181723,10017,129,-1.38262,1.2949,-0.192901,0.00701458,-0.00697289,0.0113161,-0.0186054,0.0139724,0.206407,0.00666535,-0.0175407,2.76584,-0.149059,-0.0383659,-9.80635,0.000372183,-0.00620108,-0.00157671,-0.213756,-0.10219,0.498343,1010.11,19
495202208569,10038,120,-1.38277,1.29497,-0.19307,-0.00739567,0.00350133,-0.0084102,-0.0179252,0.00960043,0.205193,0.00665971,-0.0175449,2.76586,-0.149194,-0.0656593,-9.83163,0.000733592,-0.00621072,-0.000418252,-0.213782,-0.103004,0.499938,1010.11,19
495212203261,9990,123,-1.38277,1.29497,-0.19307,-0.00739567,0.00350133,-0.0084102,-0.0179252,0.00960043,0.205193,0.00665971,-0.0175449,2.76586,-0.149194,-0.0656593,-9.83163,0.000733592,-0.00621072,-0.000418252,-0.213782,-0.103004,0.499938,1010.11,19
495222779646,10583,120,-1.38267,1.29501,-0.193162,0.00471013,0.00178044,-0.00459476,-0.0169535,0.010826,0.205512,0.00665427,-0.0175388,2.76589,-0.157847,-0.0503528,-9.80446,0.000376194,-0.00460567,-0.00145781,-0.214317,-0.0979499,0.498317,1010.13,19
495232530569,9750,121,-1.38267,1.29501,-0.193162,0.00471013,0.00178044,-0.00459476,-0.0169535,0.010826,0.205512,0.00664377,-0.017526,2.76591,-0.187897,-0.0524854,-9.80743,0.00135851,-0.00514393,-0.000747193,-0.209635,-0.100281,0.499501,1010.13,19
495242155492,9626,117,-1.38259,1.29486,-0.192759,0.0041623,-0.00712772,0.0201304,-0.0200207,0.0165469,0.207204,0.00663651,-0.0175177,2.76593,-0.154361,-0.049936,-9.79646,0.000605473,-0.00439043,-0.0011401,-0.214912,-0.0985813,0.497291,1010.12,19
495252484184,10330,118,-1.38259,1.29486,-0.192759,0.0041623,-0.00712772,0.0201304,-0.0200207,0.0165469,0.207204,0.00663217,-0.0175062,2.76595,-0.168464,-0.0570007,-9.84408,0.000358085,-0.00587822,-0.00199467,-0.213553,-0.101401,0.499624,1010.12,19
495262155569,9668,124,-1.38264,1.2949,-0.193032,-0.002626,0.00188762,-0.0136719,-0.0173196,0.0115953,0.206583,0.00663084,-0.0175043,2.76596,-0.145456,-0.0726588,-9.82856,0.00102404,-0.00640752,-0.00149453,-0.215624,-0.103163,0.499919,1010.12,19
495272739646,10583,123,-1.38264,1.2949,-0.193032,-0.002626,0.00188762,-0.0136719,-0.0173196,0.0115953,0.206583,0.00663622,-0.017503,2.76597,-0.145456,-0.0726588,-9.82856,0.00102404,-0.00640752,-0.00149453,-0.215624,-0.103163,0.499919,1010.12,19
495282345646,9608,119,-1.38263,1.29484,-0.192945,0.00076815,-0.00305474,0.00438262,-0.0191958,0.0120599,0.206628,0.00664003,-0.0174996,2.76598,-0.143001,-0.076579,-9.82059,0.00145758,-0.00567068,-0.000967059,-0.213377,-0.0997052,0.497711,1010.11,19
495292169723,9819,125,-1.38263,1.29484,-0.192945,0.00076815,-0.00305474,0.00438262,-0.0191958,0.0120599,0.206628,0.00664677,-0.0174955,2.766,-0.143001,-0.076579,-9.82059,0.00145758,-0.00567068,-0.000967059,-0.213377,-0.0997052,0.497711,1010.11,19
495302165954,9993,124,-1.38259,1.29479,-0.192748,0.00194122,-0.00245927,0.00981996,-0.0205899,0.0173852,0.207321,0.00664108,-0.0174931,2.76606,-0.145663,-0.0564581,-9.8189,-0.000350645,-0.00620634,-0.000913933,-0.215536,-0.0987453,0.497791,1010.11,19
495312159569,10004,119,-1.38259,1.29479,-0.192748,0.00194122,-0.00245927,0.00981996,-0.0205899,0.0173852,0.207321,0.006631,-0.0174948,2.76608,-0.166038,-0.0553701,-9.83457,0.000254843,-0.00641127,-0.00189469,-0.214283,-0.0994784,0.499344,1010.11,19
495322152646,9992,121,-1.38262,1.295,-0.192978,-0.00163157,0.0102599,-0.0114768,-0.0189115,0.0120535,0.205904,0.0066266,-0.0174973,2.76609,-0.166038,-0.0553701,-9.83457,0.000254843,-0.00641127,-0.00189469,-0.214283,-0.0994784,0.499344,1010.11,19
495332229569,10076,120,-1.38262,1.295,-0.192978,-0.00163157,0.0102599,-0.0114768,-0.0189115,0.0120535,0.205904,0.00662402,-0.0175022,2.76609,-0.171301,-0.0696193,-9.8485,0.00140719,-0.00576726,-0.00246074,-0.213637,-0.0981198,0.499494,1010.17,19
495342154261,9925,117,-1.38266,1.29502,-0.193052,-0.00182808,0.00142316,-0.00368518,-0.0175529,0.0117038,0.205608,0.0066229,-0.0175042,2.76609,-0.172057,-0.059991,-9.83777,0.0016544,-0.00598916,-0.00161897,-0.212997,-0.102741,0.497112,1010.17,19
495352182646,10016,129,-1.38266,1.29502,-0.193052,-0.00182808,0.00142316,-0.00368518,-0.0175529,0.0117038,0.205608,0.00661828,-0.0174984,2.76612,-0.159305,-0.0700859,-9.847,0.000607473,-0.00524344,-0.000937779,-0.21191,-0.0977119,0.498478,1010.12,19
495362253800,10082,124,-1.38263,1.29487,-0.192921,0.00132789,-0.00766363,0.00650545,-0.019193,0.0127464,0.206529,0.00661759,-0.0174955,2.76613,-0.111216,-0.0603239,-9.84688,0.00147525,-0.00621072,-0.00044327,-0.214549,-0.0996318,0.498551,1010.12,19
495372223492,9973,119,-1.38263,1.29487,-0.192921,0.00132789,-0.00766363,0.00650545,-0.019193,0.0127464,0.206529,0.00662319,-0.0174885,2.76616,-0.160917,-0.0576636,-9.81746,0.00155312,-0.00588431,-0.00129509,-0.214653,-0.100126,0.500232,1010.12,19
495382775415,10549,123,-1.38267,1.29499,-0.193084,-0.00179235,0.0057641,-0.00811247,-0.0171352,0.0112193,0.205555,0.00662948,-0.0174858,2.76619,-0.140039,-0.0534782,-9.83022,0.00145021,-0.00609698,-0.00118543,-0.21633,-0.0995466,0.497972,1010.12,19
495392619415,9846,122,-1.38267,1.29499,-0.193084,-0.00179235,0.0057641,-0.00811247,-0.0171352,0.0112193,0.205555,0.00663013,-0.0174856,2.76622,-0.166397,-0.0470849,-9.82939,0.00168957,-0.0054676,-0.000225406,-0.213173,-0.0974759,0.499003,1010.12,19
495402155800,9532,120,-1.38264,1.29493,-0.193008,0.00117902,-0.00267364,0.00380651,-0.0185578,0.0120125,0.205988,0.00663237,-0.0174853,2.76626,-0.166397,-0.0470849,-9.82939,0.00168957,-0.0054676,-0.000225406,-0.213173,-0.0974759,0.499003,1010.12,19
495412181107,10030,121,-1.38264,1.29493,-0.193008,0.00117902,-0.00267364,0.00380651,-0.0185578,0.0120125,0.205988,0.00663841,-0.0174852,2.76628,-0.167855,-0.0709343,-9.83157,0.00238777,-0.00620021,-0.00175007,-0.213913,-0.100111,0.498446,1010.12,19
495422535415,10363,114,-1.38264,1.29493,-0.193008,0.00117902,-0.00267364,0.00380651,-0.0185578,0.0120125,0.205988,0.00664471,-0.0174882,2.76629,-0.167855,-0.0709343,-9.83157,0.00238777,-0.00620021,-0.00175007,-0.213913,-0.100111,0.498446,1010.12,19
495432189800,9628,132,-1.38264,1.29493,-0.192952,0.000214367,-2.38186e-05,0.00275105,-0.0187046,0.0129739,0.206215,0.00664471,-0.0174882,2.76629,-0.130267,-0.0571597,-9.85051,0.00109538,-0.00619573,-0.00225007,-0.215752,-0.102351,0.498489,1010.09,19
495442166800,9981,129,-1.38269,1.29504,-0.193114,-0.00256645,0.00521627,-0.00806185,-0.016286,0.0106882,0.205062,0.00664414,-0.0174817,2.7663,-0.13603,-0.0414178,-9.83796,0.00165224,-0.0056632,-0.00150959,-0.214971,-0.100427,0.497919,1010.09,19
495452289646,10132,124,-1.38269,1.29504,-0.193114,-0.00256645,0.00521627,-0.00806185,-0.016286,0.0106882,0.205062,0.00664211,-0.0174776,2.76632,-0.164504,-0.0622241,-9.84063,0.00143954,-0.00555881,-0.00150155,-0.214498,-0.0986844,0.500078,1010.08,19
495462518261,10234,118,-1.38261,1.29497,-0.192964,0.00421753,-0.00319824,0.0076828,-0.0190004,0.0123519,0.206033,0.00664024,-0.0174761,2.76633,-0.166026,-0.0684088,-9.84981,0.00152052,-0.00492104,-0.00234861,-0.214926,-0.101798,0.499266,1010.08,19
495472427877,9906,124,-1.38261,1.29497,-0.192964,0.00421753,-0.00319824,0.0076828,-0.0190004,0.0123519,0.206033,0.00664365,-0.0174693,2.76634,-0.171202,-0.0692623,-9.83167,0.00131466,-0.00513339,-0.00202427,-0.216306,-0.101632,0.498674,1010.12,19
495482159646,9728,126,-1.38262,1.29493,-0.192954,-0.000458508,-0.00206031,0.000499446,-0.0187729,0.011914,0.206311,0.00664222,-0.0174628,2.76634,-0.171202,-0.0692623,-9.83167,0.00131466,-0.00513339,-0.00202427,-0.216306,-0.101632,0.498674,1010.12,19
495492172338,10015,121,-1.38262,1.29493,-0.192954,-0.000458508,-0.00206031,0.000499446,-0.0187729,0.011914,0.206311,0.0066377,-0.017462,2.76636,-0.154211,-0.0504215,-9.8221,0.00066965,-0.00693528,-0.0022322,-0.214381,-0.0977939,0.498801,1010.12,19
495502162723,9985,126,-1.38266,1.29504,-0.193087,-0.00242354,0.00536514,-0.00664688,-0.0174403,0.0123168,0.205255,0.00662655,-0.0174664,2.76639,-0.156654,-0.0212221,-9.84707,0.000610561,-0.00514218,-0.000933987,-0.212961,-0.0987492,0.498185,1010.12,19
495512177107,10014,127,-1.38266,1.29504,-0.193087,-0.00242354,0.00536514,-0.00664688,-0.0174403,0.0123168,0.205255,0.00661153,-0.0174689,2.76642,-0.161618,-0.039241,-9.82342,0.000452666,-0.00597931,-0.0024306,-0.215577,-0.0970746,0.498927,1010.12,19
495522156184,9984,121,-1.38263,1.29499,-0.193049,0.00182212,-0.00238781,0.00187571,-0.0177768,0.01278,0.205552,0.0066055,-0.0174641,2.76645,-0.152811,-0.0515002,-9.83949,0.000694924,-0.00588269,-0.0014791,-0.215124,-0.096748,0.498114,1010.12,19
495532174338,10017,123,-1.38263,1.29499,-0.193049,0.00182212,-0.00238781,0.00187571,-0.0177768,0.01278,0.205552,0.00660157,-0.0174562,2.76646,-0.145127,-0.0693248,-9.80411,-9.51431e-05,-0.00565544,-0.00251543,-0.214416,-0.100765,0.500138,1010.14,19
495542908800,10734,126,-1.38279,1.29512,-0.193168,-0.00785418,0.0063417,-0.00594125,-0.0172887,0.0118063,0.203804,0.00660058,-0.0174552,2.76646,-0.167373,-0.0422809,-9.82423,0.00143879,-0.00588243,-0.00150419,-0.213009,-0.100517,0.499132,1010.14,19
495552166877,9261,123,-1.38279,1.29512,-0.193168,-0.00785418,0.0063417,-0.00594125,-0.0172887,0.0118063,0.203804,0.00659856,-0.0174579,2.76647,-0.155793,-0.069432,-9.84309,0.00179436,-0.00621072,-0.000454039,-0.214267,-0.101482,0.499807,1010.11,19
495562161953,9994,124,-1.38264,1.29498,-0.193067,0.00719917,-0.00688953,0.00505326,-0.0162476,0.0104669,0.205996,0.00659972,-0.0174601,2.76648,-0.155793,-0.069432,-9.84309,0.00179436,-0.00621072,-0.000454039,-0.214267,-0.101482,0.499807,1010.11,19
495572801261,10645,120,-1.38264,1.29498,-0.193067,0.00719917,-0.00688953,0.00505326,-0.0162476,0.0104669,0.205996,0.00660431,-0.0174613,2.7665,-0.158335,-0.053646,-9.81157,0.00255881,-0.00586995,-0.00292302,-0.213009,-0.100277,0.499134,1010.11,19
495582478876,9672,124,-1.38277,1.29505,-0.193119,-0.00630002,0.00332865,-0.00261335,-0.0166483,0.0112589,0.204434,0.00660431,-0.0174613,2.7665,-0.158335,-0.053646,-9.81157,0.00255881,-0.00586995,-0.00292302,-0.213009,-0.100277,0.499134,1010.11,19
495592163415,9690,120,-1.38277,1.29505,-0.193119,-0.00630002,0.00332865,-0.00261335,-0.0166483,0.0112589,0.204434,0.0066167,-0.0174577,2.7665,-0.162469,-0.0746143,-9.82727,0.00146451,-0.00567371,-0.000761397,-0.213913,-0.103151,0.498421,1010.09,19
495602157492,9986,123,-1.38277,1.29505,-0.193119,-0.00630002,0.00332865,-0.00261335,-0.0166483,0.0112589,0.204434,0.00662244,-0.0174545,2.76651,-0.140617,-0.0800493,-9.83255,0.00166297,-0.00577891,-0.00119144,-0.215711,-0.100281,0.499706,1010.09,19
495612176646,10020,124,-1.38273,1.29495,-0.193035,0.00207817,-0.00496022,0.00420994,-0.0171273,0.00979669,0.205704,0.00663262,-0.0174501,2.76653,-0.165707,-0.0689462,-9.80292,0.00143966,-0.00513776,-0.00149808,-0.214324,-0.101468,0.498128,1010.09,19
495622184569,9988,142,-1.38271,1.29497,-0.193057,0.000643102,0.0010242,-0.0010763,-0.0170568,0.0101697,0.205484,0.00663464,-0.0174477,2.76654,-0.165707,-0.0689462,-9.80292,0.00143966,-0.00513776,-0.00149808,-0.214324,-0.101468,0.498128,1010.09,19
495632184800,10010,135,-1.38271,1.29497,-0.193057,0.000643102,0.0010242,-0.0010763,-0.0170568,0.0101697,0.205484,0.00663856,-0.0174491,2.76656,-0.145528,-0.0810937,-9.85066,0.00143217,-0.00641179,-0.00172006,-0.21343,-0.100032,0.49851,1010.06,19
495642158338,9981,123,-1.38274,1.295,-0.193056,-0.00109566,0.00160776,2.97732e-05,-0.0180349,0.0109731,0.204748,0.00663965,-0.0174467,2.76657,-0.138052,-0.0408878,-9.82023,-0.000163478,-0.00513601,-0.00165727,-0.214694,-0.101556,0.499021,1010.06,19
495652370492,10222,120,-1.38274,1.295,-0.193056,-0.00109566,0.00160776,2.97732e-05,-0.0180349,0.0109731,0.204748,0.00662956,-0.0174435,2.76657,-0.136963,-0.0209021,-9.83126,0.000584405,-0.00620195,-0.001478,-0.21411,-0.101082,0.499725,1010.06,19
495662146569,9780,114,-1.38268,1.29502,-0.193069,0.00267959,0.000684785,-0.0006565,-0.0169435,0.0121981,0.205113,0.00662498,-0.0174456,2.76658,-0.163897,-0.0614817,-9.79188,0.00142882,-0.00588419,-0.00181923,-0.215013,-0.100516,0.49904,1010.11,19
495672299800,10152,119,-1.38268,1.29502,-0.193069,0.00267959,0.000684785,-0.0006565,-0.0169435,0.0121981,0.205113,0.00662488,-0.0174463,2.76658,-0.168547,-0.0514267,-9.82477,0.000873436,-0.00512899,-0.00254377,-0.214211,-0.100676,0.499092,1010.11,19
495682217953,9917,118,-1.38266,1.29502,-0.193117,0.00105993,0.00033346,-0.00239675,-0.0171744,0.0117799,0.20537,0.00662476,-0.0174418,2.76659,-0.116486,-0.0684298,-9.79083,0.00198535,-0.00684397,-0.00110462,-0.212286,-0.0989978,0.499201,1010.1,19
495692728030,10510,117,-1.38266,1.29502,-0.193117,0.00105993,0.00033346,-0.00239675,-0.0171744,0.0117799,0.20537,0.00662513,-0.0174348,2.7666,-0.155589,-0.0550452,-9.84385,0.000943439,-0.00621072,-0.000425331,-0.213116,-0.100271,0.498338,1010.1,19
495702156184,9423,126,-1.38265,1.29497,-0.193021,0.000369188,-0.00251286,0.00482996,-0.0180647,0.0128146,0.205783,0.00662582,-0.0174344,2.76661,-0.155589,-0.0550452,-9.84385,0.000943439,-0.00621072,-0.000425331,-0.213116,-0.100271,0.498338,1010.1,19
495712340030,10189,119,-1.38265,1.29497,-0.193021,0.000369188,-0.00251286,0.00482996,-0.0180647,0.0128146,0.205783,0.00661608,-0.0174341,2.76663,-0.162055,-0.0589435,-9.83515,0.00145723,-0.00589108,-0.000977443,-0.215424,-0.101713,0.498724,1010.1,19
495722154030,9811,123,-1.38275,1.29505,-0.193105,-0.0046744,0.0040313,-0.00422334,-0.0168731,0.0114841,0.20451,0.00660817,-0.0174294,2.76664,-0.162055,-0.0589435,-9.83515,0.00145723,-0.00589108,-0.000977443,-0.215424,-0.101713,0.498724,1010.1,19
495732233953,10078,123,-1.38275,1.29505,-0.193105,-0.0046744,0.0040313,-0.00422334,-0.0168731,0.0114841,0.20451,0.00660818,-0.0174286,2.76665,-0.152495,-0.0737722,-9.80808,0.000400852,-0.00663382,-0.000726863,-0.215516,-0.10053,0.500738,1010.1,19
495742210415,9979,122,-1.38277,1.2951,-0.193154,-0.00136361,0.00244141,-0.00244141,-0.0162979,0.0112391,0.204204,0.00661998,-0.0174346,2.76669,-0.170786,-0.0698007,-9.8547,0.00198935,-0.00631225,-0.000993746,-0.212793,-0.0977113,0.498428,1010.09,19
495752174953,9958,125,-1.38277,1.2951,-0.193154,-0.00136361,0.00244141,-0.00244141,-0.0162979,0.0112391,0.204204,0.00663315,-0.0174387,2.76671,-0.149746,-0.048187,-9.77698,0.00197486,-0.00588344,-0.00141567,-0.213472,-0.0995611,0.499636,1010.09,19
495762168953,9987,126,-1.38273,1.29502,-0.193149,0.00199481,-0.00431117,0.000242652,-0.0161198,0.00823805,0.205494,0.00663392,-0.0174379,2.76671,-0.159761,-0.0488753,-9.81194,0.00112725,-0.00620453,-0.00118276,-0.21367,-0.100832,0.498512,1010.09,19
495772220030,10061,124,-1.38273,1.29502,-0.193149,0.00199481,-0.00431117,0.000242652,-0.0161198,0.00823805,0.205494,0.00663005,-0.0174392,2.76672,-0.135844,-0.0602796,-9.84725,0.00142473,-0.00694348,-0.00194068,-0.215108,-0.103712,0.498616,1010.09,19
495782302261,10081,122,-1.38267,1.29501,-0.193081,0.00306664,-0.000202458,0.00341871,-0.0169638,0.0125076,0.205774,0.0066348,-0.0174425,2.76672,-0.135844,-0.0602796,-9.84725,0.00142473,-0.00694348,-0.00194068,-0.215108,-0.103712,0.498616,1010.09,19
495792179953,9873,127,-1.38267,1.29501,-0.193081,0.00306664,-0.000202458,0.00341871,-0.0169638,0.0125076,0.205774,0.0066361,-0.0174424,2.76673,-0.160252,-0.0676482,-9.8261,0.000943587,-0.00567863,-0.000420946,-0.213566,-0.100198,0.499234,1010.1,19
495802381799,10214,119,-1.38263,1.29491,-0.192972,0.00197694,-0.00515673,0.0054299,-0.018768,0.0124863,0.206412,0.00662527,-0.0174251,2.76675,-0.156066,-0.0348644,-9.84164,0.000404964,-0.00492821,-0.000605024,-0.212479,-0.10083,0.498231,1010.1,19
495812171722,9784,123,-1.38263,1.29491,-0.192972,0.00197694,-0.00515673,0.0054299,-0.018768,0.0124863,0.206412,0.00662527,-0.0174251,2.76675,-0.161152,-0.0676619,-9.8244,0.00198208,-0.00567249,-0.00120133,-0.215521,-0.103149,0.498235,1010.1,19
495822171107,9988,130,-1.38265,1.29499,-0.193065,-0.000786014,0.00388839,-0.00465133,-0.0180671,0.0131234,0.205823,0.00662452,-0.0174177,2.76676,-0.155962,-0.0838071,-9.84131,0.000358138,-0.00502523,-0.00199309,-0.21431,-0.101232,0.49853,1010.1,19
495832269876,10108,126,-1.38265,1.29499,-0.193065,-0.000786014,0.00388839,-0.00465133,-0.0180671,0.0131234,0.205823,0.00662684,-0.0174085,2.76678,-0.156593,-0.0413743,-9.80082,0.00218748,-0.00620282,-0.00142561,-0.216327,-0.100187,0.498046,1010.14,19
495842160415,9888,125,-1.38265,1.29498,-0.193042,0.00016673,-0.000131002,0.00115148,-0.0171975,0.0116886,0.205798,0.00662684,-0.0174085,2.76678,-0.156593,-0.0413743,-9.80082,0.00218748,-0.00620282,-0.00142561,-0.216327,-0.100187,0.498046,1010.14,19
495852184261,10021,128,-1.38265,1.29498,-0.193042,0.00016673,-0.000131002,0.00115148,-0.0171975,0.0116886,0.205798,0.00663165,-0.0174163,2.7668,-0.153508,-0.0599955,-9.81053,0.000772233,-0.00630129,-0.00234384,-0.213859,-0.102604,0.500024,1010.14,19
495862318799,10146,120,-1.38264,1.29503,-0.193017,0.000309642,0.00213176,0.00124378,-0.0171386,0.0110611,0.205358,0.00663505,-0.0174239,2.7668,-0.162365,-0.0550399,-9.87452,0.0014214,-0.00630411,-0.00203951,-0.213518,-0.10083,0.498266,1010.13,19
495872170799,9845,127,-1.38264,1.29503,-0.193017,0.000309642,0.00213176,0.00124378,-0.0171386,0.0110611,0.205358,0.00664174,-0.0174323,2.76681,-0.162365,-0.0550399,-9.87452,0.0014214,-0.00630411,-0.00203951,-0.213518,-0.10083,0.498266,1010.13,19
495882159184,9992,120,-1.38269,1.29503,-0.193057,-0.002364,2.38186e-05,-0.00201044,-0.0176999,0.0119066,0.205152,0.00664471,-0.0174353,2.76681,-0.165825,-0.0384608,-9.82125,0.00121746,-0.00662342,-0.00171764,-0.215181,-0.0997138,0.498812,1010.13,19
495892529953,10372,123,-1.38269,1.29503,-0.193057,-0.002364,2.38186e-05,-0.00201044,-0.0176999,0.0119066,0.205152,0.00665276,-0.0174461,2.76682,-0.150042,-0.0799086,-9.82132,0.00112036,-0.00620009,-0.00149607,-0.212393,-0.0997112,0.498398,1010.11,19
495902157030,9620,122,-1.38274,1.29508,-0.193175,-0.00245927,0.00241163,-0.00587203,-0.0167702,0.011384,0.204569,0.00665455,-0.0174464,2.76683,-0.150042,-0.0799086,-9.82132,0.00112036,-0.00620009,-0.00149607,-0.212393,-0.0997112,0.498398,1010.11,19
495912510107,10368,117,-1.38274,1.29508,-0.193175,-0.00245927,0.00241163,-0.00587203,-0.0167702,0.011384,0.204569,0.00666397,-0.0174498,2.76686,-0.160184,-0.0554631,-9.85286,0.00131246,-0.00619757,-0.00203402,-0.215645,-0.100918,0.499298,1010.11,19
495922152415,9635,121,-1.38268,1.29502,-0.19311,0.00270341,-0.00285823,0.00324156,-0.0174574,0.0121456,0.205296,0.00666442,-0.0174516,2.76687,-0.160184,-0.0554631,-9.85286,0.00131246,-0.00619757,-0.00203402,-0.215645,-0.100918,0.499298,1010.11,19
495932171415,10014,123,-1.38268,1.29502,-0.19311,0.00270341,-0.00285823,0.00324156,-0.0174574,0.0121456,0.205296,0.00666476,-0.0174611,2.76687,-0.163258,-0.0699741,-9.85162,-5.28798e-05,-0.00545441,-0.00134501,-0.212772,-0.102916,0.499025,1010.11,19
495942156107,9990,117,-1.38264,1.29495,-0.19301,0.00189358,-0.00351324,0.0050086,-0.0184398,0.0119113,0.206022,0.00666137,-0.0174627,2.76689,-0.158507,-0.0576207,-9.82394,0.000486596,-0.0054579,-0.00136142,-0.213619,-0.0978647,0.497654,1010.13,19
495952179107,10011,129,-1.38264,1.29495,-0.19301,0.00189358,-0.00351324,0.0050086,-0.0184398,0.0119113,0.206022,0.00665911,-0.0174625,2.76689,-0.158507,-0.0576207,-9.82394,0.000486596,-0.0054579,-0.00136142,-0.213619,-0.0978647,0.497654,1010.13,19
495962539415,10377,118,-1.3827,1.29503,-0.193122,-0.00299072,0.00423584,-0.00576172,-0.0170446,0.0113417,0.20498,0.00665576,-0.0174524,2.7669,-0.141391,-0.0748991,-9.84812,0.000943336,-0.00514694,-0.000416547,-0.214214,-0.101556,0.499004,1010.13,19
495972176184,9625,125,-1.3827,1.29503,-0.193122,-0.00299072,0.00423584,-0.00576172,-0.0170446,0.0113417,0.20498,0.00665331,-0.0174415,2.76693,-0.161477,-0.0724991,-9.81969,0.000376254,-0.00439377,-0.00145607,-0.212901,-0.0985238,0.499946,1010.08,19
495982267107,10101,116,-1.38265,1.295,-0.193045,0.00273318,-0.0014708,0.00387871,-0.0175696,0.0122204,0.205743,0.00665251,-0.0174404,2.76693,-0.171317,-0.0599213,-9.79912,0.00154481,-0.00535407,-0.00150341,-0.214611,-0.100116,0.49911,1010.08,19
495992174492,9903,123,-1.38265,1.295,-0.193045,0.00273318,-0.0014708,0.00387871,-0.0175696,0.0122204,0.205743,0.00665043,-0.0174436,2.76695,-0.160757,-0.0484286,-9.84401,0.000393496,-0.00620629,-0.000945052,-0.215642,-0.101318,0.499375,1010.17,19
496002333030,10158,123,-1.38267,1.295,-0.193091,-0.00101825,-0.000202458,-0.00232827,-0.0172406,0.0112657,0.205543,0.00664839,-0.0174451,2.76696,-0.14787,-0.0771869,-9.82873,0.00144653,-0.00630898,-0.00129436,-0.215596,-0.09707,0.498368,1010.17,19
496012178492,9837,126,-1.38267,1.295,-0.193091,-0.00101825,-0.000202458,-0.00232827,-0.0172406,0.0112657,0.205543,0.00664815,-0.0174494,2.76698,-0.14787,-0.0771869,-9.82873,0.00144653,-0.00630898,-0.00129436,-0.215596,-0.09707,0.498368,1010.17,19
496022169953,9988,129,-1.38266,1.29502,-0.193103,0.000577601,0.00107184,-0.000610352,-0.0178535,0.0132021,0.205725,0.0066503,-0.0174506,2.76699,-0.149888,-0.0640121,-9.80207,0.000393625,-0.00577289,-0.000941085,-0.213856,-0.0975453,0.497745,1010.17,19
496032216030,10057,125,-1.38266,1.29502,-0.193103,0.000577601,0.00107184,-0.000610352,-0.0178535,0.0132021,0.205725,0.00665244,-0.0174517,2.76702,-0.153401,-0.0632137,-9.81444,0.00145374,-0.00567693,-0.00108065,-0.214616,-0.100435,0.498947,1010.17,19
496042479415,10262,122,-1.3827,1.29493,-0.193164,-0.00202458,-0.00439453,-0.00303389,-0.0174341,0.00936767,0.205933,0.00665922,-0.0174543,2.76702,-0.153401,-0.0632137,-9.81444,0.00145374,-0.00567693,-0.00108065,-0.214616,-0.100435,0.498947,1010.17,19
496052184261,9695,130,-1.3827,1.29493,-0.193164,-0.00202458,-0.00439453,-0.00303389,-0.0174341,0.00936767,0.205933,0.00666141,-0.0174495,2.76703,-0.153401,-0.0632137,-9.81444,0.00145374,-0.00567693,-0.00108065,-0.214616,-0.100435,0.498947,1010.17,19
496062570415,10405,117,-1.38266,1.29492,-0.193044,0.00161371,-0.000273914,0.00602089,-0.0175836,0.0123848,0.2063,0.0066589,-0.0174401,2.76703,-0.170551,-0.070217,-9.83359,0.000358104,-0.00513338,-0.00199399,-0.213113,-0.100351,0.498417,1010.11,19
496072810953,10238,121,-1.38266,1.29492,-0.193044,0.00161371,-0.000273914,0.00602089,-0.0175836,0.0123848,0.2063,0.00665348,-0.0174325,2.76703,-0.143078,-0.0628295,-9.79697,0.00133183,-0.00567157,-0.00149884,-0.215861,-0.103484,0.500005,1010.07,19
496082429030,9620,117,-1.38267,1.29502,-0.193087,-0.000440644,0.00451362,-0.00218387,-0.0172699,0.0110707,0.205365,0.0066548,-0.0174288,2.76704,-0.141668,-0.0659605,-9.82837,0.000925729,-0.00439685,-0.000942466,-0.215202,-0.0994083,0.500576,1010.07,19
496092371876,9942,118,-1.38267,1.29502,-0.193087,-0.000440644,0.00451362,-0.00218387,-0.0172699,0.0110707,0.205365,0.00665572,-0.0174215,2.76705,-0.165813,-0.0561981,-9.84906,0.00164199,-0.00566709,-0.00182849,-0.214307,-0.0999525,0.49862,1010.08,19
496102395645,10030,111,-1.38267,1.29502,-0.193087,-0.000440644,0.00451362,-0.00218387,-0.0172699,0.0110707,0.205365,0.0066539,-0.0174202,2.76705,-0.165813,-0.0561981,-9.84906,0.00164199,-0.00566709,-0.00182849,-0.214307,-0.0999525,0.49862,1010.08,19
496112301568,9894,124,-1.38271,1.29505,-0.193118,-0.00171494,0.00161966,-0.00151397,-0.0172879,0.0119839,0.204953,0.00665495,-0.0174182,2.76706,-0.157561,-0.0637265,-9.83872,0.000340166,-0.00512899,-0.00252577,-0.215513,-0.103231,0.498474,1010.08,19
496122177568,9858,140,-1.38272,1.29503,-0.193103,-0.000666921,-0.000786014,0.000722001,-0.0172106,0.0108221,0.204869,0.00665659,-0.0174129,2.76705,-0.157561,-0.0637265,-9.83872,0.000340166,-0.00512899,-0.00252577,-0.215513,-0.103231,0.498474,1010.08,19
496132186722,10015,133,-1.38272,1.29503,-0.193103,-0.000666921,-0.000786014,0.000722001,-0.0172106,0.0108221,0.204869,0.00664753,-0.0174137,2.76706,-0.145138,-0.0525927,-9.88148,0.000684069,-0.00619931,-0.00180081,-0.215239,-0.0990791,0.49946,1010.08,19
496142492491,10314,126,-1.38278,1.29509,-0.193178,-0.00301305,0.00267959,-0.00371496,-0.0168774,0.0118871,0.204201,0.00664273,-0.0174141,2.76706,-0.154093,-0.0399365,-9.82087,-0.000296452,-0.00576577,-0.00250955,-0.214096,-0.100445,0.50013,1010.08,19
496152164799,9679,119,-1.38278,1.29509,-0.193178,-0.00301305,0.00267959,-0.00371496,-0.0168774,0.0118871,0.204201,0.00664273,-0.0174141,2.76706,-0.154093,-0.0399365,-9.82087,-0.000296452,-0.00576577,-0.00250955,-0.214096,-0.100445,0.50013,1010.08,19
496162388261,10225,120,-1.38268,1.29501,-0.193066,0.00494236,-0.00369188,0.00559067,-0.0172849,0.0120094,0.205479,0.00664273,-0.0174141,2.76706,-0.161737,-0.0664595,-9.82188,-0.00049022,-0.00619751,-0.0019798,-0.211263,-0.0982739,0.498692,1010.08,19
496172260722,9874,118,-1.38268,1.29501,-0.193066,0.00494236,-0.00369188,0.00559067,-0.0172849,0.0120094,0.205479,0.00661893,-0.0174143,2.76708,-0.154899,-0.0747058,-9.81054,0.00037188,-0.00641385,-0.00158559,-0.211263,-0.0982739,0.498692,1010.04,19
496182168799,9891,132,-1.38265,1.295,-0.192956,0.00151248,-0.000762195,0.00548572,-0.0181552,0.0134548,0.206059,0.00661565,-0.0174156,2.76709,-0.154899,-0.0747058,-9.81054,0.00037188,-0.00641385,-0.00158559,-0.211263,-0.0982739,0.498692,1010.04,19
496192178799,10011,129,-1.38265,1.295,-0.192956,0.00151248,-0.000762195,0.00548572,-0.0181552,0.0134548,0.206059,0.00660565,-0.0174206,2.76712,-0.167014,-0.0658657,-9.81863,0.000910512,-0.00608763,-0.00148807,-0.215929,-0.0999663,0.500356,1010.04,19
496202410107,10245,120,-1.38276,1.29506,-0.193142,-0.00526986,0.00315596,-0.00927437,-0.0172285,0.0119157,0.20462,0.00660509,-0.0174233,2.76712,-0.162179,-0.0662556,-9.81938,0.00100608,-0.00705074,-0.001713,-0.2131,-0.100114,0.498819,1010.1,19
496212178799,9762,122,-1.38276,1.29506,-0.193142,-0.00526986,0.00315596,-0.00927437,-0.0172285,0.0119157,0.20462,0.00660479,-0.017434,2.76713,-0.162179,-0.0662556,-9.81938,0.00100608,-0.00705074,-0.001713,-0.2131,-0.100114,0.498819,1010.1,19
496222601030,10428,119,-1.38263,1.29493,-0.192955,0.00613329,-0.00662752,0.00931382,-0.0193505,0.0122117,0.20623,0.00660209,-0.0174369,2.76713,-0.162179,-0.0662556,-9.81938,0.00100608,-0.00705074,-0.001713,-0.2131,-0.100114,0.498819,1010.1,19
496232431722,9829,123,-1.38263,1.29493,-0.192955,0.00613329,-0.00662752,0.00931382,-0.0193505,0.0122117,0.20623,0.0066002,-0.0174378,2.76714,-0.162179,-0.0662556,-9.81938,0.00100608,-0.00705074,-0.001713,-0.2131,-0.100114,0.498819,1010.1,19
496242444722,10026,112,-1.38263,1.29493,-0.192955,0.00613329,-0.00662752,0.00931382,-0.0193505,0.0122117,0.20623,0.00659928,-0.0174413,2.76715,-0.154453,-0.0854437,-9.84564,0.00146424,-0.00705944,-0.000769358,-0.213103,-0.101314,0.498729,1010.1,19
496252177261,9711,130,-1.38263,1.29487,-0.192961,0.000434689,-0.00282846,-0.00030592,-0.0194497,0.0135814,0.206392,0.00661215,-0.0174485,2.76715,-0.154067,-0.0619847,-9.84548,0.00192308,-0.0066127,-0.00280439,-0.215464,-0.103483,0.499911,1010.08,19
496262156953,9985,123,-1.38263,1.29487,-0.192961,0.000434689,-0.00282846,-0.00030592,-0.0194497,0.0135814,0.206392,0.00661567,-0.0174482,2.76715,-0.154067,-0.0619847,-9.84548,0.00192308,-0.0066127,-0.00280439,-0.215464,-0.103483,0.499911,1010.08,19
496272462953,10317,117,-1.38269,1.29502,-0.193121,-0.0030726,0.00731231,-0.00797923,-0.0168384,0.01041,0.205588,0.00661166,-0.0174407,2.76715,-0.161019,-0.0359171,-9.81223,0.000357981,-0.00523884,-0.00199777,-0.215312,-0.103481,0.499666,1010.12,19
496282158184,9685,122,-1.38268,1.29502,-0.193015,0.000500191,0.000131002,0.0053108,-0.0168557,0.0107596,0.205339,0.00660085,-0.0174379,2.76716,-0.161019,-0.0359171,-9.81223,0.000357981,-0.00523884,-0.00199777,-0.215312,-0.103481,0.499666,1010.12,19
496292177414,10015,124,-1.38268,1.29502,-0.193015,0.000500191,0.000131002,0.0053108,-0.0168557,0.0107596,0.205339,0.00658938,-0.0174356,2.76717,-0.162321,-0.0822158,-9.83066,0.00108809,-0.00491584,-0.00244249,-0.215036,-0.0993297,0.500731,1010.12,19
496302846491,10678,122,-1.38264,1.29487,-0.192933,0.00191144,-0.00722894,0.00409829,-0.0190559,0.0125438,0.206583,0.00658927,-0.0174335,2.76718,-0.144452,-0.0407682,-9.83163,0.00145034,-0.0056758,-0.00118157,-0.214855,-0.0967552,0.498986,1010.09,19
496312176722,9321,127,-1.38264,1.29487,-0.192933,0.00191144,-0.00722894,0.00409829,-0.0190559,0.0125438,0.206583,0.00659361,-0.0174315,2.76719,-0.144452,-0.0407682,-9.83163,0.00145034,-0.0056758,-0.00118157,-0.214855,-0.0967552,0.498986,1010.09,19
496322336799,10166,125,-1.38267,1.29498,-0.193028,-0.00168517,0.00539491,-0.00477786,-0.0179682,0.0121313,0.205826,0.00659756,-0.0174313,2.76719,-0.153217,-0.0817431,-9.80181,0.00122337,-0.00566792,-0.00160143,-0.214876,-0.10363,0.498369,1010.09,19
496332169568,9831,123,-1.38267,1.29498,-0.193028,-0.00168517,0.00539491,-0.00477786,-0.0179682,0.0121313,0.205826,0.00661025,-0.0174295,2.76719,-0.153217,-0.0817431,-9.80181,0.00122337,-0.00566792,-0.00160143,-0.214876,-0.10363,0.498369,1010.09,19
496342145876,9985,115,-1.38267,1.29498,-0.193028,-0.00168517,0.00539491,-0.00477786,-0.0179682,0.0121313,0.205826,0.00662076,-0.0174248,2.76719,-0.155646,-0.0571489,-9.81665,0.00196748,-0.00513776,-0.00151588,-0.213185,-0.0999532,0.498663,1010.09,19
496352535107,10380,127,-1.38266,1.29508,-0.19312,0.000643102,0.00489472,-0.00456201,-0.0176965,0.0104745,0.205641,0.00662979,-0.0174184,2.7672,-0.15327,-0.0713622,-9.78203,0.00142168,-0.00534582,-0.00203122,-0.214845,-0.0993178,0.499284,1010.09,19
496362159645,9621,121,-1.38262,1.29487,-0.192943,0.00217345,-0.0106529,0.00884563,-0.0196888,0.0126642,0.206503,0.00663235,-0.0174219,2.76721,-0.15327,-0.0713622,-9.78203,0.00142168,-0.00534582,-0.00203122,-0.214845,-0.0993178,0.499284,1010.09,19
496372167414,10015,122,-1.38262,1.29487,-0.192943,0.00217345,-0.0106529,0.00884563,-0.0196888,0.0126642,0.206503,0.00663365,-0.0174301,2.76723,-0.154969,-0.0639385,-9.81187,0.00143937,-0.00620195,-0.00150685,-0.215871,-0.0989211,0.499722,1010.17,19
496382153799,9985,122,-1.38262,1.29487,-0.192943,0.00217345,-0.0106529,0.00884563,-0.0196888,0.0126642,0.206503,0.00663176,-0.0174327,2.76723,-0.154352,-0.0606088,-9.82819,0.000383036,-0.00652169,-0.00125494,-0.212998,-0.10124,0.499446,1010.14,19
496392399876,10251,120,-1.3827,1.29499,-0.193038,-0.00408489,0.00613924,-0.00478903,-0.0181965,0.0122588,0.205252,0.00662425,-0.0174346,2.76723,-0.156592,-0.0718465,-9.8099,0.000408044,-0.00620984,-0.000513746,-0.213371,-0.101406,0.500258,1010.14,19
496402380030,9982,116,-1.38263,1.29484,-0.192925,0.00365615,-0.00770532,0.00565245,-0.0195082,0.0133799,0.206669,0.00661873,-0.0174365,2.76724,-0.156592,-0.0718465,-9.8099,0.000408044,-0.00620984,-0.000513746,-0.213371,-0.101406,0.500258,1010.14,19
496412795799,10408,126,-1.38263,1.29484,-0.192925,0.00365615,-0.00770532,0.00565245,-0.0195082,0.0133799,0.206669,0.00661813,-0.0174368,2.76724,-0.138002,-0.0774726,-9.82386,0.000791474,-0.00502708,-0.00190584,-0.215088,-0.100837,0.4992,1010.15,19
496422164491,9362,125,-1.38271,1.29499,-0.193051,-0.00412062,0.00763386,-0.00628067,-0.0178081,0.0121656,0.205235,0.00662985,-0.0174242,2.76725,-0.138002,-0.0774726,-9.82386,0.000791474,-0.00502708,-0.00190584,-0.215088,-0.100837,0.4992,1010.15,19
496432173260,10014,122,-1.38271,1.29499,-0.193051,-0.00412062,0.00763386,-0.00628067,-0.0178081,0.0121656,0.205235,0.00663445,-0.0174196,2.76726,-0.143268,-0.0636387,-9.81903,0.000696239,-0.00545822,-0.00147564,-0.216122,-0.101318,0.499391,1010.15,19
496442215953,10049,119,-1.3827,1.29504,-0.19309,0.000220322,0.00273318,-0.00193526,-0.0170563,0.0114961,0.205016,0.00662988,-0.0174187,2.76725,-0.141255,-0.0538815,-9.84556,0.00131054,-0.00608876,-0.00224518,-0.21516,-0.102999,0.499425,1010.15,19
496452210030,9997,118,-1.3827,1.29504,-0.19309,0.000220322,0.00273318,-0.00193526,-0.0170563,0.0114961,0.205016,0.00663101,-0.0174166,2.76726,-0.133845,-0.0720181,-9.80038,0.00117433,-0.00610874,0.000106145,-0.215482,-0.0989185,0.499389,1010.16,19
496462154491,9936,119,-1.38266,1.29507,-0.193006,0.00231323,0.00117187,0.00429306,-0.0175801,0.0105759,0.205593,0.00663465,-0.0174151,2.76727,-0.133845,-0.0720181,-9.80038,0.00117433,-0.00610874,0.000106145,-0.215482,-0.0989185,0.499389,1010.16,19
496472249107,10105,115,-1.38266,1.29507,-0.193006,0.00231323,0.00117187,0.00429306,-0.0175801,0.0105759,0.205593,0.00663758,-0.0174187,2.76728,-0.149437,-0.061981,-9.81795,0.000654641,-0.0071522,-0.00255307,-0.212987,-0.0991624,0.499783,1010.16,19
496482368722,10115,119,-1.3827,1.29499,-0.193042,-0.00223299,-0.00360256,-0.00182436,-0.0175139,0.011685,0.205504,0.00663407,-0.0174302,2.76728,-0.149437,-0.061981,-9.81795,0.000654641,-0.0071522,-0.00255307,-0.212987,-0.0991624,0.499783,1010.16,19
496492171337,9797,122,-1.3827,1.29499,-0.193042,-0.00223299,-0.00360256,-0.00182436,-0.0175139,0.011685,0.205504,0.00663348,-0.0174328,2.76728,-0.17058,-0.0521998,-9.79227,0.000376016,-0.00524897,-0.00146311,-0.213727,-0.102918,0.499217,1010.12,19
496502153414,9986,121,-1.38266,1.29485,-0.192935,0.00192931,-0.00734208,0.0053577,-0.0195732,0.0131176,0.206667,0.00663644,-0.0174311,2.7673,-0.166518,-0.0794003,-9.82002,0.00207239,-0.00609366,-0.00163215,-0.21319,-0.0983519,0.498516,1010.12,19
496512168876,10014,122,-1.38266,1.29485,-0.192935,0.00192931,-0.00734208,0.0053577,-0.0195732,0.0131176,0.206667,0.00663892,-0.0174307,2.76731,-0.160858,-0.042579,-9.78118,0.00098995,-0.00533889,-0.00234112,-0.214913,-0.0966805,0.499628,1010.15,19
496522165414,9986,132,-1.38263,1.29489,-0.192939,0.00154225,0.002364,-0.000169708,-0.0190499,0.0121859,0.206301,0.00664047,-0.0174286,2.76732,-0.160858,-0.042579,-9.78118,0.00098995,-0.00533889,-0.00234112,-0.214913,-0.0966805,0.499628,1010.15,19
496532253337,10093,129,-1.38263,1.29489,-0.192939,0.00154225,0.002364,-0.000169708,-0.0190499,0.0121859,0.206301,0.00663571,-0.017433,2.76734,-0.174456,-0.0564673,-9.83997,0.00145337,-0.00674335,-0.0010917,-0.216862,-0.0985932,0.498798,1010.15,19
496542166953,9913,123,-1.38277,1.295,-0.193094,-0.00700862,0.00535323,-0.00775891,-0.0170326,0.00934705,0.204955,0.00663437,-0.017435,2.76734,-0.174456,-0.0564673,-9.83997,0.00145337,-0.00674335,-0.0010917,-0.216862,-0.0985932,0.498798,1010.15,19
496552173568,10008,126,-1.38277,1.295,-0.193094,-0.00700862,0.00535323,-0.00775891,-0.0170326,0.00934705,0.204955,0.00663543,-0.0174433,2.76737,-0.156593,-0.0528042,-9.84725,0.00143937,-0.00620195,-0.00150685,-0.213243,-0.0980385,0.499321,1010.15,19
496562519491,10360,112,-1.38267,1.29509,-0.193056,0.00513291,0.00451958,0.00190028,-0.0163477,0.0112649,0.205381,0.00663808,-0.0174476,2.76738,-0.167031,-0.0566668,-9.79306,0.0014286,-0.00619931,-0.00182592,-0.214969,-0.0981264,0.500339,1010.15,19
496572172491,9641,121,-1.38267,1.29509,-0.193056,0.00513291,0.00451958,0.00190028,-0.0163477,0.0112649,0.205381,0.00663983,-0.0174577,2.76739,-0.167031,-0.0566668,-9.79306,0.0014286,-0.00619931,-0.00182592,-0.214969,-0.0981264,0.500339,1010.15,19
496582156414,9986,120,-1.38269,1.29503,-0.193062,-0.000958699,-0.00287014,-0.000326761,-0.0173623,0.0121108,0.20541,0.00663974,-0.0174638,2.7674,-0.15881,-0.0836296,-9.82767,0.00164956,-0.00620195,-0.00151394,-0.213667,-0.0995525,0.498602,1010.17,19
496592171337,10012,126,-1.38269,1.29503,-0.193062,-0.000958699,-0.00287014,-0.000326761,-0.0173623,0.0121108,0.20541,0.00664028,-0.0174656,2.7674,-0.15881,-0.0836296,-9.82767,0.00164956,-0.00620195,-0.00151394,-0.213667,-0.0995525,0.498602,1010.17,19
496602153799,9982,123,-1.38265,1.29495,-0.192985,0.00192335,-0.00415635,0.00388318,-0.0185141,0.0130084,0.206183,0.00665327,-0.0174663,2.7674,-0.134281,-0.0653815,-9.83477,0.00250325,-0.00524418,-0.00153484,-0.214408,-0.0997872,0.497985,1010.17,19
496612429645,10278,126,-1.38265,1.29495,-0.192985,0.00192335,-0.00415635,0.00388318,-0.0185141,0.0130084,0.206183,0.00665794,-0.0174637,2.7674,-0.150533,-0.066719,-9.8487,0.00194671,-0.00566414,-0.00226171,-0.214408,-0.0997872,0.497985,1010.17,19
496622176568,9730,141,-1.38265,1.29495,-0.192985,0.00192335,-0.00415635,0.00388318,-0.0185141,0.0130084,0.206183,0.0066721,-0.0174651,2.76742,-0.174176,-0.051484,-9.87005,0.00141427,-0.00630356,-0.00225091,-0.217017,-0.0986745,0.498963,1010.12,19
496632209260,10023,145,-1.38268,1.29505,-0.193125,-0.0014053,0.00499595,-0.00702649,-0.0170308,0.0115511,0.205337,0.00667211,-0.0174678,2.76744,-0.174176,-0.051484,-9.87005,0.00141427,-0.00630356,-0.00225091,-0.217017,-0.0986745,0.498963,1010.12,19
496642191799,9975,153,-1.38268,1.29497,-0.193058,-0.00025605,-0.00407893,0.00334949,-0.0178503,0.0117372,0.205797,0.0066705,-0.0174664,2.76744,-0.147644,-0.074034,-9.82778,0.00100753,-0.00651286,-0.00170969,-0.215724,-0.0993178,0.499314,1010.12,19
496652192645,10016,142,-1.38268,1.29497,-0.193058,-0.00025605,-0.00407893,0.00334949,-0.0178503,0.0117372,0.205797,0.00667523,-0.0174721,2.76746,-0.169991,-0.0740222,-9.80306,0.00143937,-0.00620195,-0.00150685,-0.217462,-0.0982831,0.500021,1010.12,19
496662562953,10388,125,-1.38261,1.29482,-0.192852,0.00379907,-0.00733017,0.0102978,-0.0204332,0.0156023,0.20678,0.0066777,-0.0174746,2.76746,-0.154684,-0.0731707,-9.79574,0.000932705,-0.00567587,-0.000739508,-0.215957,-0.10212,0.499539,1010.08,19
496672223106,9664,122,-1.38261,1.29482,-0.192852,0.00379907,-0.00733017,0.0102978,-0.0204332,0.0156023,0.20678,0.00667765,-0.0174739,2.76746,-0.141933,-0.0537448,-9.82897,-0.000185058,-0.00725911,-0.00231265,-0.215788,-0.100122,0.49979,1010.08,19
496682158106,9931,126,-1.38264,1.29508,-0.193081,-0.00173876,0.0126239,-0.0114233,-0.0184976,0.0114348,0.205076,0.00667051,-0.0174774,2.76747,-0.141933,-0.0537448,-9.82897,-0.000185058,-0.00725911,-0.00231265,-0.215788,-0.100122,0.49979,1010.08,19
496692182260,10016,130,-1.38264,1.29508,-0.193081,-0.00173876,0.0126239,-0.0114233,-0.0184976,0.0114348,0.205076,0.0066638,-0.0174867,2.76748,-0.151498,-0.0672401,-9.78644,0.000896685,-0.00620023,-0.00169684,-0.214696,-0.0987552,0.498964,1010.13,19
