# Time(ns),period(us),execution,x,y,z,Vx,Vy,Vz,roll_OT,pitch_OT,yaw_OT,roll_PX4,pitch_PX4,yaw_PX4,imu_acc_x,imu_acc_y,imu_acc_z,imu_gyr_x,imu_gyr_y,imu_gyr_z,imu_mag_x,imu_mag_y,imu_mag_z,imu_absolute_pressure,ultrasonic_distance
147877593356,9995,142,0.0038539,-0.0202731,-0.199307,0,0,0,-0.00260177,0.00277294,-0.0220497,-0.0211317,-0.0301855,2.87482,-0.307874,0.212191,-9.68076,0.00247675,-0.00960469,-0.0023202,-0.180152,-0.0620029,0.455196,1005.54,32
147887852433,10275,128,0.00375171,-0.0201918,-0.199122,-0.00523224,0.00416336,0.00948334,-0.00435898,0.00375563,-0.0239162,-0.0211351,-0.0301883,2.87482,-0.322112,0.218319,-9.66138,0.00140266,-0.0091718,-0.00259497,-0.179177,-0.0612671,0.453248,1005.54,32
147897895817,10034,138,0.00375171,-0.0201918,-0.199122,-0.00523224,0.00416336,0.00948334,-0.00435898,0.00375563,-0.0239162,-0.0211439,-0.0301845,2.87483,-0.290488,0.217718,-9.67864,0.00239892,-0.00956784,-0.0020107,-0.180365,-0.0624895,0.455999,1005.46,32
147907614279,9697,145,0.00368038,-0.0201492,-0.199008,-0.00347805,0.00207883,0.00558835,-0.00392714,0.00488559,-0.0232786,-0.0211522,-0.0301776,2.87482,-0.290488,0.217718,-9.67864,0.00239892,-0.00956784,-0.0020107,-0.180365,-0.0624895,0.455999,1005.46,32
147917665664,10083,128,0.00368038,-0.0201492,-0.199008,-0.00347805,0.00207883,0.00558835,-0.00392714,0.00488559,-0.0232786,-0.0211549,-0.0301752,2.87482,-0.304407,0.210753,-9.66608,0.00153991,-0.00885565,-0.00173818,-0.178438,-0.0647314,0.456156,1005.46,32
147927852433,10192,124,0.00360798,-0.0200723,-0.19906,-0.00370688,0.00393848,-0.00270233,-0.00385504,0.00390533,-0.0235541,-0.0211642,-0.030167,2.87483,-0.300297,0.230254,-9.68964,0.00149914,-0.00927992,-0.00281927,-0.180295,-0.0617668,0.455683,1005.49,32
147938052279,10187,136,0.00360798,-0.0200723,-0.19906,-0.00370688,0.00393848,-0.00270233,-0.00385504,0.00390533,-0.0235541,-0.0211659,-0.0301659,2.87483,-0.302637,0.192734,-9.66453,0.00218175,-0.00939541,-0.00144788,-0.18024,-0.0629609,0.454951,1005.49,32
147947628817,9548,148,0.00362655,-0.0202793,-0.198758,0.000905446,-0.0100949,0.0147284,-0.00751873,0.00355705,-0.0245817,-0.0211664,-0.030164,2.87483,-0.302637,0.192734,-9.66453,0.00218175,-0.00939541,-0.00144788,-0.18024,-0.0629609,0.454951,1005.49,32
147957779587,10180,135,0.00362655,-0.0202793,-0.198758,0.000905446,-0.0100949,0.0147284,-0.00751873,0.00355705,-0.0245817,-0.0211646,-0.0301631,2.87484,-0.312826,0.217765,-9.67517,0.00250209,-0.0093945,-0.00156904,-0.182732,-0.0625576,0.454638,1005.49,32
147967761741,9989,128,0.00361333,-0.0200144,-0.198887,-0.000676751,0.0135611,-0.00659866,-0.00471405,0.00459599,-0.0228065,-0.021163,-0.0301587,2.87484,-0.302012,0.19538,-9.72456,0.00172092,-0.0101303,-0.00261362,-0.179699,-0.0638362,0.454365,1005.49,32
147977619510,9827,142,0.00361333,-0.0200144,-0.198887,-0.000676751,0.0135611,-0.00659866,-0.00471405,0.00459599,-0.0228065,-0.0211666,-0.0301515,2.87483,-0.284772,0.188446,-9.66661,0.00196813,-0.00854049,-0.00154398,-0.17944,-0.0622409,0.45493,1005.51,32
147987588817,9993,134,0.00368946,-0.0201104,-0.198965,0.00389805,-0.00491333,-0.0039566,-0.00645601,0.00317667,-0.0241177,-0.0211679,-0.030147,2.87483,-0.28958,0.18618,-9.66048,0.00108656,-0.0104508,-0.00248798,-0.180571,-0.0630382,0.454641,1005.51,32
147998227817,10646,129,0.00368946,-0.0201104,-0.198965,0.00389805,-0.00491333,-0.0039566,-0.00645601,0.00317667,-0.0241177,-0.0211681,-0.0301479,2.87483,-0.326435,0.205087,-9.6623,0.00214716,-0.00928396,-0.00262101,-0.178827,-0.0623341,0.456509,1005.54,32
148007758356,9529,130,0.0036429,-0.0201776,-0.198948,-0.00227054,-0.00327755,0.000807263,-0.00528428,0.00280327,-0.0240626,-0.0211701,-0.0301486,2.87483,-0.305161,0.204139,-9.65468,0.00172406,-0.00842843,-0.00249359,-0.178197,-0.0593715,0.456192,1005.54,32
148017669740,9932,110,0.0036429,-0.0201776,-0.198948,-0.00227054,-0.00327755,0.000807263,-0.00528428,0.00280327,-0.0240626,-0.021174,-0.0301393,2.87485,-0.282819,0.194229,-9.69722,0.00282109,-0.00885709,-0.00157537,-0.178197,-0.0593715,0.456192,1005.54,32
148027571510,9886,125,0.0035619,-0.020477,-0.199367,-0.00414691,-0.0153286,-0.0214783,-0.00260964,0.000466357,-0.021941,-0.0211678,-0.0301334,2.87486,-0.312426,0.194391,-9.66199,0.00230367,-0.0107783,-0.0011468,-0.181342,-0.0597649,0.455494,1005.53,32
148037764125,10180,137,0.0035619,-0.020477,-0.199367,-0.00414691,-0.0153286,-0.0214783,-0.00260964,0.000466357,-0.021941,-0.0211678,-0.0301384,2.87487,-0.294689,0.207684,-9.67728,0.00186352,-0.0105621,-0.00155713,-0.181342,-0.0597649,0.455494,1005.53,32
148047633510,9838,151,0.0034596,-0.0206958,-0.19913,-0.00498838,-0.0106705,0.0115683,-0.00368096,0.00106801,-0.0217286,-0.0211709,-0.0301486,2.87488,-0.294689,0.207684,-9.67728,0.00186352,-0.0105621,-0.00155713,-0.181342,-0.0597649,0.455494,1005.53,32
148057576048,9978,129,0.0034596,-0.0206958,-0.19913,-0.00498838,-0.0106705,0.0115683,-0.00368096,0.00106801,-0.0217286,-0.0211728,-0.0301515,2.87486,-0.304183,0.196044,-9.68722,0.00244824,-0.00917114,-0.00316533,-0.178649,-0.0636789,0.454651,1005.53,32
148067575125,10005,127,0.00349666,-0.0203342,-0.19924,0.0018975,0.0185135,-0.00559921,-0.00177013,0.00133318,-0.0216592,-0.021174,-0.0301472,2.87487,-0.30548,0.199758,-9.67205,0.00215456,-0.00938658,-0.00251841,-0.177697,-0.0624769,0.454388,1005.56,32
148077619433,10008,152,0.00349666,-0.0203342,-0.19924,0.0018975,0.0185135,-0.00559921,-0.00177013,0.00133318,-0.0216592,-0.0211775,-0.0301405,2.87487,-0.30548,0.199758,-9.67205,0.00215456,-0.00938658,-0.00251841,-0.177697,-0.0624769,0.454388,1005.56,32
148087586817,9995,132,0.00360512,-0.0200066,-0.198966,0.00528871,0.0159778,0.0133173,-0.00464463,0.00425505,-0.0238012,-0.0211808,-0.0301362,2.87488,-0.311668,0.210273,-9.69973,0.00239573,-0.0093945,-0.00156545,-0.179594,-0.0611222,0.455104,1005.56,32
148097621433,10006,148,0.00360512,-0.0200066,-0.198966,0.00528871,0.0159778,0.0133173,-0.00464463,0.00425505,-0.0238012,-0.0211829,-0.0301354,2.87489,-0.313083,0.186937,-9.68244,0.00088968,-0.00938927,-0.0021491,-0.181166,-0.0605689,0.455962,1005.56,32
148107642971,10012,158,0.00374734,-0.0205156,-0.199036,0.00728149,-0.0260628,-0.00356522,-0.00497795,0.00415066,-0.0226532,-0.0211829,-0.0301354,2.87489,-0.313083,0.186937,-9.68244,0.00088968,-0.00938927,-0.0021491,-0.181166,-0.0605689,0.455962,1005.56,32
148118027817,10436,123,0.00374734,-0.0205156,-0.199036,0.00728149,-0.0260628,-0.00356522,-0.00497795,0.00415066,-0.0226532,-0.0211836,-0.0301336,2.87489,-0.304344,0.190351,-9.69466,0.00251609,-0.010353,-0.00115427,-0.180293,-0.0631275,0.455751,1005.52,32
148127576740,9543,127,0.00363842,-0.020111,-0.19906,-0.00531122,0.0197301,-0.00117129,-0.00317971,0.0046632,-0.023171,-0.0211784,-0.0301394,2.8749,-0.311067,0.197149,-9.68133,0.00260472,-0.0108822,-0.00169209,-0.181754,-0.0624022,0.455166,1005.53,32
148137560433,9993,117,0.00363842,-0.020111,-0.19906,-0.00531122,0.0197301,-0.00117129,-0.00317971,0.0046632,-0.023171,-0.0211773,-0.0301424,2.8749,-0.296266,0.198754,-9.69494,0.00324418,-0.00896094,-0.00180132,-0.181754,-0.0624022,0.455166,1005.53,32
148147566510,10005,119,0.00370029,-0.0200981,-0.198996,0.00316761,0.000658131,0.00330124,-0.00488057,0.0032464,-0.0236285,-0.0211675,-0.0301447,2.87491,-0.311998,0.16808,-9.68033,0.00163319,-0.00939011,-0.00207198,-0.180298,-0.0612862,0.455607,1005.53,32
148157542971,9985,111,0.00370029,-0.0200981,-0.198996,0.00316761,0.000658131,0.00330124,-0.00488057,0.0032464,-0.0236285,-0.0211664,-0.0301413,2.87492,-0.311998,0.16808,-9.68033,0.00163319,-0.00939011,-0.00207198,-0.180298,-0.0612862,0.455607,1005.53,32
148167565740,10016,119,0.00355139,-0.020461,-0.199378,-0.00726069,-0.0176953,-0.0186259,-0.00258515,-0.000308776,-0.0218171,-0.0211636,-0.0301345,2.87493,-0.294191,0.189839,-9.63452,0.00345955,-0.00864904,-0.00159519,-0.17905,-0.0593583,0.45462,1005.53,32
148177724433,10168,110,0.00355139,-0.020461,-0.199378,-0.00726069,-0.0176953,-0.0186259,-0.00258515,-0.000308776,-0.0218171,-0.0211548,-0.0301337,2.87494,-0.291789,0.19176,-9.67582,0.00246606,-0.00991755,-0.002637,-0.180758,-0.0602508,0.456191,1005.53,32
148187575510,9832,125,0.00363456,-0.0201417,-0.198824,0.00425844,0.0163498,0.0283684,-0.00475784,0.00406409,-0.023136,-0.0211545,-0.0301381,2.87493,-0.291057,0.211598,-9.69041,0.00237128,-0.0102413,-0.00231545,-0.17806,-0.0636061,0.455512,1005.52,32
148198005663,10424,134,0.00363456,-0.0201417,-0.198824,0.00425844,0.0163498,0.0283684,-0.00475784,0.00406409,-0.023136,-0.0211538,-0.0301379,2.87493,-0.290269,0.16461,-9.68747,0.00195013,-0.00949484,-0.00208087,-0.179133,-0.0638573,0.456907,1005.52,32
148207956279,9958,128,0.0034131,-0.0203137,-0.199312,-0.0107988,-0.00838743,-0.0238255,-0.00208667,0.00028808,-0.0218696,-0.0211437,-0.0301307,2.87492,-0.298369,0.199065,-9.68058,0.00193204,-0.00832154,-0.00260581,-0.177596,-0.0627222,0.455023,1005.54,32
148217784433,9842,114,0.0034131,-0.0203137,-0.199312,-0.0107988,-0.00838743,-0.0238255,-0.00208667,0.00028808,-0.0218696,-0.0211437,-0.0301307,2.87492,-0.296916,0.219858,-9.67315,0.00356921,-0.00939535,-0.00150129,-0.179087,-0.0597689,0.455899,1005.54,32
148227974202,10182,122,0.00365556,-0.0201323,-0.198829,0.0124139,0.00928936,0.0247505,-0.004863,0.00397488,-0.0231568,-0.0211367,-0.0301256,2.87493,-0.29818,0.18418,-9.67451,0.00260778,-0.00960744,-0.00157436,-0.180078,-0.0655214,0.455004,1005.56,32
148237559202,9587,118,0.00365556,-0.0201323,-0.198829,0.0124139,0.00928936,0.0247505,-0.004863,0.00397488,-0.0231568,-0.0211291,-0.0301258,2.87494,-0.29818,0.18418,-9.67451,0.00260778,-0.00960744,-0.00157436,-0.180078,-0.0655214,0.455004,1005.56,32
148247576202,10008,126,0.0037673,-0.0201629,-0.199011,0.00544857,-0.00149264,-0.00889587,-0.00529896,0.00350531,-0.0237934,-0.0211252,-0.0301234,2.87494,-0.296514,0.195499,-9.68206,0.00172899,-0.00938748,-0.00239479,-0.17985,-0.0617781,0.457028,1005.56,32
148258081356,10524,110,0.0037673,-0.0201629,-0.199011,0.00544857,-0.00149264,-0.00889587,-0.00529896,0.00350531,-0.0237934,-0.0211261,-0.0301247,2.87494,-0.30383,0.189366,-9.67129,0.00143092,-0.0104569,-0.00175733,-0.180373,-0.0624875,0.455759,1005.56,32
148267575279,9474,128,0.00358634,-0.0204387,-0.199489,-0.00926483,-0.0141219,-0.0244576,-0.00184417,0.000147782,-0.0218454,-0.021135,-0.0301273,2.87495,-0.30383,0.189366,-9.67129,0.00143092,-0.0104569,-0.00175733,-0.180373,-0.0624875,0.455759,1005.56,32
148277771433,10215,111,0.00358634,-0.0204387,-0.199489,-0.00926483,-0.0141219,-0.0244576,-0.00184417,0.000147782,-0.0218454,-0.0211376,-0.0301272,2.87495,-0.313585,0.201352,-9.67735,0.00198653,-0.00939795,-0.00113252,-0.178577,-0.0617569,0.454424,1005.56,32
148287750279,9963,126,0.00352932,-0.0200142,-0.198946,-0.00278055,0.0206973,0.0264733,-0.0036722,0.00468665,-0.0230213,-0.0211416,-0.0301257,2.87496,-0.300626,0.209806,-9.67064,0.00194675,-0.00917838,-0.00218943,-0.181249,-0.0616882,0.455876,1005.56,32
148297558279,9818,115,0.00352932,-0.0200142,-0.198946,-0.00278055,0.0206973,0.0264733,-0.0036722,0.00468665,-0.0230213,-0.0211459,-0.0301214,2.87497,-0.288907,0.237444,-9.65537,0.00172749,-0.0094934,-0.00239645,-0.17985,-0.0603983,0.454638,1005.56,32
148307781125,10215,125,0.00358453,-0.0200176,-0.19898,0.00282662,-0.000173283,-0.00173721,-0.00455779,0.00369173,-0.0235743,-0.0211522,-0.0301193,2.87498,-0.310149,0.222804,-9.68232,0.00194618,-0.00970868,-0.00229722,-0.181322,-0.0604704,0.453727,1005.48,32
148317554663,9782,116,0.00358453,-0.0200176,-0.19898,0.00282662,-0.000173283,-0.00173721,-0.00455779,0.00369173,-0.0235743,-0.0211617,-0.0301219,2.87499,-0.310149,0.222804,-9.68232,0.00194618,-0.00970868,-0.00229722,-0.181322,-0.0604704,0.453727,1005.48,32
148328116663,10560,120,0.00368729,-0.0199823,-0.199063,0.00501088,0.00172179,-0.00407628,-0.00488393,0.00245682,-0.0240748,-0.0211677,-0.0301252,2.875,-0.333134,0.206957,-9.68151,0.00247541,-0.0101355,-0.00253466,-0.180593,-0.0608921,0.45634,1005.48,32
148337563433,9441,120,0.00368729,-0.0199823,-0.199063,0.00501088,0.00172179,-0.00407628,-0.00488393,0.00245682,-0.0240748,-0.021164,-0.0301361,2.87501,-0.327417,0.171505,-9.67584,0.00271535,-0.0103489,-0.0015841,-0.180122,-0.0599904,0.45369,1005.53,32
148347597125,10033,124,0.00352408,-0.019968,-0.199097,-0.0083565,0.000734711,-0.00169449,-0.00320874,0.0047227,-0.0239545,-0.0211415,-0.0301477,2.87503,-0.317793,0.218479,-9.71007,0.00352968,-0.00991781,-0.00267288,-0.180929,-0.0604082,0.455875,1005.53,32
148357552971,9963,116,0.00352408,-0.019968,-0.199097,-0.0083565,0.000734711,-0.00169449,-0.00320874,0.0047227,-0.0239545,-0.0211415,-0.0301477,2.87503,-0.33386,0.20896,-9.65284,0.00246592,-0.0104499,-0.00264138,-0.178569,-0.0618389,0.454663,1005.53,32
148367570740,10008,126,0.00369882,-0.0200628,-0.199138,0.00852063,-0.00462323,-0.00203741,-0.00411143,0.00369794,-0.0242267,-0.0211335,-0.0301556,2.87502,-0.279225,0.194591,-9.65869,0.00272874,-0.00929144,-0.00114925,-0.178664,-0.0618548,0.456587,1005.53,32
148377557509,9997,117,0.00369882,-0.0200628,-0.199138,0.00852063,-0.00462323,-0.00203741,-0.00411143,0.00369794,-0.0242267,-0.0211292,-0.0301536,2.87503,-0.289399,0.211646,-9.69039,0.0019435,-0.00938931,-0.00217934,-0.179392,-0.061273,0.453975,1005.53,32
148387576125,10007,124,0.00366872,-0.0201874,-0.199151,-0.00154104,-0.00637884,-0.000630188,-0.00432639,0.00352629,-0.0232918,-0.0211377,-0.0301498,2.87505,-0.289399,0.211646,-9.69039,0.0019435,-0.00938931,-0.00217934,-0.179392,-0.061273,0.453975,1005.53,32
148397561125,9994,115,0.00366872,-0.0201874,-0.199151,-0.00154104,-0.00637884,-0.000630188,-0.00432639,0.00352629,-0.0232918,-0.0211514,-0.0301479,2.87505,-0.306019,0.202108,-9.64499,0.000356856,-0.00939009,-0.00203118,-0.179224,-0.0617748,0.456607,1005.53,32
148407572279,10005,124,0.00399197,-0.0203741,-0.199287,0.0157626,-0.00910686,-0.00663103,-0.00414311,0.00175484,-0.0223986,-0.0211514,-0.0301479,2.87505,-0.306019,0.202108,-9.64499,0.000356856,-0.00939009,-0.00203118,-0.179224,-0.0617748,0.456607,1005.53,32
148417548817,9987,113,0.00399197,-0.0203741,-0.199287,0.0157626,-0.00910686,-0.00663103,-0.00414311,0.00175484,-0.0223986,-0.0211512,-0.0301469,2.87507,-0.303305,0.211316,-9.66978,0.00278938,-0.00938572,-0.00264352,-0.180788,-0.0589636,0.455322,1005.55,32
148427939740,10384,122,0.00372111,-0.0200398,-0.199024,-0.0138681,0.0171151,0.0134552,-0.00460376,0.00297217,-0.0236005,-0.0211481,-0.0301432,2.87508,-0.303305,0.211316,-9.66978,0.00278938,-0.00938572,-0.00264352,-0.180788,-0.0589636,0.455322,1005.55,32
148437927202,9996,113,0.00372111,-0.0200398,-0.199024,-0.0138681,0.0171151,0.0134552,-0.00460376,0.00297217,-0.0236005,-0.0211513,-0.0301428,2.87508,-0.302843,0.210483,-9.65025,0.0014026,-0.00938572,-0.00259673,-0.179511,-0.058563,0.455202,1005.48,32
148447570740,9637,121,0.00338051,-0.0204785,-0.199009,-0.0166085,-0.0213922,0.000707717,-0.00405242,-0.000198338,-0.0228657,-0.0211595,-0.0301378,2.87511,-0.299217,0.20379,-9.66272,0.00301321,-0.00854183,-0.00211431,-0.177472,-0.0601728,0.456321,1005.48,32
148457723586,10169,105,0.00338051,-0.0204785,-0.199009,-0.0166085,-0.0213922,0.000707717,-0.00405242,-0.000198338,-0.0228657,-0.0211626,-0.0301324,2.87512,-0.299217,0.20379,-9.66272,0.00301321,-0.00854183,-0.00211431,-0.177472,-0.0601728,0.456321,1005.48,32
148467575509,9826,127,0.00377488,-0.0201544,-0.199025,0.0201919,0.0165977,-0.000787354,-0.00534088,0.0037422,-0.0237423,-0.0211652,-0.0301285,2.87513,-0.294286,0.189966,-9.64018,0.0014202,-0.00970109,-0.00207497,-0.178797,-0.0606416,0.455001,1005.48,32
148477563509,9995,120,0.00377488,-0.0201544,-0.199025,0.0201919,0.0165977,-0.000787354,-0.00534088,0.0037422,-0.0237423,-0.0211675,-0.030128,2.87514,-0.295894,0.162542,-9.6583,0.00130875,-0.0104543,-0.00206462,-0.177678,-0.0596016,0.454972,1005.48,32
148487574894,10009,123,0.00360793,-0.0201008,-0.19889,-0.00854802,0.0027441,0.00691833,-0.00345356,0.00330362,-0.0234214,-0.021158,-0.0301249,2.87515,-0.283397,0.204804,-9.63851,0.00325041,-0.0093945,-0.00159428,-0.179632,-0.062073,0.453977,1005.48,32
148497604279,10044,112,0.00360793,-0.0201008,-0.19889,-0.00854802,0.0027441,0.00691833,-0.00345356,0.00330362,-0.0234214,-0.0211579,-0.0301219,2.87515,-0.278723,0.22997,-9.67974,0.0014743,-0.00961707,-0.000471339,-0.180285,-0.0627294,0.455995,1005.46,32
148507704279,10090,121,0.00404099,-0.0204262,-0.199254,0.0211169,-0.0158668,-0.0177896,-0.00401051,0.00195376,-0.0225395,-0.0211639,-0.0301167,2.87516,-0.308537,0.215724,-9.69075,0.00247334,-0.00917776,-0.00242131,-0.178462,-0.0636855,0.455445,1005.46,32
148517951740,10248,118,0.00404099,-0.0204262,-0.199254,0.0211169,-0.0158668,-0.0177896,-0.00401051,0.00195376,-0.0225395,-0.0211682,-0.0301083,2.87516,-0.295942,0.198493,-9.69905,0.000672261,-0.00938835,-0.00225282,-0.179327,-0.0652696,0.45354,1005.47,32
148527566509,9613,121,0.00365268,-0.02009,-0.199056,-0.0198812,0.0172112,0.0101501,-0.00455717,0.00261012,-0.0239224,-0.0211738,-0.030105,2.87514,-0.293537,0.192378,-9.67345,0.000846448,-0.00991943,-0.00312087,-0.179327,-0.0652696,0.45354,1005.47,32
148537550894,9991,113,0.00365268,-0.02009,-0.199056,-0.0198812,0.0172112,0.0101501,-0.00455717,0.00261012,-0.0239224,-0.0211807,-0.0301056,2.87514,-0.293537,0.192378,-9.67345,0.000846448,-0.00991943,-0.00312087,-0.179327,-0.0652696,0.45354,1005.47,32
148547569894,10012,121,0.00373356,-0.0199599,-0.199055,0.00394392,0.00634257,7.04811e-05,-0.00460269,0.00267184,-0.0239473,-0.0211875,-0.0301058,2.87511,-0.290208,0.192219,-9.66267,0.000642713,-0.00895534,-0.00288213,-0.177679,-0.0648015,0.454929,1005.51,32
148557598971,10040,111,0.00373356,-0.0199599,-0.199055,0.00394392,0.00634257,7.04811e-05,-0.00460269,0.00267184,-0.0239473,-0.0211882,-0.0301002,2.87511,-0.307579,0.180942,-9.68317,0.00271452,-0.0104587,-0.00158498,-0.177616,-0.0620167,0.456791,1005.51,32
148567573279,9961,123,0.0036324,-0.0200423,-0.198941,-0.00517938,-0.00421505,0.00583344,-0.00438735,0.00485769,-0.0239315,-0.0211833,-0.0300994,2.87511,-0.299505,0.207812,-9.67116,0.00140283,-0.00853446,-0.00258972,-0.177249,-0.0602489,0.455833,1005.51,32
148577546202,9988,110,0.0036324,-0.0200423,-0.198941,-0.00517938,-0.00421505,0.00583344,-0.00438735,0.00485769,-0.0239315,-0.0211843,-0.0300973,2.87511,-0.331604,0.210077,-9.7016,0.00227508,-0.00896384,-0.00198524,-0.177249,-0.0602489,0.455833,1005.51,32
148588293894,10734,124,0.00340408,-0.020258,-0.19925,-0.0111337,-0.0105191,-0.0150837,-0.00149566,0.00109526,-0.0213005,-0.0211855,-0.0300908,2.8751,-0.294169,0.199281,-9.68328,0.0035658,-0.00907458,-0.00160228,-0.178869,-0.0608036,0.455242,1005.51,32
148598250279,9966,115,0.00340408,-0.020258,-0.19925,-0.0111337,-0.0105191,-0.0150837,-0.00149566,0.00109526,-0.0213005,-0.0211789,-0.030086,2.87511,-0.315201,0.210958,-9.67607,0.00252023,-0.0084431,-0.00103137,-0.179581,-0.0627255,0.455491,1005.52,32
148607759432,9499,123,0.003639,-0.020103,-0.198933,0.0120281,0.00793524,0.0162224,-0.00414768,0.00432156,-0.0228996,-0.0211697,-0.0300763,2.87512,-0.30846,0.185389,-9.64618,0.00194203,-0.0095997,-0.00240434,-0.179881,-0.0595302,0.456087,1005.52,32
148617851740,10104,112,0.003639,-0.020103,-0.198933,0.0120281,0.00793524,0.0162224,-0.00414768,0.00432156,-0.0228996,-0.0211689,-0.0300711,2.87513,-0.31301,0.214207,-9.68917,0.00195419,-0.00971183,-0.00198071,-0.178976,-0.059597,0.454455,1005.48,32
148627998125,10140,121,0.0039058,-0.0203247,-0.19922,0.0130098,-0.0108112,-0.0139836,-0.00318408,0.00287523,-0.0219954,-0.0211723,-0.0300715,2.87514,-0.303903,0.191945,-9.67927,0.00229228,-0.0109999,-0.0015752,-0.176359,-0.0640114,0.456092,1005.48,32
148637725355,9734,112,0.0039058,-0.0203247,-0.19922,0.0130098,-0.0108112,-0.0139836,-0.00318408,0.00287523,-0.0219954,-0.0211726,-0.0300731,2.87513,-0.303903,0.191945,-9.67927,0.00229228,-0.0109999,-0.0015752,-0.176359,-0.0640114,0.456092,1005.48,32
148647567663,9830,125,0.00374669,-0.0200665,-0.199061,-0.00814655,0.0132227,0.00813828,-0.00462068,0.0027442,-0.0238462,-0.0211657,-0.0300836,2.87513,-0.319313,0.198157,-9.65617,0.00246621,-0.00938572,-0.00263262,-0.180542,-0.0632657,0.453117,1005.46,32
148657554048,9992,115,0.00374669,-0.0200665,-0.199061,-0.00814655,0.0132227,0.00813828,-0.00462068,0.0027442,-0.0238462,-0.021156,-0.0300849,2.87511,-0.304801,0.216846,-9.66051,0.00252012,-0.00929182,-0.00103464,-0.178081,-0.0645806,0.457266,1005.46,32
148667794509,10238,121,0.00373821,-0.0201281,-0.199104,-0.000413554,-0.00300734,-0.00210063,-0.00543267,0.00208134,-0.0237328,-0.0211559,-0.0300843,2.87511,-0.320801,0.198483,-9.6739,0.00207754,-0.00993115,-0.00155914,-0.176327,-0.0610396,0.454674,1005.46,32
148677555509,9763,118,0.00373821,-0.0201281,-0.199104,-0.000413554,-0.00300734,-0.00210063,-0.00543267,0.00208134,-0.0237328,-0.0211586,-0.0300876,2.87512,-0.302132,0.199312,-9.71262,0.00161458,-0.00896195,-0.00270874,-0.179315,-0.0619123,0.453887,1005.46,32
148687569894,10009,125,0.00345236,-0.0205136,-0.199108,-0.0146354,-0.0197344,-0.00019989,-0.00325153,0.00288831,-0.0227352,-0.0211614,-0.0300919,2.87512,-0.302132,0.199312,-9.71262,0.00161458,-0.00896195,-0.00270874,-0.179315,-0.0619123,0.453887,1005.46,32
148697568432,9991,127,0.00345236,-0.0205136,-0.199108,-0.0146354,-0.0197344,-0.00019989,-0.00325153,0.00288831,-0.0227352,-0.021164,-0.0300855,2.87508,-0.307247,0.203702,-9.64042,0.00193919,-0.00938572,-0.00261484,-0.178154,-0.0672827,0.455085,1005.5,32
148707953894,10391,126,0.00376091,-0.0200821,-0.199182,0.0150455,0.0210388,-0.00359744,-0.00512674,0.00365712,-0.0251258,-0.0211642,-0.0300849,2.87507,-0.298622,0.202942,-9.65152,0.0019699,-0.0103535,-0.00145286,-0.176848,-0.0654296,0.453455,1005.5,32
148717803586,9861,115,0.00376091,-0.0200821,-0.199182,0.0150455,0.0210388,-0.00359744,-0.00512674,0.00365712,-0.0251258,-0.0211653,-0.0300894,2.87508,-0.308842,0.204094,-9.67873,0.00145656,-0.00886679,-0.000996982,-0.18049,-0.0623982,0.454643,1005.5,32
148727572432,9760,122,0.00350396,-0.0203666,-0.199371,-0.0131557,-0.0145633,-0.0096611,-0.00275786,-6.04134e-05,-0.0224089,-0.0211699,-0.0300906,2.87509,-0.303227,0.206229,-9.64694,0.00228922,-0.00992659,-0.00156625,-0.178803,-0.0607203,0.454841,1005.54,32
148737767355,10209,110,0.00350396,-0.0203666,-0.199371,-0.0131557,-0.0145633,-0.0096611,-0.00275786,-6.04134e-05,-0.0224089,-0.0211711,-0.0300916,2.87509,-0.311315,0.212068,-9.69706,0.00155204,-0.0104605,-0.00132336,-0.17593,-0.0622389,0.454571,1005.54,32
148748221278,10442,121,0.00370147,-0.0201006,-0.199018,0.00963077,0.0129668,0.0172017,-0.00533881,0.00275773,-0.0237435,-0.021178,-0.0300977,2.8751,-0.289089,0.18359,-9.65988,0.00152979,-0.00939013,-0.00206584,-0.178776,-0.0617668,0.455631,1005.5,32
148757548355,9332,114,0.00370147,-0.0201006,-0.199018,0.00963077,0.0129668,0.0172017,-0.00533881,0.00275773,-0.0237435,-0.0211851,-0.0300976,2.8751,-0.289089,0.18359,-9.65988,0.00152979,-0.00939013,-0.00206584,-0.178776,-0.0617668,0.455631,1005.5,32
148767815509,10263,121,0.00397996,-0.0202845,-0.199381,0.0142586,-0.00941353,-0.0185905,-0.00428285,0.00169325,-0.0218378,-0.0211919,-0.0300894,2.87509,-0.301079,0.2006,-9.66218,0.0014136,-0.00853701,-0.00227064,-0.176295,-0.0627275,0.45562,1005.5,32
148777621432,9818,109,0.00397996,-0.0202845,-0.199381,0.0142586,-0.00941353,-0.0185905,-0.00428285,0.00169325,-0.0218378,-0.0211929,-0.0300868,2.87508,-0.302502,0.199059,-9.67546,0.00238508,-0.00896154,-0.00188111,-0.17906,-0.0644762,0.454338,1005.5,32
148787812432,10170,129,0.00407928,-0.0204363,-0.199496,0.00484287,-0.00740442,-0.00563267,-0.00362548,0.00147093,-0.0225598,-0.021193,-0.0300853,2.87509,-0.304549,0.184452,-9.66462,0.00165344,-0.0093945,-0.00154041,-0.177719,-0.0622317,0.453751,1005.5,32
148797553278,9751,116,0.00407928,-0.0204363,-0.199496,0.00484287,-0.00740442,-0.00563267,-0.00362548,0.00147093,-0.0225598,-0.021195,-0.030078,2.87509,-0.304549,0.184452,-9.66462,0.00165344,-0.0093945,-0.00154041,-0.177719,-0.0622317,0.453751,1005.5,32
148807570740,10012,125,0.00343229,-0.0203862,-0.199282,-0.0331256,0.00256634,0.0109932,-0.00194164,0.000747218,-0.0216324,-0.0211894,-0.0300814,2.8751,-0.335235,0.211727,-9.67895,0.00246595,-0.0103436,-0.00264051,-0.180482,-0.0616802,0.454889,1005.54,32
148817738278,10182,112,0.00343229,-0.0203862,-0.199282,-0.0331256,0.00256634,0.0109932,-0.00194164,0.000747218,-0.0216324,-0.0211911,-0.0300821,2.87511,-0.310265,0.195188,-9.70606,0.0012374,-0.00939715,-0.00120453,-0.178727,-0.0647195,0.454725,1005.54,32
148827573278,9821,123,0.00354777,-0.0203117,-0.198773,0.00563088,0.00363114,0.0248202,-0.00524407,0.00541507,-0.0231061,-0.0211978,-0.030084,2.87511,-0.31013,0.215344,-9.68006,0.00175454,-0.0101355,-0.00154993,-0.179525,-0.0598397,0.454792,1005.53,32
148837557663,9990,118,0.00354777,-0.0203117,-0.198773,0.00563088,0.00363114,0.0248202,-0.00524407,0.00541507,-0.0231061,-0.0211991,-0.0300842,2.87511,-0.303708,0.215175,-9.68833,0.00275538,-0.00940327,-0.00051279,-0.179201,-0.0640008,0.454907,1005.53,32
148848228201,10672,118,0.00366504,-0.0206161,-0.199612,0.00600445,-0.0155837,-0.0429955,-0.00182157,-0.00140325,-0.0205781,-0.0211963,-0.0300827,2.87513,-0.30028,0.191055,-9.69478,0.00172128,-0.00832154,-0.00259871,-0.179128,-0.0617589,0.454683,1005.51,32
148857549432,9324,115,0.00366504,-0.0206161,-0.199612,0.00600445,-0.0155837,-0.0429955,-0.00182157,-0.00140325,-0.0205781,-0.0211849,-0.030075,2.87513,-0.30028,0.191055,-9.69478,0.00172128,-0.00832154,-0.00259871,-0.179128,-0.0617589,0.454683,1005.51,32
148867575740,10010,129,0.0035187,-0.0200277,-0.198837,-0.00713612,0.0286901,0.0378026,-0.00522064,0.00337249,-0.0239829,-0.0211817,-0.0300735,2.87512,-0.285762,0.218417,-9.67462,0.00194409,-0.00960227,-0.00229626,-0.177634,-0.0647129,0.453888,1005.51,32
148877565894,9991,124,0.0035187,-0.0200277,-0.198837,-0.00713612,0.0286901,0.0378026,-0.00522064,0.00337249,-0.0239829,-0.0211841,-0.0300773,2.8751,-0.285762,0.218417,-9.67462,0.00194409,-0.00960227,-0.00229626,-0.177634,-0.0647129,0.453888,1005.51,32
148887876124,10316,125,0.00370812,-0.0201375,-0.198992,0.00969865,-0.00561819,-0.00793991,-0.00387244,0.00493013,-0.0233108,-0.0211902,-0.0300745,2.8751,-0.282206,0.222372,-9.67952,0.0023597,-0.00992141,-0.00263344,-0.179872,-0.0629727,0.456379,1005.51,32
148897549048,9684,114,0.00370812,-0.0201375,-0.198992,0.00969865,-0.00561819,-0.00793991,-0.00387244,0.00493013,-0.0233108,-0.0211979,-0.030074,2.87509,-0.298603,0.228696,-9.67318,0.00143833,-0.00992779,-0.00153755,-0.179478,-0.0630316,0.453804,1005.51,32
148907574817,10011,125,0.00360443,-0.0200302,-0.199115,-0.00505629,0.00523086,-0.00600542,-0.00449824,0.00298108,-0.0242209,-0.0212018,-0.0300741,2.87509,-0.291723,0.220364,-9.68857,0.00150305,-0.00938303,-0.00292755,-0.177827,-0.0600043,0.455294,1005.55,32
148917737124,10176,116,0.00360443,-0.0200302,-0.199115,-0.00505629,0.00523086,-0.00600542,-0.00449824,0.00298108,-0.0242209,-0.021209,-0.0300688,2.8751,-0.30604,0.213407,-9.67256,0.0030517,-0.009398,-0.00116262,-0.177827,-0.0600043,0.455294,1005.55,32
148927571817,9823,126,0.00353299,-0.0199874,-0.198941,-0.00365787,0.0021925,0.00891724,-0.00369286,0.00463308,-0.0230174,-0.0212092,-0.030067,2.8751,-0.30604,0.213407,-9.67256,0.0030517,-0.009398,-0.00116262,-0.177827,-0.0600043,0.455294,1005.55,32
148937784971,10224,116,0.00353299,-0.0199874,-0.198941,-0.00365787,0.0021925,0.00891724,-0.00369286,0.00463308,-0.0230174,-0.0212119,-0.0300601,2.87509,-0.293989,0.190183,-9.66988,0.00161583,-0.00938572,-0.00260393,-0.179092,-0.0640683,0.453382,1005.55,32
148947903509,10117,119,0.00349792,-0.0201668,-0.198849,-0.00171017,-0.00874637,0.00448972,-0.00587476,0.00538055,-0.0238273,-0.0212141,-0.0300582,2.8751,-0.315115,0.196634,-9.67312,0.00322688,-0.00864512,-0.00212173,-0.180951,-0.0624029,0.455219,1005.55,32
148957592509,9697,109,0.00349792,-0.0201668,-0.198849,-0.00171017,-0.00874637,0.00448972,-0.00587476,0.00538055,-0.0238273,-0.0212085,-0.0300563,2.8751,-0.315115,0.196634,-9.67312,0.00322688,-0.00864512,-0.00212173,-0.180951,-0.0624029,0.455219,1005.55,32
148968081278,10475,125,0.00366036,-0.0199919,-0.199091,0.00831735,0.00895338,-0.0123909,-0.00410056,0.00303128,-0.023929,-0.0212019,-0.0300588,2.8751,-0.269567,0.190737,-9.68997,0.00226694,-0.00886379,-0.00208916,-0.177582,-0.0617655,0.455431,1005.45,32
148977552047,9473,119,0.00366036,-0.0199919,-0.199091,0.00831735,0.00895338,-0.0123909,-0.00410056,0.00303128,-0.023929,-0.0212018,-0.0300578,2.8751,-0.269567,0.190737,-9.68997,0.00226694,-0.00886379,-0.00208916,-0.177582,-0.0617655,0.455431,1005.45,32
148987799355,10241,125,0.0035346,-0.0199401,-0.199039,-0.00643904,0.00265226,0.00264969,-0.0043027,0.00429103,-0.0242759,-0.0212006,-0.0300548,2.87509,-0.288686,0.200605,-9.63463,0.00218319,-0.00971402,-0.00156092,-0.178444,-0.0638303,0.453602,1005.45,32
148997554124,9763,113,0.0035346,-0.0199401,-0.199039,-0.00643904,0.00265226,0.00264969,-0.0043027,0.00429103,-0.0242759,-0.021193,-0.0300503,2.87508,-0.303646,0.199548,-9.63646,0.00356571,-0.0093945,-0.00160492,-0.178619,-0.0632861,0.455534,1005.45,32
149007872201,10310,126,0.00374728,-0.0201372,-0.199046,0.0103704,-0.00961267,-0.000318255,-0.0055958,0.00399006,-0.0235205,-0.0211747,-0.0300453,2.87507,-0.31186,0.209196,-9.68971,0.00334341,-0.00886017,-0.00191314,-0.178833,-0.0636729,0.453937,1005.52,32
149017641971,9776,120,0.00374728,-0.0201372,-0.199046,0.0103704,-0.00961267,-0.000318255,-0.0055958,0.00399006,-0.0235205,-0.0211747,-0.0300453,2.87507,-0.332362,0.217803,-9.6752,0.00217498,-0.00939189,-0.00187478,-0.177116,-0.0627222,0.455007,1005.52,32
149027683432,10025,134,0.00372853,-0.0200302,-0.199074,-0.000959873,0.00548124,-0.0014473,-0.00410314,0.00321617,-0.0236762,-0.0211757,-0.0300463,2.87507,-0.301128,0.18031,-9.66175,0.002491,-0.00971487,-0.00189764,-0.178076,-0.0631222,0.455036,1005.52,32
149037554355,9890,116,0.00372853,-0.0200302,-0.199074,-0.000959873,0.00548124,-0.0014473,-0.00410314,0.00321617,-0.0236762,-0.0211741,-0.0300487,2.87506,-0.301128,0.18031,-9.66175,0.002491,-0.00971487,-0.00189764,-0.178076,-0.0631222,0.455036,1005.52,32
149047575894,10011,127,0.00377602,-0.0200587,-0.19911,0.00231586,-0.00138982,-0.00175113,-0.00487098,0.00300755,-0.0242537,-0.0211742,-0.0300516,2.87506,-0.311301,0.202752,-9.66754,0.00143118,-0.00949967,-0.00174941,-0.178681,-0.061991,0.453705,1005.45,32
149057576817,9998,130,0.00377602,-0.0200587,-0.19911,0.00231586,-0.00138982,-0.00175113,-0.00487098,0.00300755,-0.0242537,-0.0211811,-0.0300518,2.87505,-0.308566,0.185708,-9.64973,0.000556671,-0.00938838,-0.00224603,-0.178412,-0.0648782,0.454553,1005.45,32
149067922355,10349,129,0.00370413,-0.0201796,-0.199068,-0.00368109,-0.00619011,0.00213394,-0.00478519,0.00347735,-0.0242737,-0.0211959,-0.0300494,2.87505,-0.313446,0.223145,-9.66632,0.00247698,-0.00938836,-0.00231354,-0.179867,-0.0636742,0.454132,1005.49,32
149078167124,10258,116,0.00370413,-0.0201796,-0.199068,-0.00368109,-0.00619011,0.00213394,-0.00478519,0.00347735,-0.0242737,-0.0211973,-0.0300499,2.87505,-0.302362,0.199288,-9.64986,0.00237529,-0.0094923,-0.00231547,-0.177494,-0.0623275,0.455664,1005.49,32
149088273894,10090,132,0.00364929,-0.0200599,-0.198997,-0.00267401,0.00583458,0.00348409,-0.00499871,0.00330776,-0.0237554,-0.0211966,-0.0300459,2.87505,-0.287086,0.196745,-9.66434,0.00140283,-0.00853438,-0.00258972,-0.178062,-0.0621655,0.455444,1005.49,32
149097598586,9340,118,0.00364929,-0.0200599,-0.198997,-0.00267401,0.00583458,0.00348409,-0.00499871,0.00330776,-0.0237554,-0.0211978,-0.0300422,2.87504,-0.327221,0.201257,-9.67957,0.00143877,-0.00833031,-0.00152439,-0.177841,-0.0633608,0.454866,1005.49,32
149107574432,9965,126,0.00368826,-0.020246,-0.198844,0.00199559,-0.00952845,0.00785294,-0.00552065,0.00397101,-0.0236537,-0.021202,-0.0300366,2.87504,-0.327221,0.201257,-9.67957,0.00143877,-0.00833031,-0.00152439,-0.177841,-0.0633608,0.454866,1005.49,32
149117554201,9987,115,0.00368826,-0.020246,-0.198844,0.00199559,-0.00952845,0.00785294,-0.00552065,0.00397101,-0.0236537,-0.0212083,-0.0300356,2.87505,-0.318202,0.192068,-9.6719,0.00161384,-0.00938764,-0.00270941,-0.180609,-0.0592882,0.455874,1005.48,32
149127577201,10013,129,0.00368713,-0.0200705,-0.198947,-5.51542e-05,0.00855646,-0.00501651,-0.00432313,0.00491803,-0.0236767,-0.0212139,-0.0300327,2.87502,-0.333449,0.218611,-9.69105,0.00140281,-0.00863762,-0.00259057,-0.17758,-0.0648061,0.455486,1005.48,32
149137550355,9989,114,0.00368713,-0.0200705,-0.198947,-5.51542e-05,0.00855646,-0.00501651,-0.00432313,0.00491803,-0.0236767,-0.0212153,-0.0300312,2.87502,-0.292413,0.183932,-9.68923,0.00377258,-0.0093945,-0.00161189,-0.178919,-0.0631116,0.453784,1005.55,32
149147716740,10162,119,0.00353304,-0.0200559,-0.199021,-0.00788975,0.000750256,-0.00380554,-0.00349164,0.00465834,-0.0233657,-0.0212094,-0.0300271,2.87502,-0.314428,0.192562,-9.66666,0.00185788,-0.00917596,-0.0015455,-0.17847,-0.0629635,0.455211,1005.55,32
149158229663,10518,114,0.00353304,-0.0200559,-0.199021,-0.00788975,0.000750256,-0.00380554,-0.00349164,0.00465834,-0.0233657,-0.0212091,-0.0300256,2.87503,-0.303888,0.203509,-9.66537,0.0017416,-0.00939011,-0.00207618,-0.181048,-0.0637589,0.454731,1005.52,32
149167578817,9329,129,0.00350282,-0.0200486,-0.19887,-0.0014732,0.000355766,0.00736927,-0.00473772,0.00346633,-0.0240844,-0.0212091,-0.0300263,2.87502,-0.303888,0.203509,-9.66537,0.0017416,-0.00939011,-0.00207618,-0.181048,-0.0637589,0.454731,1005.52,32
149177550201,9991,113,0.00350282,-0.0200486,-0.19887,-0.0014732,0.000355766,0.00736927,-0.00473772,0.00346633,-0.0240844,-0.0212091,-0.0300277,2.87502,-0.306872,0.193364,-9.65012,0.00144567,-0.00939626,-0.00132012,-0.177702,-0.0636953,0.45662,1005.52,32
149187571355,10011,122,0.00366035,-0.0200744,-0.198908,0.0080653,-0.00132208,-0.00197144,-0.00441946,0.00516198,-0.0237462,-0.0212087,-0.0300244,2.87503,-0.295661,0.185546,-9.69995,0.00178394,-0.00875982,-0.000792423,-0.178628,-0.0634441,0.455292,1005.52,32
149197577201,9998,129,0.00366035,-0.0200744,-0.198908,0.0080653,-0.00132208,-0.00197144,-0.00441946,0.00516198,-0.0237462,-0.0212098,-0.0300219,2.87503,-0.307635,0.186387,-9.67749,0.00236347,-0.00896083,-0.00262564,-0.177202,-0.0631209,0.454847,1005.52,32
149208232278,10665,123,0.00362452,-0.0201951,-0.198758,-0.00174711,-0.00588726,0.0073155,-0.00539246,0.00525733,-0.023496,-0.0212074,-0.0300193,2.87503,-0.282248,0.19972,-9.6706,0.00217012,-0.0092862,-0.00198453,-0.177612,-0.0626382,0.454544,1005.48,32
149217548124,9323,113,0.00362452,-0.0201951,-0.198758,-0.00174711,-0.00588726,0.0073155,-0.00539246,0.00525733,-0.023496,-0.0212058,-0.0300168,2.87502,-0.282248,0.19972,-9.6706,0.00217012,-0.0092862,-0.00198453,-0.177612,-0.0626382,0.454544,1005.48,32
149227579047,10015,126,0.00375113,-0.0200799,-0.199203,0.00648232,0.00589809,-0.0227844,-0.0043445,0.0024519,-0.0237779,-0.0212063,-0.0300171,2.87502,-0.334494,0.205649,-9.69582,0.00246982,-0.00938661,-0.00252557,-0.178785,-0.0645648,0.455369,1005.48,32
149237571278,9994,123,0.00375113,-0.0200799,-0.199203,0.00648232,0.00589809,-0.0227844,-0.0043445,0.0024519,-0.0237779,-0.0212072,-0.0300163,2.87501,-0.299204,0.217467,-9.66949,0.000654829,-0.00959947,-0.00257327,-0.175845,-0.0628802,0.454723,1005.54,32
149247931047,10371,118,0.00365925,-0.0200535,-0.198938,-0.00448013,0.00129073,0.0129518,-0.00536522,0.00466622,-0.0233586,-0.0212183,-0.0300167,2.87501,-0.29116,0.211806,-9.63609,0.00133643,-0.00993158,-0.00142433,-0.179872,-0.062233,0.453984,1005.54,32
149257662047,9734,116,0.00365925,-0.0200535,-0.198938,-0.00448013,0.00129073,0.0129518,-0.00536522,0.00466622,-0.0233586,-0.0212267,-0.0300169,2.87501,-0.310054,0.218734,-9.68591,0.00143827,-0.0101355,-0.00153926,-0.17942,-0.0636663,0.453156,1005.54,32
149267577355,9902,123,0.00358005,-0.0203888,-0.199297,-0.0040549,-0.0171707,-0.0183975,-0.00181214,0.000887804,-0.0217195,-0.0212315,-0.0300125,2.875,-0.31026,0.195514,-9.69189,0.00219386,-0.00779375,-0.001331,-0.176667,-0.0637549,0.454103,1005.55,32
149277636586,10073,115,0.00358005,-0.0203888,-0.199297,-0.0040549,-0.0171707,-0.0183975,-0.00181214,0.000887804,-0.0217195,-0.0212288,-0.0300031,2.87499,-0.303961,0.192423,-9.69187,0.00250198,-0.00981685,-0.00157252,-0.176016,-0.0647175,0.454393,1005.55,32
149287573124,9925,125,0.00358516,-0.0204294,-0.199298,0.000248841,-0.00197629,-3.19708e-05,-0.00346342,-4.86156e-05,-0.0221003,-0.0212248,-0.0300003,2.875,-0.303961,0.192423,-9.69187,0.00250198,-0.00981685,-0.00157252,-0.176016,-0.0647175,0.454393,1005.55,32
149298010509,10454,110,0.00358516,-0.0204294,-0.199298,0.000248841,-0.00197629,-3.19708e-05,-0.00346342,-4.86156e-05,-0.0221003,-0.021217,-0.0299925,2.87501,-0.296695,0.213054,-9.67563,0.0030329,-0.00960809,-0.00180421,-0.177576,-0.0595269,0.455609,1005.55,32
149307574278,9544,126,0.00374925,-0.0200636,-0.199019,0.00840182,0.018726,0.0142761,-0.00458461,0.00311816,-0.0236278,-0.0212129,-0.0299891,2.87502,-0.296695,0.213054,-9.67563,0.0030329,-0.00960809,-0.00180421,-0.177576,-0.0595269,0.455609,1005.55,32
149317555816,9995,115,0.00374925,-0.0200636,-0.199019,0.00840182,0.018726,0.0142761,-0.00458461,0.00311816,-0.0236278,-0.0212086,-0.0299921,2.87502,-0.313348,0.209309,-9.64829,0.00229159,-0.0105626,-0.00146919,-0.17754,-0.0625563,0.454302,1005.52,32
149327704278,10143,121,0.00366097,-0.0200957,-0.198959,-0.00430502,-0.00156157,0.00289263,-0.00460115,0.00371315,-0.0231748,-0.0212087,-0.0300057,2.87501,-0.290614,0.214377,-9.66297,0.0018543,-0.0098278,-0.00244091,-0.177034,-0.0634428,0.455079,1005.52,32
149337557047,9853,119,0.00366097,-0.0200957,-0.198959,-0.00430502,-0.00156157,0.00289263,-0.00460115,0.00371315,-0.0231748,-0.0212111,-0.0300069,2.87501,-0.302754,0.199936,-9.66853,0.00216956,-0.00939098,-0.00198454,-0.1769,-0.0592764,0.454308,1005.52,32
149347924355,10369,118,0.00359328,-0.0204679,-0.19922,-0.00346568,-0.0190606,-0.0133484,-0.00318116,0.000476537,-0.0217131,-0.0212155,-0.0300053,2.87503,-0.292313,0.230749,-9.6776,0.00197742,-0.00983141,-0.00155494,-0.177758,-0.0616016,0.454958,1005.52,32
149357596740,9678,114,0.00359328,-0.0204679,-0.19922,-0.00346568,-0.0190606,-0.0133484,-0.00318116,0.000476537,-0.0217131,-0.0212236,-0.0300032,2.87503,-0.318008,0.195481,-9.70929,0.00239295,-0.00854474,-0.00166428,-0.179609,-0.0631989,0.454687,1005.52,32
149367944586,10337,123,0.00356634,-0.0199873,-0.199067,-0.0013136,0.023435,0.00746009,-0.00395445,0.00434535,-0.0240895,-0.0212258,-0.0300011,2.87503,-0.311097,0.177319,-9.68083,0.00150896,-0.00938572,-0.00260032,-0.17698,-0.0609563,0.454297,1005.56,32
149377556970,9615,117,0.00356634,-0.0199873,-0.199067,-0.0013136,0.023435,0.00746009,-0.00395445,0.00434535,-0.0240895,-0.021225,-0.0300028,2.87503,-0.311097,0.177319,-9.68083,0.00150896,-0.00938572,-0.00260032,-0.17698,-0.0609563,0.454297,1005.56,32
149388196509,10635,124,0.00360892,-0.0201119,-0.19909,0.00218031,-0.00637798,-0.00117035,-0.00307575,0.00477753,-0.0232362,-0.0212242,-0.0300113,2.87504,-0.288025,0.209949,-9.69266,0.00299789,-0.00938572,-0.00265055,-0.179808,-0.0601491,0.453518,1005.56,32
149397551278,9363,116,0.00360892,-0.0201119,-0.19909,0.00218031,-0.00637798,-0.00117035,-0.00307575,0.00477753,-0.0232362,-0.0212237,-0.0300113,2.87505,-0.288025,0.209949,-9.69266,0.00299789,-0.00938572,-0.00265055,-0.179808,-0.0601491,0.453518,1005.56,32
149407772355,10209,130,0.00347007,-0.0201678,-0.198899,-0.00677057,-0.00272733,0.00933329,-0.00372542,0.00475291,-0.023409,-0.021227,-0.0300026,2.87505,-0.290905,0.208283,-9.6646,0.00192358,-0.0095958,-0.0029355,-0.176793,-0.0600029,0.455099,1005.56,32
149417572816,9796,128,0.00347007,-0.0201678,-0.198899,-0.00677057,-0.00272733,0.00933329,-0.00372542,0.00475291,-0.023409,-0.0212261,-0.0299977,2.87504,-0.300494,0.204124,-9.6799,0.00225711,-0.00928018,-0.00251821,-0.17803,-0.0625734,0.4564,1005.51,32
149427825355,10267,120,0.00333181,-0.0203564,-0.199114,-0.00707908,-0.009653,-0.0110458,-0.00253018,0.000869873,-0.0215941,-0.0212265,-0.0299966,2.87504,-0.31669,0.205439,-9.63421,0.00229415,-0.0097189,-0.00156989,-0.177847,-0.0623196,0.454715,1005.51,32
149437609509,9794,112,0.00333181,-0.0203564,-0.199114,-0.00707908,-0.009653,-0.0110458,-0.00253018,0.000869873,-0.0215941,-0.0212302,-0.0299991,2.87504,-0.304091,0.192453,-9.65734,0.00143842,-0.00960345,-0.00153488,-0.17601,-0.060719,0.454586,1005.49,32
149447588586,9952,132,0.00342653,-0.0200824,-0.198713,0.00461851,0.0133594,0.0195639,-0.00702685,0.00162152,-0.0249985,-0.0212335,-0.0299998,2.87504,-0.304091,0.192453,-9.65734,0.00143842,-0.00960345,-0.00153488,-0.17601,-0.060719,0.454586,1005.49,32
149457551739,9985,114,0.00342653,-0.0200824,-0.198713,0.00461851,0.0133594,0.0195639,-0.00702685,0.00162152,-0.0249985,-0.0212311,-0.0300028,2.87504,-0.322211,0.190833,-9.69287,0.00324423,-0.00971585,-0.00170279,-0.178265,-0.0627149,0.454166,1005.49,32
149467571278,10010,124,0.00371643,-0.0201622,-0.198983,0.0148428,-0.00408583,-0.0138191,-0.00510881,0.00324344,-0.0234537,-0.0212236,-0.0300173,2.87504,-0.322473,0.21483,-9.64295,0.00250206,-0.00950414,-0.00156994,-0.179669,-0.0627235,0.455253,1005.49,32
149477552509,9986,116,0.00371643,-0.0201622,-0.198983,0.0148428,-0.00408583,-0.0138191,-0.00510881,0.00324344,-0.0234537,-0.0212218,-0.0300225,2.87505,-0.301311,0.191375,-9.67529,0.00143845,-0.00950092,-0.00153403,-0.178388,-0.0644041,0.455276,1005.47,32
149488252278,10683,136,0.0036214,-0.020059,-0.198985,-0.00486538,0.00528593,-0.000112915,-0.00424875,0.00474485,-0.0235585,-0.021222,-0.0300277,2.87505,-0.31804,0.195604,-9.69622,0.00229258,-0.0104596,-0.00146058,-0.177825,-0.0624048,0.455354,1005.47,32
149497781739,9543,125,0.0036214,-0.020059,-0.198985,-0.00486538,0.00528593,-0.000112915,-0.00424875,0.00474485,-0.0235585,-0.0212205,-0.03003,2.87506,-0.31804,0.195604,-9.69622,0.00229258,-0.0104596,-0.00146058,-0.177825,-0.0624048,0.455354,1005.47,32
149507782816,10001,124,0.00366675,-0.0201111,-0.198909,0.00221128,-0.00254377,0.00372896,-0.00422385,0.00446181,-0.0228347,-0.0212203,-0.0300307,2.87507,-0.298701,0.20137,-9.66937,0.00121918,-0.00907299,-0.00173249,-0.177315,-0.0601722,0.456236,1005.47,32
149517553124,9780,114,0.00366675,-0.0201111,-0.198909,0.00221128,-0.00254377,0.00372896,-0.00422385,0.00446181,-0.0228347,-0.0212323,-0.0300353,2.87507,-0.309046,0.200226,-9.67206,0.0010833,-0.0104499,-0.00259474,-0.177377,-0.060637,0.454393,1005.47,32
149528063124,10504,121,0.00360829,-0.0200434,-0.198958,-0.0029932,0.00346622,-0.00253448,-0.00490397,0.00439319,-0.0238206,-0.0212479,-0.030042,2.87507,-0.312464,0.210568,-9.67974,0.000385606,-0.00950355,-0.00117894,-0.177921,-0.0628009,0.454874,1005.52,32
149538150124,10096,111,0.00360829,-0.0200434,-0.198958,-0.0029932,0.00346622,-0.00253448,-0.00490397,0.00439319,-0.0238206,-0.0212528,-0.0300429,2.87507,-0.295655,0.20862,-9.6777,0.00162571,-0.0102407,-0.00229117,-0.175498,-0.0628868,0.455512,1005.52,32
149547749124,9576,134,0.00363557,-0.0201173,-0.199096,0.00133035,-0.00360153,-0.00670369,-0.00337529,0.00500507,-0.0235923,-0.0212559,-0.0300483,2.87507,-0.301764,0.213088,-9.6658,0.00228859,-0.00950825,-0.00156277,-0.178051,-0.0613682,0.45577,1005.56,32
149557557509,9816,125,0.00363557,-0.0201173,-0.199096,0.00133035,-0.00360153,-0.00670369,-0.00337529,0.00500507,-0.0235923,-0.021254,-0.0300509,2.87508,-0.302276,0.205538,-9.68908,0.00175742,-0.0099218,-0.00154827,-0.176377,-0.0613669,0.455554,1005.56,32
149567803278,10247,126,0.00364927,-0.0201393,-0.199003,0.000701356,-0.00112839,0.00475616,-0.00352724,0.00453532,-0.0230564,-0.0212578,-0.0300527,2.87508,-0.302276,0.205538,-9.68908,0.00175742,-0.0099218,-0.00154827,-0.176377,-0.0613669,0.455554,1005.56,32
149577545278,9756,111,0.00364927,-0.0201393,-0.199003,0.000701356,-0.00112839,0.00475616,-0.00352724,0.00453532,-0.0230564,-0.0212654,-0.030053,2.87508,-0.324939,0.227326,-9.68034,0.00164081,-0.00939189,-0.00185689,-0.179787,-0.064414,0.456524,1005.46,32
149587586047,10026,125,0.00367767,-0.0201405,-0.19897,0.00138521,-5.51315e-05,0.00161453,-0.00509295,0.00343652,-0.0234792,-0.0212726,-0.0300458,2.87504,-0.314641,0.206476,-9.67337,0.00139189,-0.00864265,-0.00291423,-0.176912,-0.0643936,0.453946,1005.46,32
149598211585,10639,114,0.00367767,-0.0201405,-0.19897,0.00138521,-5.51315e-05,0.00161453,-0.00509295,0.00343652,-0.0234792,-0.0212745,-0.0300415,2.87504,-0.303026,0.202116,-9.67049,0.00238677,-0.00939191,-0.00187955,-0.179315,-0.065132,0.456262,1005.46,32
149607634970,9413,123,0.00363906,-0.0200574,-0.199045,-0.00197692,0.00424976,-0.00383835,-0.00514727,0.00260054,-0.0239633,-0.0212733,-0.0300384,2.87504,-0.30927,0.21406,-9.72745,0.00246621,-0.00938572,-0.00263262,-0.174936,-0.0624875,0.455576,1005.46,32
149617552432,9924,115,0.00363906,-0.0200574,-0.199045,-0.00197692,0.00424976,-0.00383835,-0.00514727,0.00260054,-0.0239633,-0.0212729,-0.0300378,2.87503,-0.30927,0.21406,-9.72745,0.00246621,-0.00938572,-0.00263262,-0.174936,-0.0624875,0.455576,1005.46,32
149627570970,10008,124,0.00371702,-0.0201073,-0.199043,0.00380121,-0.00242996,9.3006e-05,-0.00510723,0.00347918,-0.0239151,-0.0212806,-0.0300385,2.87504,-0.309919,0.185633,-9.67668,0.00334448,-0.00864796,-0.00191179,-0.179336,-0.0632868,0.455638,1005.46,32
149637554432,9993,114,0.00371702,-0.0201073,-0.199043,0.00380121,-0.00242996,9.3006e-05,-0.00510723,0.00347918,-0.0239151,-0.0212812,-0.0300379,2.87503,-0.309919,0.185633,-9.67668,0.00334448,-0.00864796,-0.00191179,-0.179336,-0.0632868,0.455638,1005.46,32
149647570585,10010,121,0.00369156,-0.0200993,-0.198989,-0.0013032,0.000407791,0.00277252,-0.00487254,0.00410735,-0.0235484,-0.0212798,-0.030035,2.87503,-0.309905,0.21801,-9.67008,0.00160902,-0.00939304,-0.0017156,-0.179933,-0.0623176,0.454545,1005.46,32
149657721893,10161,113,0.00369156,-0.0200993,-0.198989,-0.0013032,0.000407791,0.00277252,-0.00487254,0.00410735,-0.0235484,-0.0212838,-0.0300362,2.87503,-0.303383,0.211884,-9.66581,0.00289176,-0.00949214,-0.00264785,-0.178284,-0.0640101,0.455997,1005.52,32
149667710739,9979,123,0.00346995,-0.0199895,-0.199007,-0.0108062,0.00535574,-0.000887916,-0.00440302,0.00416445,-0.0239357,-0.0212835,-0.0300309,2.87504,-0.307224,0.188454,-9.66726,0.00111609,-0.0093945,-0.00152228,-0.177358,-0.0595216,0.454962,1005.52,32
149677603124,9902,114,0.00346995,-0.0199895,-0.199007,-0.0108062,0.00535574,-0.000887916,-0.00440302,0.00416445,-0.0239357,-0.021286,-0.0300254,2.87505,-0.307224,0.188454,-9.66726,0.00111609,-0.0093945,-0.00152228,-0.177358,-0.0595216,0.454962,1005.52,32
149687725739,10112,124,0.00360264,-0.0200165,-0.199089,0.00679352,-0.00138302,-0.00420837,-0.00323175,0.00565545,-0.0230461,-0.0212923,-0.0300224,2.87505,-0.314411,0.205122,-9.65946,0.00193875,-0.0103405,-0.0025213,-0.177596,-0.0621622,0.455028,1005.56,32
149697568432,9835,129,0.00360264,-0.0200165,-0.199089,0.00679352,-0.00138302,-0.00420837,-0.00323175,0.00565545,-0.0230461,-0.0212986,-0.0300234,2.87505,-0.314411,0.205122,-9.65946,0.00193875,-0.0103405,-0.0025213,-0.177596,-0.0621622,0.455028,1005.56,32
149708172893,10611,125,0.00369106,-0.0200919,-0.199029,0.00431174,-0.00367619,0.00293768,-0.00533205,0.00279754,-0.0237422,-0.0213021,-0.0300212,2.87506,-0.293028,0.192296,-9.67082,0.00239944,-0.0090762,-0.00145636,-0.179704,-0.061595,0.454223,1005.56,32
149717545355,9388,112,0.00369106,-0.0200919,-0.199029,0.00431174,-0.00367619,0.00293768,-0.00533205,0.00279754,-0.0237422,-0.0213,-0.0300148,2.87507,-0.318966,0.200825,-9.68892,0.00218533,-0.0103528,-0.00156626,-0.180627,-0.0645641,0.455351,1005.56,32
149727935201,10379,120,0.00369106,-0.0200919,-0.199029,0.00431174,-0.00367619,0.00293768,-0.00533205,0.00279754,-0.0237422,-0.0213004,-0.0300184,2.87507,-0.301644,0.190062,-9.69027,0.00219565,-0.00939798,-0.00113624,-0.180468,-0.0604036,0.4553,1005.52,32
149737559432,9624,122,0.00377631,-0.0200238,-0.198968,0.00436459,0.00348787,0.00310669,-0.00525461,0.00323761,-0.023124,-0.0213024,-0.0300176,2.87509,-0.301644,0.190062,-9.69027,0.00219565,-0.00939798,-0.00113624,-0.180468,-0.0604036,0.4553,1005.52,32
149747697355,10134,125,0.00392078,-0.0203431,-0.199359,0.00704481,-0.0155704,-0.0190575,-0.00432208,0.00126704,-0.02283,-0.0213018,-0.0300203,2.87509,-0.304952,0.198809,-9.67648,0.00130589,-0.00906702,-0.00226928,-0.179151,-0.0596928,0.456382,1005.55,32
149757620432,9933,116,0.00392078,-0.0203431,-0.199359,0.00704481,-0.0155704,-0.0190575,-0.00432208,0.00126704,-0.02283,-0.0213064,-0.0300254,2.87511,-0.304952,0.198809,-9.67648,0.00130589,-0.00906702,-0.00226928,-0.179151,-0.0596928,0.456382,1005.55,32
149767573508,9941,126,0.00382751,-0.0200868,-0.199039,-0.0047756,0.0131227,0.0164063,-0.00432388,0.00359891,-0.0238251,-0.0213097,-0.0300162,2.87512,-0.312251,0.188185,-9.68763,0.00259439,-0.00832768,-0.00188281,-0.175895,-0.0599276,0.455629,1005.55,32
149777601893,10041,116,0.00382751,-0.0200868,-0.199039,-0.0047756,0.0131227,0.0164063,-0.00432388,0.00359891,-0.0238251,-0.0213028,-0.0300099,2.87512,-0.310549,0.182123,-9.71637,0.00215458,-0.00842604,-0.00250968,-0.178671,-0.0641536,0.454007,1005.52,32
149787868508,10267,116,0.00366642,-0.0207661,-0.199668,-0.00785501,-0.0331268,-0.0306876,-0.00188179,-0.00107893,-0.0209936,-0.0212999,-0.0300111,2.87511,-0.323889,0.205001,-9.68298,0.00143414,-0.0115219,-0.00166184,-0.178671,-0.0641536,0.454007,1005.52,32
149797553124,9683,113,0.00366642,-0.0207661,-0.199668,-0.00785501,-0.0331268,-0.0306876,-0.00188179,-0.00107893,-0.0209936,-0.0213036,-0.0300207,2.87511,-0.288435,0.206106,-9.69226,0.0022897,-0.00907327,-0.00155922,-0.179443,-0.0637602,0.454837,1005.52,32
149807763662,10202,124,0.00392787,-0.0208185,-0.199767,0.0133863,-0.00268364,-0.00509033,-0.00108481,-0.0020459,-0.0199779,-0.0213042,-0.0300175,2.8751,-0.292232,0.173542,-9.68885,0.00213754,-0.00938227,-0.00304077,-0.178297,-0.0632068,0.455603,1005.52,32
149817697970,9949,111,0.00392787,-0.0208185,-0.199767,0.0133863,-0.00268364,-0.00509033,-0.00108481,-0.0020459,-0.0199779,-0.0213028,-0.0300164,2.8751,-0.292232,0.173542,-9.68885,0.00213754,-0.00938227,-0.00304077,-0.178297,-0.0632068,0.455603,1005.52,32
149827827508,10118,121,0.00369216,-0.0201005,-0.199018,-0.0114937,0.0350116,0.0365477,-0.00487296,0.00327511,-0.0236228,-0.0212976,-0.0300176,2.87509,-0.311965,0.209836,-9.67932,0.00342256,-0.00938572,-0.00266488,-0.178577,-0.061197,0.454429,1005.54,32
149837955278,10140,111,0.00369216,-0.0201005,-0.199018,-0.0114937,0.0350116,0.0365477,-0.00487296,0.00327511,-0.0236228,-0.021296,-0.0300185,2.87508,-0.305604,0.210911,-9.6584,0.00141336,-0.00938836,-0.00227766,-0.179838,-0.0640015,0.455008,1005.54,32
149847582816,9599,133,0.00370336,-0.0201041,-0.199177,0.00057323,-0.000180054,-0.00813065,-0.00397731,0.0039817,-0.0245784,-0.0212964,-0.0300162,2.87508,-0.295156,0.203036,-9.66965,0.00175386,-0.00939275,-0.00175594,-0.178861,-0.0594456,0.455493,1005.54,32
149857786893,10212,128,0.00370336,-0.0201041,-0.199177,0.00057323,-0.000180054,-0.00813065,-0.00397731,0.0039817,-0.0245784,-0.0212955,-0.0300146,2.87508,-0.294438,0.205642,-9.64231,0.00193781,-0.00949185,-0.00261566,-0.178894,-0.0617576,0.454515,1005.57,32
149867579816,9791,127,0.00361429,-0.0202894,-0.19883,-0.00434315,-0.00903938,0.016914,-0.00527393,0.00575154,-0.0235209,-0.0213,-0.0300185,2.87508,-0.286698,0.186637,-9.68245,0.00376551,-0.00928379,-0.00203456,-0.179629,-0.0599137,0.454075,1005.57,32
149877558124,9988,118,0.00361429,-0.0202894,-0.19883,-0.00434315,-0.00903938,0.016914,-0.00527393,0.00575154,-0.0235209,-0.0212929,-0.0300143,2.87509,-0.286698,0.186637,-9.68245,0.00376551,-0.00928379,-0.00203456,-0.179629,-0.0599137,0.454075,1005.57,32
149887579431,10012,128,0.00362207,-0.0200294,-0.199003,0.000398469,0.0133132,-0.00889664,-0.0032989,0.00516601,-0.0224455,-0.0212883,-0.0300068,2.8751,-0.305987,0.21106,-9.6498,0.0014315,-0.00864497,-0.00174018,-0.17997,-0.0620882,0.455829,1005.45,32
149898121355,10557,118,0.00362207,-0.0200294,-0.199003,0.000398469,0.0133132,-0.00889664,-0.0032989,0.00516601,-0.0224455,-0.0212932,-0.0300029,2.8751,-0.313837,0.19827,-9.67256,0.00140272,-0.00896417,-0.00259326,-0.179037,-0.0602416,0.455012,1005.45,32
149907667816,9535,125,0.00367197,-0.0200411,-0.199155,0.0024333,-0.000568753,-0.00739107,-0.00473498,0.00247678,-0.0237036,-0.0212932,-0.0300029,2.8751,-0.318183,0.210211,-9.6651,0.00142035,-0.0101338,-0.00207054,-0.179341,-0.0608056,0.455498,1005.45,32
149917549355,9892,117,0.00367197,-0.0200411,-0.199155,0.0024333,-0.000568753,-0.00739107,-0.00473498,0.00247678,-0.0237036,-0.0213111,-0.0299994,2.87513,-0.296873,0.227112,-9.65076,0.00140266,-0.00917484,-0.002595,-0.179514,-0.0587223,0.455121,1005.45,32
149927578816,10015,127,0.00358149,-0.0200985,-0.199092,-0.00463252,-0.00294199,0.00321732,-0.00364322,0.00404921,-0.0235965,-0.0213148,-0.0299992,2.87513,-0.296873,0.227112,-9.65076,0.00140266,-0.00917484,-0.002595,-0.179514,-0.0587223,0.455121,1005.45,32
149937559201,9992,117,0.00358149,-0.0200985,-0.199092,-0.00463252,-0.00294199,0.00321732,-0.00364322,0.00404921,-0.0235965,-0.0213261,-0.0299958,2.87515,-0.310242,0.179744,-9.64452,0.00185255,-0.00939096,-0.00197612,-0.182003,-0.0594397,0.454879,1005.49,32
149947861816,10300,122,0.00348905,-0.020095,-0.19895,-0.00450784,0.000172388,0.00694784,-0.00522952,0.00419416,-0.0248316,-0.0213225,-0.029995,2.87515,-0.325512,0.199702,-9.66181,0.00246642,-0.0086363,-0.00262644,-0.178762,-0.0606502,0.45604,1005.49,32
149957742739,9892,113,0.00348905,-0.020095,-0.19895,-0.00450784,0.000172388,0.00694784,-0.00522952,0.00419416,-0.0248316,-0.0213153,-0.0299932,2.87516,-0.322015,0.20087,-9.6641,0.00250208,-0.00981795,-0.00156932,-0.179485,-0.0620095,0.455974,1005.53,32
149967887816,10133,123,0.00339702,-0.0203591,-0.19914,-0.00471168,-0.013523,-0.00974655,-0.00279666,0.00115004,-0.0218943,-0.0213045,-0.0299959,2.87516,-0.307124,0.185643,-9.70572,0.00172738,-0.0093866,-0.00250086,-0.179406,-0.0639294,0.455955,1005.53,32
149977555739,9668,120,0.00339702,-0.0203591,-0.19914,-0.00471168,-0.013523,-0.00974655,-0.00279666,0.00115004,-0.0218943,-0.0213045,-0.0299987,2.87516,-0.307124,0.185643,-9.70572,0.00172738,-0.0093866,-0.00250086,-0.179406,-0.0639294,0.455955,1005.53,32
149987575278,10015,125,0.00364007,-0.0200432,-0.199135,0.0124438,0.0161744,0.000256348,-0.00443823,0.00283008,-0.0240023,-0.0213067,-0.0300035,2.87517,-0.30319,0.222089,-9.68188,0.00195204,-0.0104543,-0.00209166,-0.178261,-0.0600155,0.456669,1005.47,32
149997549816,9987,114,0.00364007,-0.0200432,-0.199135,0.0124438,0.0161744,0.000256348,-0.00443823,0.00283008,-0.0240023,-0.0213097,-0.0300094,2.87518,-0.322781,0.202918,-9.68112,0.00239542,-0.00992659,-0.00156983,-0.178377,-0.0624068,0.455613,1005.47,32
150007570354,10010,125,0.00369168,-0.0202354,-0.199073,0.00251702,-0.00937235,0.00304231,-0.00486407,0.00335906,-0.0230986,-0.0213064,-0.030011,2.8752,-0.302441,0.180123,-9.67368,0.00195286,-0.00939011,-0.00208343,-0.17877,-0.0595282,0.45581,1005.47,32
150017570124,9998,122,0.00369168,-0.0202354,-0.199073,0.00251702,-0.00937235,0.00304231,-0.00486407,0.00335906,-0.0230986,-0.0213009,-0.0300103,2.8752,-0.324187,0.194033,-9.67712,0.00248754,-0.0099187,-0.00200069,-0.179759,-0.059281,0.454965,1005.47,32
150028210277,10645,124,0.00353875,-0.0199748,-0.199081,-0.00783036,0.013346,-0.000448608,-0.00431767,0.00318805,-0.023917,-0.021296,-0.030011,2.8752,-0.307963,0.215534,-9.67417,0.00237294,-0.00938836,-0.00230953,-0.177577,-0.0630468,0.45558,1005.47,32
150038084201,9886,112,0.00353875,-0.0199748,-0.199081,-0.00783036,0.013346,-0.000448608,-0.00431767,0.00318805,-0.023917,-0.0212918,-0.0300099,2.87521,-0.308271,0.193518,-9.67573,0.002802,-0.00960336,-0.00211251,-0.180537,-0.0592863,0.455631,1005.53,32
150047628508,9532,124,0.00363124,-0.0201003,-0.199124,0.00450999,-0.00612023,-0.00209118,-0.00461465,0.0051528,-0.0247943,-0.0212776,-0.0300092,2.87523,-0.315656,0.195163,-9.67428,0.00173337,-0.00938744,-0.00239961,-0.179411,-0.0600684,0.453426,1005.53,32
150057557047,9933,117,0.00363124,-0.0201003,-0.199124,0.00450999,-0.00612023,-0.00209118,-0.00461465,0.0051528,-0.0247943,-0.0212749,-0.0300113,2.87524,-0.315656,0.195163,-9.67428,0.00173337,-0.00938744,-0.00239961,-0.179411,-0.0600684,0.453426,1005.53,32
150067570893,10008,123,0.0038214,-0.0203056,-0.199274,0.00973616,-0.0105122,-0.00764618,-0.00392152,0.00286218,-0.0228132,-0.021276,-0.0300152,2.87525,-0.319212,0.20137,-9.66702,0.00161529,-0.00970506,-0.00260654,-0.18115,-0.0601728,0.456445,1005.49,32
150077548354,9988,113,0.0038214,-0.0203056,-0.199274,0.00973616,-0.0105122,-0.00764618,-0.00392152,0.00286218,-0.0228132,-0.0212815,-0.0300177,2.87526,-0.31703,0.199607,-9.71571,0.00155567,-0.00960983,-0.00121969,-0.179336,-0.0612069,0.455655,1005.49,32
150087580816,10014,130,0.00344128,-0.0204365,-0.199331,-0.018535,-0.00638308,-0.00277928,-0.00153751,0.000887322,-0.021532,-0.021282,-0.0300169,2.87526,-0.31703,0.199607,-9.71571,0.00155567,-0.00960983,-0.00121969,-0.179336,-0.0612069,0.455655,1005.49,32
150097559970,9990,118,0.00344128,-0.0204365,-0.199331,-0.018535,-0.00638308,-0.00277928,-0.00153751,0.000887322,-0.021532,-0.0212859,-0.0300211,2.87527,-0.321295,0.209305,-9.7013,0.00162703,-0.00970907,-0.00228858,-0.177693,-0.0594575,0.456895,1005.55,32
150107663277,10107,119,0.00362041,-0.0200537,-0.198875,0.00917151,0.0195971,0.0233131,-0.00404342,0.00487303,-0.0226941,-0.0212896,-0.0300223,2.87527,-0.305747,0.200268,-9.71429,0.00204927,-0.00930335,-0.00199677,-0.179942,-0.0635956,0.454295,1005.55,32
150118052662,10393,113,0.00362041,-0.0200537,-0.198875,0.00917151,0.0195971,0.0233131,-0.00404342,0.00487303,-0.0226941,-0.0212946,-0.030022,2.87528,-0.305747,0.200268,-9.71429,0.00204927,-0.00930335,-0.00199677,-0.179942,-0.0635956,0.454295,1005.55,32
150128177431,10116,124,0.00368583,-0.0200863,-0.199093,0.00318975,-0.00158673,-0.0106354,-0.00471804,0.00363338,-0.0241799,-0.0212954,-0.0300257,2.87528,-0.321236,0.213791,-9.67075,0.00246989,-0.00960043,-0.0025237,-0.177768,-0.0610587,0.457044,1005.55,32
150137555816,9382,119,0.00368583,-0.0200863,-0.199093,0.00318975,-0.00158673,-0.0106354,-0.00471804,0.00363338,-0.0241799,-0.0212919,-0.0300299,2.87528,-0.310462,0.202541,-9.65742,0.00248799,-0.00832251,-0.00198711,-0.17992,-0.0607209,0.454958,1005.52,32
150147831047,10274,121,0.00386247,-0.0201365,-0.199121,0.00904396,-0.00256948,-0.00143356,-0.00565716,0.00236879,-0.0239433,-0.0212822,-0.0300298,2.87528,-0.315425,0.208138,-9.67536,0.00301474,-0.00917608,-0.00211535,-0.178208,-0.0620088,0.45585,1005.52,32
150157550970,9728,111,0.00386247,-0.0201365,-0.199121,0.00904396,-0.00256948,-0.00143356,-0.00565716,0.00236879,-0.0239433,-0.0212767,-0.0300279,2.87529,-0.315425,0.208138,-9.67536,0.00301474,-0.00917608,-0.00211535,-0.178208,-0.0620088,0.45585,1005.52,32
150167584508,10011,128,0.00359238,-0.0200774,-0.198896,-0.0131703,0.00287973,0.0109921,-0.00467414,0.00361054,-0.02421,-0.0212669,-0.0300286,2.87528,-0.315425,0.208138,-9.67536,0.00301474,-0.00917608,-0.00211535,-0.178208,-0.0620088,0.45585,1005.52,32
150177727354,10168,111,0.00359238,-0.0200774,-0.198896,-0.0131703,0.00287973,0.0109921,-0.00467414,0.00361054,-0.02421,-0.0212627,-0.0300372,2.87528,-0.32363,0.223875,-9.67074,0.00193871,-0.0104508,-0.00251474,-0.176591,-0.0628134,0.45635,1005.5,32
150187565508,9824,122,0.00349422,-0.0204292,-0.199186,-0.00502536,-0.018011,-0.0148651,-0.0021235,0.00123122,-0.0210271,-0.0212611,-0.0300487,2.87528,-0.299069,0.202405,-9.62244,0.00217928,-0.00992783,-0.00166803,-0.17771,-0.0630534,0.456385,1005.54,32
150197852354,10279,132,0.00349422,-0.0204292,-0.199186,-0.00502536,-0.018011,-0.0148651,-0.0021235,0.00123122,-0.0210271,-0.0212615,-0.0300492,2.87528,-0.299069,0.202405,-9.62244,0.00217928,-0.00992783,-0.00166803,-0.17771,-0.0630534,0.456385,1005.54,32
150207570585,9727,121,0.00346033,-0.0204809,-0.199327,-0.00165288,-0.00252006,-0.0068403,-0.00186034,0.00215217,-0.0210613,-0.0212636,-0.0300516,2.87528,-0.29778,0.198256,-9.67243,0.00247663,-0.00948949,-0.00232382,-0.176507,-0.0597742,0.456452,1005.54,32
150217554200,9986,118,0.00346033,-0.0204809,-0.199327,-0.00165288,-0.00252006,-0.0068403,-0.00186034,0.00215217,-0.0210613,-0.0212628,-0.0300536,2.87529,-0.29778,0.198256,-9.67243,0.00247663,-0.00948949,-0.00232382,-0.176507,-0.0597742,0.456452,1005.54,32
