# Time(ns),period(us),execution,x,y,z,Vx,Vy,Vz,roll_OT,pitch_OT,yaw_OT,roll_PX4,pitch_PX4,yaw_PX4,imu_acc_x,imu_acc_y,imu_acc_z,imu_gyr_x,imu_gyr_y,imu_gyr_z,imu_mag_x,imu_mag_y,imu_mag_z,imu_absolute_pressure,ultrasonic_distance
62089189648,9919,127,-1.71862,0.0179867,-0.427399,0,0,0,-0.0472769,0.00618223,0.0366516,-0.0312441,-0.0268681,2.82309,-0.282794,0.291822,-9.72712,0.000411928,-0.00514654,-0.000398618,-0.163904,-0.0757229,0.478869,1011.41,0
62099144186,9964,119,-1.71859,0.0180444,-0.427321,0.00127563,0.00295506,0.0039856,-0.0477948,0.00735798,0.0367698,-0.031248,-0.0268726,2.82308,-0.28266,0.295974,-9.76085,0.000905328,-0.00513776,-0.00148005,-0.166155,-0.0708398,0.478585,1011.5,26
62109132725,9978,127,-1.71859,0.0180444,-0.427321,0.00127563,0.00295506,0.0039856,-0.0477948,0.00735798,0.0367698,-0.0312504,-0.0268819,2.8231,-0.291093,0.323843,-9.7395,0.00146464,-0.00503745,-0.000757616,-0.166852,-0.0746658,0.476896,1011.5,26
62119103186,9958,136,-1.71859,0.0180305,-0.427368,0.000127883,-0.000679198,-0.00231352,-0.047257,0.00892655,0.0364839,-0.0312501,-0.0268829,2.82309,-0.291093,0.323843,-9.7395,0.00146464,-0.00503745,-0.000757616,-0.166852,-0.0746658,0.476896,1011.5,26
62129151186,10019,148,-1.71859,0.0180305,-0.427368,0.000127883,-0.000679198,-0.00231352,-0.047257,0.00892655,0.0364839,-0.031251,-0.0268822,2.82308,-0.272655,0.280427,-9.70492,0.000837448,-0.00440161,-0.00040683,-0.166402,-0.0770783,0.478382,1011.44,26
62139444571,10345,119,-1.71859,0.0180184,-0.427384,0.00010376,-0.000619888,-0.00078125,-0.0475891,0.00799588,0.0360634,-0.0312525,-0.0268785,2.82308,-0.270935,0.309975,-9.74623,0.00149348,-0.00515093,9.72886e-05,-0.167735,-0.0745052,0.476847,1011.44,26
62149126878,9648,150,-1.71859,0.0180184,-0.427384,0.00010376,-0.000619888,-0.00078125,-0.0475891,0.00799588,0.0360634,-0.0312473,-0.0268742,2.82308,-0.270935,0.309975,-9.74623,0.00149348,-0.00515093,9.72886e-05,-0.167735,-0.0745052,0.476847,1011.44,26
62159077186,9986,117,-1.7186,0.0180082,-0.427427,-0.00046503,-0.000497001,-0.00210571,-0.0462491,0.00595742,0.0364593,-0.0312409,-0.0268698,2.82308,-0.278048,0.284962,-9.758,0.000394149,-0.00482769,-0.000925562,-0.167332,-0.0745058,0.476913,1011.49,26
62169742263,10644,137,-1.7186,0.0180082,-0.427427,-0.00046503,-0.000497001,-0.00210571,-0.0462491,0.00595742,0.0364593,-0.03124,-0.026868,2.82307,-0.23699,0.312585,-9.77601,0.000515613,-0.00514654,-0.000402117,-0.165042,-0.0735584,0.478365,1011.49,26
62179114494,9365,133,-1.7186,0.0180698,-0.427407,2.44141e-05,0.00315332,0.000997925,-0.0447426,0.00609164,0.0361629,-0.0312424,-0.0268657,2.82308,-0.23699,0.312585,-9.77601,0.000515613,-0.00514654,-0.000402117,-0.165042,-0.0735584,0.478365,1011.49,26
62189097878,9996,132,-1.7186,0.0180698,-0.427407,2.44141e-05,0.00315332,0.000997925,-0.0447426,0.00609164,0.0361629,-0.0312525,-0.0268667,2.82308,-0.285936,0.302215,-9.7311,0.000759373,-0.00515531,0.000654447,-0.166657,-0.0743544,0.477933,1011.49,26
62199065186,9990,111,-1.71858,0.0180043,-0.427387,0.000755673,-0.00319163,0.000964937,-0.0467844,0.0059573,0.0380936,-0.0312569,-0.0268697,2.82307,-0.286303,0.30841,-9.73535,0.00091383,-0.00556341,-0.00137404,-0.166274,-0.0756304,0.477429,1011.45,26
62209243801,10172,116,-1.71858,0.0180043,-0.427387,0.000755673,-0.00319163,0.000964937,-0.0467844,0.0059573,0.0380936,-0.0312617,-0.0268772,2.82305,-0.266681,0.297763,-9.75117,0.000311803,-0.00566613,-0.000399529,-0.165053,-0.0757157,0.478027,1011.45,26
62219109648,9836,143,-1.71859,0.0180405,-0.427436,-0.000585937,0.00185013,-0.00246429,-0.0460183,0.00719602,0.0363581,-0.0312631,-0.0268788,2.82305,-0.266681,0.297763,-9.75117,0.000311803,-0.00566613,-0.000399529,-0.165053,-0.0757157,0.478027,1011.45,26
62229105955,10002,136,-1.71859,0.0180405,-0.427436,-0.000585937,0.00185013,-0.00246429,-0.0460183,0.00719602,0.0363581,-0.0312743,-0.0268815,2.82305,-0.261525,0.309598,-9.75082,0.00113108,-0.00514328,-0.00106001,-0.166588,-0.0733118,0.477619,1011.45,26
62239102801,10010,127,-1.7186,0.0180785,-0.427446,-0.000342959,0.00185585,-0.000514439,-0.0462332,0.00748659,0.0360996,-0.031273,-0.0268791,2.82304,-0.274668,0.316146,-9.74288,0.000923311,-0.00502972,-0.000950929,-0.166412,-0.0737957,0.478089,1011.45,26
62249091417,9990,123,-1.7186,0.0180785,-0.427446,-0.000342959,0.00185585,-0.000514439,-0.0462332,0.00748659,0.0360996,-0.0312825,-0.0268808,2.82302,-0.28491,0.309896,-9.77089,0.000301895,-0.00440289,-0.000388769,-0.164054,-0.0759458,0.476791,1011.45,26
62259835648,10735,136,-1.71861,0.0180617,-0.427413,-0.000634766,-0.000863075,0.00171356,-0.0450435,0.00656723,0.0362293,-0.0312864,-0.026881,2.82302,-0.280402,0.300184,-9.75002,0.00168692,-0.00482664,-0.000438991,-0.166751,-0.0737111,0.477541,1011.48,26
62269151955,9275,162,-1.71861,0.0180617,-0.427413,-0.000634766,-0.000863075,0.00171356,-0.0450435,0.00656723,0.0362293,-0.0312823,-0.0268819,2.82303,-0.280402,0.300184,-9.75002,0.00168692,-0.00482664,-0.000438991,-0.166751,-0.0737111,0.477541,1011.48,26
62279132109,9997,142,-1.71859,0.0180262,-0.427404,0.000860305,-0.00173033,0.000435965,-0.0477704,0.0081409,0.0359737,-0.0312757,-0.0268859,2.82301,-0.280402,0.300184,-9.75002,0.00168692,-0.00482664,-0.000438991,-0.166751,-0.0737111,0.477541,1011.48,26
62289204955,10100,133,-1.71859,0.0180262,-0.427404,0.000860305,-0.00173033,0.000435965,-0.0477704,0.0081409,0.0359737,-0.0312757,-0.0268859,2.82301,-0.280402,0.300184,-9.75002,0.00168692,-0.00482664,-0.000438991,-0.166751,-0.0737111,0.477541,1011.48,26
62299141340,9910,146,-1.7186,0.0180361,-0.427453,-0.000244141,0.000505066,-0.00254364,-0.0474504,0.0066595,0.0357766,-0.0312729,-0.0268885,2.82299,-0.280402,0.300184,-9.75002,0.00168692,-0.00482664,-0.000438991,-0.166751,-0.0737111,0.477541,1011.48,26
62309096340,9983,128,-1.7186,0.0180361,-0.427453,-0.000244141,0.000505066,-0.00254364,-0.0474504,0.0066595,0.0357766,-0.0312729,-0.0268885,2.82299,-0.280402,0.300184,-9.75002,0.00168692,-0.00482664,-0.000438991,-0.166751,-0.0737111,0.477541,1011.48,26
62319070801,9988,115,-1.71861,0.0180348,-0.42744,-0.000418527,-5.99452e-05,0.000653948,-0.0462593,0.00738754,0.0365534,-0.0312656,-0.026879,2.82298,-0.272906,0.323579,-9.71997,0.000820374,-0.00450162,-0.000830092,-0.16546,-0.0725138,0.477827,1011.51,26
62329240032,10171,116,-1.71861,0.0180348,-0.42744,-0.000418527,-5.99452e-05,0.000653948,-0.0462593,0.00738754,0.0365534,-0.0312736,-0.0268796,2.82299,-0.275585,0.273415,-9.69993,0.000648106,-0.00515267,0.000337545,-0.166787,-0.0736417,0.478823,1011.51,26
62339346494,10110,112,-1.71874,0.0185195,-0.42714,-0.006604,0.0248167,0.0153564,-0.0554525,0.00892963,0.0341355,-0.0312785,-0.0268815,2.82299,-0.26135,0.291685,-9.73125,0.000843063,-0.00546395,-0.00041578,-0.165485,-0.0735478,0.477099,1011.45,26
62349700571,10353,114,-1.71874,0.0185195,-0.42714,-0.006604,0.0248167,0.0153564,-0.0554525,0.00892963,0.0341355,-0.0312787,-0.0268843,2.82299,-0.270803,0.293599,-9.74139,0.000953851,-0.00461899,-0.000199578,-0.166927,-0.0758671,0.477049,1011.45,26
62359061955,9366,111,-1.71858,0.018077,-0.427446,0.00762649,-0.0215808,-0.0149318,-0.0456062,0.00766503,0.0366884,-0.0312764,-0.0268854,2.82299,-0.270803,0.293599,-9.74139,0.000953851,-0.00461899,-0.000199578,-0.166927,-0.0758671,0.477049,1011.45,26
62369093571,10012,122,-1.71858,0.018077,-0.427446,0.00762649,-0.0215808,-0.0149318,-0.0456062,0.00766503,0.0366884,-0.0312758,-0.0268848,2.82297,-0.265981,0.316227,-9.74825,0.00204203,-0.00515531,0.000611179,-0.165047,-0.0777778,0.475849,1011.49,26
62379544571,10465,115,-1.71861,0.0180185,-0.427463,-0.00158081,-0.00299053,-0.000862122,-0.0476855,0.00782991,0.0365852,-0.0312693,-0.0268786,2.82297,-0.252966,0.333197,-9.7546,0.00254319,-0.00408327,-0.000350735,-0.165511,-0.075641,0.478684,1011.49,26
62389087109,9530,122,-1.71861,0.0180185,-0.427463,-0.00158081,-0.00299053,-0.000862122,-0.0476855,0.00782991,0.0365852,-0.0312722,-0.0268787,2.82297,-0.274437,0.317728,-9.78634,0.000400919,-0.0062081,-0.000724969,-0.165703,-0.0776138,0.475392,1011.49,26
62399644032,10551,132,-1.71874,0.0185013,-0.427169,-0.00614421,0.0235419,0.0143607,-0.0578089,0.00974287,0.03559,-0.0312761,-0.0268828,2.82298,-0.281316,0.326392,-9.77015,0.000944967,-0.00461852,-0.000305091,-0.166534,-0.072605,0.479224,1011.49,26
62409287417,9652,127,-1.71874,0.0185013,-0.427169,-0.00614421,0.0235419,0.0143607,-0.0578089,0.00974287,0.03559,-0.0312817,-0.026883,2.82297,-0.273721,0.305342,-9.76423,0.000511271,-0.00482352,-0.000614142,-0.165989,-0.0766016,0.478772,1011.47,26
62419070186,9790,116,-1.71858,0.0180278,-0.427435,0.00778198,-0.0242435,-0.0136414,-0.0465345,0.00644214,0.0371113,-0.0312863,-0.0268802,2.82295,-0.268146,0.29598,-9.73483,0.000521686,-0.00514742,-0.00029603,-0.165352,-0.0754612,0.476278,1011.47,26
62429090186,10012,125,-1.71858,0.0180278,-0.427435,0.00778198,-0.0242435,-0.0136414,-0.0465345,0.00644214,0.0371113,-0.0312867,-0.0268804,2.82295,-0.268146,0.29598,-9.73483,0.000521686,-0.00514742,-0.00029603,-0.165352,-0.0754612,0.476278,1011.47,26
62439072109,9985,121,-1.71859,0.01803,-0.427428,-0.000127883,0.000106085,0.000324068,-0.0461458,0.00711478,0.0365382,-0.0312929,-0.0268855,2.82296,-0.259943,0.301434,-9.76121,0.00166404,-0.00514218,-0.00097035,-0.166613,-0.0728861,0.474501,1011.47,26
62449201647,10125,126,-1.71859,0.01803,-0.427428,-0.000127883,0.000106085,0.000324068,-0.0461458,0.00711478,0.0365382,-0.0312973,-0.0268902,2.82297,-0.2663,0.307662,-9.72962,0.00146467,-0.00514388,-0.000756632,-0.167475,-0.0714699,0.477424,1011.47,26
62459074878,9876,119,-1.7188,0.0185769,-0.427111,-0.0110107,0.0280034,0.0162704,-0.0576613,0.00832728,0.0350254,-0.031295,-0.0268902,2.82298,-0.2663,0.307662,-9.72962,0.00146467,-0.00514388,-0.000756632,-0.167475,-0.0714699,0.477424,1011.47,26
62469097571,10015,128,-1.7188,0.0185769,-0.427111,-0.0110107,0.0280034,0.0162704,-0.0576613,0.00832728,0.0350254,-0.0312969,-0.0268903,2.82298,-0.287124,0.326743,-9.7717,0.00115829,-0.00408325,-0.00030641,-0.168388,-0.0750618,0.476464,1011.47,26
62479209340,10127,116,-1.7186,0.0180588,-0.427429,0.00963774,-0.0252668,-0.0155349,-0.0459122,0.00739585,0.0365864,-0.0313105,-0.0268827,2.82298,-0.25096,0.325966,-9.75277,0.00121971,-0.00515977,0.00117918,-0.164304,-0.0753229,0.478886,1011.47,26
62489615417,10411,113,-1.7186,0.0180588,-0.427429,0.00963774,-0.0252668,-0.0155349,-0.0459122,0.00739585,0.0365864,-0.0313152,-0.026879,2.82298,-0.253701,0.303725,-9.76667,0.000947328,-0.00514833,-0.000199019,-0.165397,-0.0774095,0.479706,1011.47,26
62499284340,9666,114,-1.71859,0.0180159,-0.427429,0.000994873,-0.00219564,3.05176e-05,-0.0458337,0.00714742,0.0368804,-0.0313174,-0.0268759,2.82296,-0.254626,0.317624,-9.77228,0.00147545,-0.00546433,-0.000437119,-0.165397,-0.0774095,0.479706,1011.47,26
62509247801,9958,118,-1.71859,0.0180159,-0.427429,0.000994873,-0.00219564,3.05176e-05,-0.0458337,0.00714742,0.0368804,-0.0313173,-0.0268762,2.82295,-0.265258,0.286644,-9.7745,0.00147554,-0.00514654,-0.000434501,-0.165735,-0.0770049,0.47916,1011.46,26
62519704340,10451,126,-1.7186,0.0181257,-0.427437,-0.000953311,0.00535465,-0.000399635,-0.0481354,0.00898047,0.0370805,-0.0313124,-0.0268818,2.82293,-0.265258,0.286644,-9.7745,0.00147554,-0.00514654,-0.000434501,-0.165735,-0.0770049,0.47916,1011.46,26
62529094186,9384,126,-1.7186,0.0181257,-0.427437,-0.000953311,0.00535465,-0.000399635,-0.0481354,0.00898047,0.0370805,-0.0313073,-0.0268875,2.82292,-0.287835,0.292174,-9.73086,0.00165899,-0.0062037,-0.00130156,-0.16725,-0.0766664,0.476973,1011.46,26
62539067263,9992,113,-1.7186,0.0180809,-0.427408,0.000323486,-0.00229588,0.00149384,-0.0453836,0.00624946,0.0363163,-0.0312959,-0.0268958,2.8229,-0.254489,0.296192,-9.73308,0.00192629,-0.00515357,0.000403591,-0.166367,-0.0762069,0.479428,1011.5,26
62549587263,10522,111,-1.7186,0.0180809,-0.427408,0.000323486,-0.00229588,0.00149384,-0.0453836,0.00624946,0.0363163,-0.0312894,-0.0268951,2.82289,-0.266035,0.314683,-9.743,0.00200264,-0.0050363,-0.000451372,-0.166059,-0.0780244,0.476681,1011.5,26
62559076878,9477,121,-1.71859,0.0180448,-0.427419,0.000249953,-0.0017583,-0.000536237,-0.0479219,0.00783644,0.0362424,-0.0312855,-0.0268906,2.82289,-0.243993,0.309718,-9.74133,0.00145761,-0.00566989,-0.000966248,-0.166165,-0.0758777,0.478304,1011.5,26
62569078878,10010,116,-1.71859,0.0180448,-0.427419,0.000249953,-0.0017583,-0.000536237,-0.0479219,0.00783644,0.0362424,-0.0312843,-0.0268893,2.82289,-0.284246,0.30949,-9.71635,0.00136722,-0.00514654,-0.000430845,-0.166957,-0.0700392,0.478539,1011.49,26
62579083263,9994,122,-1.7186,0.0183664,-0.426864,-0.000488281,0.0164641,0.0284027,-0.0572048,0.0111254,0.0333282,-0.0312866,-0.0268909,2.82291,-0.284246,0.30949,-9.71635,0.00136722,-0.00514654,-0.000430845,-0.166957,-0.0700392,0.478539,1011.49,26
62589462647,10392,114,-1.7186,0.0183664,-0.426864,-0.000488281,0.0164641,0.0284027,-0.0572048,0.0111254,0.0333282,-0.0312969,-0.0268859,2.82291,-0.268741,0.308717,-9.74392,0.00146818,-0.00567352,-0.000652884,-0.167141,-0.0741329,0.480192,1011.49,26
62599072186,9600,120,-1.71862,0.0179929,-0.427392,-0.0010376,-0.0191203,-0.0270432,-0.0455877,0.00592666,0.0363093,-0.0312997,-0.0268872,2.82291,-0.268741,0.308717,-9.74392,0.00146818,-0.00567352,-0.000652884,-0.167141,-0.0741329,0.480192,1011.49,26
62609179570,10113,117,-1.71862,0.0179929,-0.427392,-0.0010376,-0.0191203,-0.0270432,-0.0455877,0.00592666,0.0363093,-0.0312964,-0.0268892,2.8229,-0.259157,0.297871,-9.76022,0.00147554,-0.00514654,-0.000434501,-0.166351,-0.0758711,0.477509,1011.49,26
62619144801,9967,114,-1.71859,0.0180144,-0.427458,0.00144741,0.00104477,-0.00319563,-0.04651,0.00643378,0.03742,-0.0312946,-0.0268893,2.82289,-0.294258,0.309317,-9.7502,0.000943735,-0.00514654,-0.000416557,-0.166782,-0.0752429,0.47897,1011.49,26
62629081955,9939,113,-1.71859,0.0180144,-0.427458,0.00144741,0.00104477,-0.00319563,-0.04651,0.00643378,0.03742,-0.0312995,-0.0268895,2.82287,-0.280776,0.286115,-9.72588,0.000915589,-0.00459809,-0.00147594,-0.166003,-0.0778782,0.478362,1011.49,26
62639070647,9984,116,-1.7186,0.0179848,-0.42738,-0.000537109,-0.00151386,0.00397797,-0.0481761,0.00626787,0.0369139,-0.031299,-0.0268876,2.82285,-0.27857,0.283153,-9.73769,0.00096572,-0.00515266,0.00032592,-0.166817,-0.0746744,0.477935,1011.49,26
62649640647,10573,113,-1.7186,0.0179848,-0.42738,-0.000537109,-0.00151386,0.00397797,-0.0481761,0.00626787,0.0369139,-0.0312965,-0.0268865,2.82285,-0.271698,0.287755,-9.74655,0.000990211,-0.00515881,0.00107151,-0.166301,-0.0750638,0.476634,1011.49,26
62659547955,9911,112,-1.71859,0.0180732,-0.42742,0.000610352,0.00430979,-0.00195167,-0.0461273,0.00764067,0.0361717,-0.0312922,-0.026889,2.82287,-0.250364,0.307872,-9.72487,0.00105159,-0.00503826,-0.000419306,-0.164466,-0.0722824,0.478836,1011.49,26
62669072340,9518,114,-1.71859,0.0180732,-0.42742,0.000610352,0.00430979,-0.00195167,-0.0461273,0.00764067,0.0361717,-0.031291,-0.0268884,2.82288,-0.250364,0.307872,-9.72487,0.00105159,-0.00503826,-0.000419306,-0.164466,-0.0722824,0.478836,1011.49,26
62679072032,9997,118,-1.7186,0.0180537,-0.427436,-0.000543213,-0.000995064,-0.000814819,-0.0464697,0.00660332,0.0371399,-0.0312872,-0.0268846,2.82288,-0.268916,0.30614,-9.74325,0.0010241,-0.00514038,-0.00116702,-0.165287,-0.0736371,0.478212,1011.47,26
62689337955,10268,118,-1.7186,0.0180537,-0.427436,-0.000543213,-0.000995064,-0.000814819,-0.0464697,0.00660332,0.0371399,-0.0312865,-0.0268858,2.82288,-0.293276,0.291641,-9.75578,0.00148266,-0.00557558,-0.000223445,-0.165287,-0.0736371,0.478212,1011.47,26
62699632340,10302,112,-1.71859,0.0180525,-0.427395,0.000372024,-6.20342e-05,0.0019851,-0.0471721,0.00929811,0.0360511,-0.0312868,-0.0268905,2.82289,-0.275463,0.316002,-9.74502,0.0015298,-0.00515981,0.00117396,-0.166137,-0.0740443,0.479118,1011.47,26
62709788340,10150,118,-1.71859,0.0180525,-0.427395,0.000372024,-6.20342e-05,0.0019851,-0.0471721,0.00929811,0.0360511,-0.0312851,-0.0268934,2.82289,-0.263809,0.295139,-9.74298,0.00147584,-0.00514661,-0.000425567,-0.166096,-0.076195,0.477978,1011.47,26
62719109955,9327,111,-1.71858,0.0180729,-0.427451,0.000732422,0.00104418,-0.00285187,-0.046001,0.00754354,0.0360786,-0.0312823,-0.0268925,2.82289,-0.250223,0.320504,-9.7419,0.00172787,-0.00515531,0.000621778,-0.166239,-0.074119,0.478481,1011.48,26
62729428186,10312,118,-1.71858,0.0180729,-0.427451,0.000732422,0.00104418,-0.00285187,-0.046001,0.00754354,0.0360786,-0.0312841,-0.0268922,2.82289,-0.250223,0.320504,-9.7419,0.00172787,-0.00515531,0.000621778,-0.166239,-0.074119,0.478481,1011.48,26
62739061570,9636,113,-1.7185,0.0183759,-0.426697,0.00396438,0.0147747,0.0367679,-0.0575545,0.0135926,0.0352575,-0.0312841,-0.0268883,2.82289,-0.267267,0.30728,-9.79425,0.00149389,-0.00408677,0.000109379,-0.16478,-0.0769844,0.476647,1011.48,26
62749077955,10012,116,-1.7185,0.0183759,-0.426697,0.00396438,0.0147747,0.0367679,-0.0575545,0.0135926,0.0352575,-0.0312873,-0.02688,2.82288,-0.276101,0.299213,-9.77789,0.000368911,-0.0058774,-0.00167384,-0.165762,-0.0743584,0.478383,1011.47,26
62759646493,10579,110,-1.7186,0.0180996,-0.427451,-0.00516968,-0.0141442,-0.0386002,-0.0483116,0.00860486,0.0371664,-0.0312916,-0.0268815,2.82287,-0.264695,0.330945,-9.75986,0.0019888,-0.00535203,-0.000986476,-0.165216,-0.075075,0.477958,1011.47,26
62769074493,9419,116,-1.7186,0.0180996,-0.427451,-0.00516968,-0.0141442,-0.0386002,-0.0483116,0.00860486,0.0371664,-0.0312937,-0.0268828,2.82286,-0.264695,0.330945,-9.75986,0.0019888,-0.00535203,-0.000986476,-0.165216,-0.075075,0.477958,1011.47,26
62779214801,10146,113,-1.71859,0.0180583,-0.427445,0.000279018,-0.00201271,0.000290644,-0.0470932,0.00732561,0.0360762,-0.0312884,-0.0268836,2.82286,-0.241964,0.319656,-9.75498,0.00138245,-0.00524847,-0.000222013,-0.166406,-0.0728371,0.478257,1011.45,26
62789078801,9856,117,-1.71859,0.0180583,-0.427445,0.000279018,-0.00201271,0.000290644,-0.0470932,0.00732561,0.0360762,-0.0312827,-0.0268855,2.82286,-0.241964,0.319656,-9.75498,0.00138245,-0.00524847,-0.000222013,-0.166406,-0.0728371,0.478257,1011.45,26
62799218801,10139,120,-1.7186,0.01808,-0.427412,-0.000177002,0.00111122,0.0016983,-0.0450069,0.00629912,0.0365645,-0.0312748,-0.0268768,2.82287,-0.255012,0.314042,-9.75391,0.000720777,-0.00429937,-0.000402051,-0.166201,-0.0742083,0.479599,1011.45,26
62809115032,9905,114,-1.7186,0.01808,-0.427412,-0.000177002,0.00111122,0.0016983,-0.0450069,0.00629912,0.0365645,-0.0312799,-0.026872,2.82287,-0.261687,0.321997,-9.73238,0.00116073,-0.00599563,-0.000430883,-0.164053,-0.0754056,0.479197,1011.45,26
62819066493,9948,114,-1.71859,0.0180191,-0.427465,0.000186012,-0.00297247,-0.00258818,-0.0469712,0.00621903,0.0369924,-0.0312865,-0.0268744,2.82286,-0.261687,0.321997,-9.73238,0.00116073,-0.00599563,-0.000430883,-0.164053,-0.0754056,0.479197,1011.45,26
62829086724,10013,117,-1.71859,0.0180191,-0.427465,0.000186012,-0.00297247,-0.00258818,-0.0469712,0.00621903,0.0369924,-0.0312924,-0.0268851,2.82286,-0.272557,0.296917,-9.72225,0.00123431,-0.00598881,-0.00118734,-0.167945,-0.0736324,0.477742,1011.52,26
62839060647,9983,112,-1.71861,0.0180184,-0.427419,-0.000750732,-3.21388e-05,0.00234528,-0.0447651,0.00578149,0.03702,-0.0313015,-0.0268891,2.82286,-0.278467,0.319277,-9.73564,0.000213741,-0.00515097,0.000145632,-0.167563,-0.0752476,0.479557,1011.52,26
62849081416,10013,119,-1.71861,0.0180184,-0.427419,-0.000750732,-3.21388e-05,0.00234528,-0.0447651,0.00578149,0.03702,-0.0313091,-0.0268888,2.82287,-0.284648,0.30418,-9.76313,0.0013783,-0.00461659,-0.000215738,-0.167063,-0.0742731,0.477787,1011.52,26
62859086339,10015,111,-1.71861,0.0180334,-0.42744,-5.81287e-05,0.000730787,-0.00104341,-0.0467556,0.00614058,0.0370883,-0.031309,-0.0268865,2.82286,-0.269896,0.303592,-9.74232,0.00134323,-0.00482606,-0.00127537,-0.16737,-0.0766565,0.475776,1011.49,26
62869075801,9983,115,-1.71861,0.0180334,-0.42744,-5.81287e-05,0.000730787,-0.00104341,-0.0467556,0.00614058,0.0370883,-0.031312,-0.0268855,2.82284,-0.267056,0.333606,-9.76862,0.000393521,-0.00566473,-0.000944147,-0.16737,-0.0766565,0.475776,1011.49,26
62879603570,10532,114,-1.71859,0.0180561,-0.42738,0.000811768,0.00116205,0.00306702,-0.0478152,0.00722124,0.0369113,-0.031315,-0.0268873,2.82284,-0.272367,0.298831,-9.76028,-0.000764687,-0.00482569,-0.000569276,-0.166615,-0.0750651,0.476805,1011.47,26
62889648570,10045,115,-1.71859,0.0180561,-0.42738,0.000811768,0.00116205,0.00306702,-0.0478152,0.00722124,0.0369113,-0.0313301,-0.0268857,2.82283,-0.261262,0.318688,-9.72894,0.000220791,-0.00493897,0.000248458,-0.164662,-0.0761137,0.477771,1011.47,26
62899087878,9426,123,-1.71861,0.0180232,-0.427435,-0.000941685,-0.00160444,-0.00265067,-0.0472067,0.00637898,0.0352579,-0.0313341,-0.0268839,2.82283,-0.280809,0.3059,-9.74256,0.000543375,-0.00515352,0.000444706,-0.166975,-0.075475,0.478014,1011.47,26
62909086493,9999,124,-1.71861,0.0180232,-0.427435,-0.000941685,-0.00160444,-0.00265067,-0.0472067,0.00637898,0.0352579,-0.0313454,-0.0268833,2.82283,-0.280809,0.3059,-9.74256,0.000543375,-0.00515352,0.000444706,-0.166975,-0.075475,0.478014,1011.47,26
62919663878,10579,126,-1.71861,0.0180844,-0.42744,8.54492e-05,0.00313015,-0.000257874,-0.045502,0.00730769,0.0358475,-0.0313485,-0.0268812,2.82283,-0.251305,0.291408,-9.78135,0.00198149,-0.00513954,-0.00130118,-0.167131,-0.0721958,0.478126,1011.47,26
62929097032,9424,130,-1.71861,0.0180844,-0.42744,8.54492e-05,0.00313015,-0.000257874,-0.045502,0.00730769,0.0358475,-0.031346,-0.0268806,2.82282,-0.258153,0.284808,-9.76097,0.000411807,-0.00558099,-0.000402198,-0.168425,-0.0769923,0.47773,1011.5,26
62939251032,10171,116,-1.71859,0.0179841,-0.427491,0.00113932,-0.00488708,-0.00247774,-0.0494838,0.0072454,0.0370595,-0.0313435,-0.0268817,2.82284,-0.268467,0.30517,-9.77246,0.000763108,-0.00515443,0.00054755,-0.167955,-0.0716299,0.477438,1011.5,26
62949498570,10248,117,-1.71859,0.0179841,-0.427491,0.00113932,-0.00488708,-0.00247774,-0.0494838,0.0072454,0.0370595,-0.0313438,-0.0268822,2.82284,-0.300916,0.283862,-9.76548,0.000188508,-0.00460793,-0.00071001,-0.166059,-0.0718037,0.479054,1011.41,26
62959076186,9573,119,-1.71861,0.0180113,-0.42745,-0.000909424,0.00138998,0.00208282,-0.0463651,0.00664424,0.0362147,-0.0313486,-0.0268826,2.82285,-0.300916,0.283862,-9.76548,0.000188508,-0.00460793,-0.00071001,-0.166059,-0.0718037,0.479054,1011.41,26
62969088339,10008,123,-1.71861,0.0180113,-0.42745,-0.000909424,0.00138998,0.00208282,-0.0463651,0.00664424,0.0362147,-0.0313535,-0.02688,2.82286,-0.264667,0.310182,-9.80235,0.000437025,-0.00483021,0.000345353,-0.165154,-0.0743504,0.477402,1011.41,26
62979079570,9991,124,-1.7186,0.0181033,-0.427449,0.000104632,0.00448518,3.63305e-05,-0.0474054,0.00744407,0.0357132,-0.0313606,-0.0268721,2.82287,-0.272164,0.299988,-9.78278,0.000518585,-0.00408236,-0.000393438,-0.165401,-0.0715683,0.479594,1011.41,26
62989337724,10261,124,-1.7186,0.0181033,-0.427449,0.000104632,0.00448518,3.63305e-05,-0.0474054,0.00744407,0.0357132,-0.0313682,-0.0268803,2.82286,-0.291646,0.298965,-9.74059,0.00145766,-0.0041804,-0.000964691,-0.16504,-0.0768389,0.478418,1011.47,26
62999081109,9737,126,-1.7186,0.0180369,-0.42743,-3.66211e-05,-0.00339947,0.000984192,-0.0459226,0.00667489,0.0363563,-0.0313689,-0.0268859,2.82285,-0.291646,0.298965,-9.74059,0.00145766,-0.0041804,-0.000964691,-0.16504,-0.0768389,0.478418,1011.47,26
63009092493,10009,129,-1.7186,0.0180369,-0.42743,-3.66211e-05,-0.00339947,0.000984192,-0.0459226,0.00667489,0.0363563,-0.0313694,-0.0268839,2.82284,-0.275951,0.283018,-9.73063,-1.41693e-05,-0.00461601,-0.000484222,-0.166421,-0.0757937,0.477833,1011.47,26
63019762032,10683,119,-1.71863,0.0180258,-0.427441,-0.00145903,-0.000539326,-0.000534784,-0.0458585,0.00596335,0.0367581,-0.031369,-0.0268815,2.82283,-0.276703,0.289488,-9.73246,0.0010488,-0.00514654,-0.000420106,-0.168089,-0.0749164,0.478216,1011.47,26
63029110416,9347,119,-1.71863,0.0180258,-0.427441,-0.00145903,-0.000539326,-0.000534784,-0.0458585,0.00596335,0.0367581,-0.0313677,-0.0268815,2.82282,-0.267666,0.307617,-9.76195,0.00149397,-0.00419441,0.000111819,-0.164433,-0.0757111,0.477446,1011.44,26
63039145339,10037,117,-1.71863,0.0180064,-0.427455,0.000366211,-0.000995064,-0.000732422,-0.0470021,0.00615493,0.0358699,-0.0313666,-0.0268791,2.82282,-0.283157,0.302168,-9.71056,0.00148302,-0.00429906,-0.000212691,-0.16579,-0.0705912,0.477534,1011.44,26
63049092878,9934,127,-1.71863,0.0180064,-0.427455,0.000366211,-0.000995064,-0.000732422,-0.0470021,0.00615493,0.0358699,-0.0313651,-0.0268722,2.82284,-0.283157,0.302168,-9.71056,0.00148302,-0.00429906,-0.000212691,-0.16579,-0.0705912,0.477534,1011.44,26
63059070570,9989,119,-1.71861,0.0180242,-0.42745,0.000813802,0.000867299,0.000260126,-0.0471812,0.00614151,0.0367658,-0.031368,-0.0268712,2.82285,-0.283588,0.290886,-9.72386,0.00253916,-0.00514654,-0.000470383,-0.165821,-0.0726639,0.476637,1011.52,26
63069085955,10006,126,-1.71861,0.0180242,-0.42745,0.000813802,0.000867299,0.000260126,-0.0471812,0.00614151,0.0367658,-0.0313666,-0.0268708,2.82287,-0.283588,0.290886,-9.72386,0.00253916,-0.00514654,-0.000470383,-0.165821,-0.0726639,0.476637,1011.52,26
63079212724,10145,109,-1.71863,0.0180035,-0.427514,-0.00101929,-0.00105934,-0.00327301,-0.0473099,0.0063876,0.037598,-0.0313574,-0.0268709,2.82288,-0.263051,0.321497,-9.71822,0.00161734,-0.00494295,0.000627256,-0.165675,-0.0709198,0.478568,1011.47,26
63089426416,10217,109,-1.71863,0.0180035,-0.427514,-0.00101929,-0.00105934,-0.00327301,-0.0473099,0.0063876,0.037598,-0.0313544,-0.026869,2.82288,-0.275578,0.313889,-9.75623,0.0014864,-0.00482992,-0.000112797,-0.165332,-0.0739656,0.479252,1011.47,26
63099200262,9771,112,-1.71864,0.0179911,-0.427429,-0.000299072,-0.000633717,0.00434418,-0.0460914,0.00590486,0.03576,-0.031352,-0.0268685,2.82288,-0.265717,0.312858,-9.77705,0.00147525,-0.00621072,-0.00044327,-0.165312,-0.0753911,0.477478,1011.47,26
63109077262,9870,116,-1.71864,0.0179911,-0.427429,-0.000299072,-0.000633717,0.00434418,-0.0460914,0.00590486,0.03576,-0.0313477,-0.0268755,2.82286,-0.278768,0.297398,-9.73141,0.00142182,-0.0051334,-0.00202708,-0.166527,-0.0788468,0.479412,1011.47,26
63119811339,10736,116,-1.71863,0.0180798,-0.427443,0.000430153,0.00432687,-0.000684466,-0.0459704,0.00718751,0.0358597,-0.031345,-0.0268787,2.82284,-0.278768,0.297398,-9.73141,0.00142182,-0.0051334,-0.00202708,-0.166527,-0.0788468,0.479412,1011.47,26
63129470801,9661,116,-1.71863,0.0180798,-0.427443,0.000430153,0.00432687,-0.000684466,-0.0459704,0.00718751,0.0358597,-0.0313457,-0.0268792,2.82284,-0.277926,0.305147,-9.76257,0.00117168,-0.00408672,0.000114262,-0.167564,-0.0731478,0.477173,1011.47,26
63139064955,9594,114,-1.71861,0.0180899,-0.427447,0.00112305,0.000515842,-0.000195313,-0.0455293,0.00663154,0.0368907,-0.0313484,-0.0268776,2.82285,-0.277926,0.305147,-9.76257,0.00117168,-0.00408672,0.000114262,-0.167564,-0.0731478,0.477173,1011.47,26
63149082339,10010,118,-1.71861,0.0180899,-0.427447,0.00112305,0.000515842,-0.000195313,-0.0455293,0.00663154,0.0368907,-0.0313448,-0.0268728,2.82287,-0.284267,0.301422,-9.75772,0.000946764,-0.00429333,-0.000409625,-0.163576,-0.073725,0.479115,1011.51,26
63159073955,9996,113,-1.71862,0.0180095,-0.427452,-0.000906808,-0.00392196,-0.000273205,-0.0463246,0.00678444,0.0354359,-0.0313423,-0.0268734,2.82288,-0.272785,0.315008,-9.78283,0.00146804,-0.00568295,-0.000657023,-0.16631,-0.073081,0.478732,1011.48,26
63169284262,10218,110,-1.71862,0.0180095,-0.427452,-0.000906808,-0.00392196,-0.000273205,-0.0463246,0.00678444,0.0354359,-0.0313361,-0.0268788,2.82288,-0.286723,0.309133,-9.78347,0.00304138,-0.00492355,-0.00155035,-0.163986,-0.0724424,0.478819,1011.48,26
63179078185,9784,116,-1.71861,0.0181026,-0.42744,0.000610352,0.00476732,0.000616455,-0.0467751,0.0073251,0.0360968,-0.0313225,-0.0268862,2.8229,-0.273662,0.299309,-9.72847,0.00191355,-0.00589419,-0.00013796,-0.163986,-0.0724424,0.478819,1011.48,26
63189185570,10109,117,-1.71861,0.0181026,-0.42744,0.000610352,0.00476732,0.000616455,-0.0467751,0.0073251,0.0360968,-0.031323,-0.0268915,2.82291,-0.259192,0.310507,-9.72505,0.00126468,-0.00514654,-0.000427388,-0.16652,-0.0718083,0.47963,1011.41,26
63199065493,9886,115,-1.71863,0.0179494,-0.42735,-0.000895182,-0.00746809,0.00440616,-0.0480269,0.00563535,0.0372131,-0.0313235,-0.026893,2.82292,-0.259192,0.310507,-9.72505,0.00126468,-0.00514654,-0.000427388,-0.16652,-0.0718083,0.47963,1011.41,26
63209160262,10092,115,-1.71863,0.0179494,-0.42735,-0.000895182,-0.00746809,0.00440616,-0.0480269,0.00563535,0.0372131,-0.0313216,-0.0268908,2.82292,-0.279354,0.323034,-9.73254,0.0018994,-0.00408149,-0.000545371,-0.167095,-0.0745852,0.476825,1011.41,26
63219073032,9908,118,-1.71862,0.0180696,-0.427466,0.000415039,0.00615511,-0.00594788,-0.0470374,0.00674401,0.0358798,-0.0313182,-0.026889,2.82292,-0.255183,0.321825,-9.72637,0.00152912,-0.00515964,0.00115382,-0.166651,-0.0730156,0.480505,1011.41,26
63229430801,10362,115,-1.71862,0.0180696,-0.427466,0.000415039,0.00615511,-0.00594788,-0.0470374,0.00674401,0.0358798,-0.031317,-0.0268876,2.82294,-0.268957,0.297963,-9.74308,0.00149356,-0.00494077,9.94144e-05,-0.168809,-0.0729356,0.480578,1011.41,26
63239419801,9991,114,-1.71862,0.01802,-0.427451,0.000308082,-0.00242015,0.00074986,-0.0466987,0.0069766,0.0363198,-0.0313126,-0.0268881,2.82295,-0.286654,0.313799,-9.77198,0.00143993,-0.00418186,-0.0014902,-0.167734,-0.0747649,0.479246,1011.49,26
63249074878,9650,117,-1.71862,0.01802,-0.427451,0.000308082,-0.00242015,0.00074986,-0.0466987,0.0069766,0.0363198,-0.0313128,-0.0268867,2.82296,-0.269018,0.307205,-9.76053,0.00115408,-0.00482482,-0.000421,-0.165073,-0.0693106,0.47744,1011.49,26
63259056031,9989,110,-1.7186,0.0180024,-0.42742,0.000799561,-0.000902939,0.00158691,-0.0460735,0.00561639,0.0363549,-0.0313137,-0.0268849,2.82296,-0.269018,0.307205,-9.76053,0.00115408,-0.00482482,-0.000421,-0.165073,-0.0693106,0.47744,1011.49,26
63269081493,10013,118,-1.7186,0.0180024,-0.42742,0.000799561,-0.000902939,0.00158691,-0.0460735,0.00561639,0.0363549,-0.0313184,-0.0268775,2.82298,-0.270764,0.324794,-9.71934,0.00147569,-0.00461258,-0.000430101,-0.16787,-0.0723512,0.47759,1011.49,26
63279068647,9993,116,-1.71859,0.0180136,-0.427451,0.000592913,0.000546047,-0.00153169,-0.0449865,0.00632571,0.0362639,-0.0313188,-0.0268755,2.82298,-0.258895,0.314332,-9.72682,0.00116845,-0.00461338,-0.000207707,-0.168515,-0.0734698,0.477442,1011.49,26
63289082031,10007,119,-1.71859,0.0180136,-0.427451,0.000592913,0.000546047,-0.00153169,-0.0449865,0.00632571,0.0362639,-0.0313224,-0.0268662,2.82299,-0.275418,0.315809,-9.78553,-7.97166e-05,-0.00515442,0.00057477,-0.166724,-0.0749977,0.47833,1011.39,26
63299075801,9996,115,-1.71859,0.0180593,-0.42747,-0.000305176,0.00234318,-0.000967407,-0.047154,0.00538192,0.0379683,-0.0313287,-0.0268689,2.823,-0.278627,0.300525,-9.7608,0.00132958,-0.00513776,-0.00149436,-0.167928,-0.0735564,0.478222,1011.39,26
63309079031,10013,111,-1.71859,0.0180593,-0.42747,-0.000305176,0.00234318,-0.000967407,-0.047154,0.00538192,0.0379683,-0.0313301,-0.0268703,2.823,-0.275753,0.311378,-9.75404,0.00146837,-0.00514479,-0.000647057,-0.167486,-0.0729072,0.477092,1011.39,26
63319077878,9990,118,-1.71858,0.0179785,-0.427409,0.000720796,-0.00393986,0.00299363,-0.0469282,0.00500586,0.0380216,-0.0313272,-0.0268825,2.823,-0.248554,0.298365,-9.729,0.00221956,-0.00621072,-0.000468378,-0.167015,-0.0729052,0.476836,1011.39,26
63329124031,10052,116,-1.71858,0.0179785,-0.427409,0.000720796,-0.00393986,0.00299363,-0.0469282,0.00500586,0.0380216,-0.0313241,-0.0268839,2.82301,-0.279428,0.267249,-9.73588,0.00112822,-0.00481784,-0.00116215,-0.167774,-0.0723551,0.478067,1011.39,26
63339065416,9945,109,-1.71862,0.0180395,-0.427437,-0.0022583,0.00312338,-0.00145874,-0.0467666,0.00675392,0.0359515,-0.0313168,-0.0268858,2.82302,-0.249299,0.321646,-9.70706,0.00125979,-0.00514654,-0.000427221,-0.167495,-0.0705244,0.479193,1011.49,26
63349074954,10003,115,-1.71862,0.0180395,-0.427437,-0.0022583,0.00312338,-0.00145874,-0.0467666,0.00675392,0.0359515,-0.0313158,-0.0268865,2.82303,-0.249299,0.321646,-9.70706,0.00125979,-0.00514654,-0.000427221,-0.167495,-0.0705244,0.479193,1011.49,26
63359063262,9993,112,-1.71863,0.0181236,-0.427448,-0.000186012,0.00409717,-0.00055077,-0.0472675,0.00786136,0.0356966,-0.0313181,-0.026895,2.82304,-0.27561,0.29907,-9.72863,0.0012628,-0.00482739,-0.000424689,-0.166377,-0.0729243,0.479136,1011.45,26
63369074416,10008,111,-1.71863,0.0181236,-0.427448,-0.000186012,0.00409717,-0.00055077,-0.0472675,0.00786136,0.0356966,-0.0313144,-0.0268986,2.82304,-0.27561,0.29907,-9.72863,0.0012628,-0.00482739,-0.000424689,-0.166377,-0.0729243,0.479136,1011.45,26
63379252878,10175,116,-1.71861,0.0180396,-0.427388,0.00109253,-0.00429773,0.00308075,-0.0473805,0.00841272,0.0361624,-0.0313033,-0.0268949,2.82304,-0.256045,0.312532,-9.7652,0.00157911,-0.00439917,-0.000431829,-0.165402,-0.0731485,0.47718,1011.45,26
63389099493,9841,123,-1.71861,0.0180396,-0.427388,0.00109253,-0.00429773,0.00308075,-0.0473805,0.00841272,0.0361624,-0.0313014,-0.0268939,2.82304,-0.274443,0.328011,-9.74293,0.00247897,-0.00515799,0.000921597,-0.166669,-0.0765917,0.477594,1011.45,26
63399107262,9988,137,-1.71861,0.018058,-0.427416,-0.000261579,0.000895182,-0.00133696,-0.0458575,0.00682469,0.0366465,-0.0312964,-0.0268919,2.82307,-0.271046,0.314808,-9.72106,0.00149372,-0.00429772,0.000104319,-0.167725,-0.071887,0.47951,1011.4,26
63409114031,10029,123,-1.71861,0.018058,-0.427416,-0.000261579,0.000895182,-0.00133696,-0.0458575,0.00682469,0.0366465,-0.0312933,-0.0268876,2.82308,-0.287077,0.307901,-9.75661,0.00081781,-0.00514129,-0.00104928,-0.166665,-0.0717925,0.477714,1011.4,26
63419080416,9964,122,-1.71861,0.0180594,-0.427464,-6.10352e-05,7.43866e-05,-0.00244904,-0.0462237,0.00725436,0.0360312,-0.0312919,-0.0268865,2.82308,-0.289277,0.291286,-9.71734,0.00221806,-0.00588966,-0.000465679,-0.167286,-0.0737971,0.478279,1011.4,26
63429149493,10072,120,-1.71861,0.0180594,-0.427464,-6.10352e-05,7.43866e-05,-0.00244904,-0.0462237,0.00725436,0.0360312,-0.0312843,-0.0268932,2.82309,-0.277508,0.315157,-9.76489,0.00147896,-0.0060049,-0.000333081,-0.166896,-0.0706745,0.477971,1011.4,26
63439087031,9938,120,-1.71861,0.0180024,-0.427413,-3.48772e-05,-0.00277946,0.00247192,-0.048798,0.00712629,0.0358008,-0.0312812,-0.0269013,2.82311,-0.280693,0.29554,-9.73876,0.00222248,-0.00429522,-0.000452677,-0.167651,-0.0727459,0.476939,1011.52,26
63449098262,9999,126,-1.71861,0.0180024,-0.427413,-3.48772e-05,-0.00277946,0.00247192,-0.048798,0.00712629,0.0358008,-0.0312787,-0.0269044,2.82312,-0.280693,0.29554,-9.73876,0.00222248,-0.00429522,-0.000452677,-0.167651,-0.0727459,0.476939,1011.52,26
63459068031,9988,115,-1.71863,0.0180582,-0.427411,-0.00111694,0.00285463,7.17163e-05,-0.0478419,0.00716213,0.0374685,-0.0312704,-0.0269108,2.8231,-0.282767,0.292748,-9.74883,0.00134257,-0.00545866,-0.00128249,-0.166831,-0.076511,0.47752,1011.52,26
63469085031,10005,122,-1.71863,0.0180582,-0.427411,-0.00111694,0.00285463,7.17163e-05,-0.0478419,0.00716213,0.0374685,-0.0312677,-0.0269121,2.82309,-0.272107,0.294339,-9.70394,0.00166739,-0.00407793,-0.000969644,-0.166759,-0.0757091,0.477284,1011.45,26
63479080954,10003,119,-1.71861,0.018034,-0.427479,0.00122652,-0.00118083,-0.00327265,-0.04816,0.00773862,0.0366887,-0.031262,-0.0269073,2.82309,-0.274083,0.30759,-9.71865,0.000455052,-0.00504917,0.000879677,-0.168616,-0.0754843,0.47919,1011.45,26
63489088724,10003,122,-1.71861,0.018034,-0.427479,0.00122652,-0.00118083,-0.00327265,-0.04816,0.00773862,0.0366887,-0.0312628,-0.0269042,2.82309,-0.274083,0.30759,-9.71865,0.000455052,-0.00504917,0.000879677,-0.168616,-0.0754843,0.47919,1011.45,26
63499226801,10141,122,-1.71861,0.0180515,-0.42745,4.88281e-05,0.000899029,0.00145264,-0.0468223,0.0076804,0.0365716,-0.031267,-0.0269015,2.82307,-0.268914,0.295177,-9.74504,0.00151163,-0.00441664,0.000635165,-0.16621,-0.0759464,0.476944,1011.46,26
63509091954,9859,126,-1.71861,0.0180515,-0.42745,4.88281e-05,0.000899029,0.00145264,-0.0468223,0.0076804,0.0365716,-0.031267,-0.0269015,2.82307,-0.268914,0.295177,-9.74504,0.00151163,-0.00441664,0.000635165,-0.16621,-0.0759464,0.476944,1011.46,26
63519070801,9992,113,-1.71863,0.0181014,-0.427462,-0.00106376,0.00242942,-0.00058274,-0.0458604,0.00741676,0.0357315,-0.0312804,-0.0268817,2.82309,-0.265147,0.334883,-9.72357,0.000556535,-0.00430184,0.000668332,-0.166683,-0.0738076,0.479539,1011.46,26
63529077339,10002,119,-1.71863,0.0181014,-0.427462,-0.00106376,0.00242942,-0.00058274,-0.0458604,0.00741676,0.0357315,-0.0312886,-0.0268777,2.8231,-0.279582,0.31443,-9.73906,0.000335906,-0.00440559,0.000570589,-0.167414,-0.0733852,0.476845,1011.46,26
63539289493,10217,113,-1.71879,0.0185021,-0.427177,-0.00836182,0.0205178,0.0145767,-0.0546303,0.00641825,0.0355922,-0.0312946,-0.0268781,2.82311,-0.2679,0.280899,-9.73397,0.000943706,-0.00525134,-0.000417425,-0.164821,-0.0735538,0.477797,1011.46,26
63549531031,10239,118,-1.71879,0.0185021,-0.427177,-0.00836182,0.0205178,0.0145767,-0.0546303,0.00641825,0.0355922,-0.0312989,-0.0268792,2.82311,-0.274302,0.307286,-9.76006,-0.000134744,-0.0050295,-0.00100905,-0.16518,-0.0743636,0.479003,1011.49,26
63559070570,9540,117,-1.71862,0.0180733,-0.427441,0.00838216,-0.020907,-0.012829,-0.0449824,0.00616497,0.0361943,-0.0313085,-0.0268769,2.82311,-0.274302,0.307286,-9.76006,-0.000134744,-0.0050295,-0.00100905,-0.16518,-0.0743636,0.479003,1011.49,26
63569628108,10559,116,-1.71862,0.0180733,-0.427441,0.00838216,-0.020907,-0.012829,-0.0449824,0.00616497,0.0361943,-0.0313105,-0.0268737,2.82312,-0.283221,0.303492,-9.74154,0.00169006,-0.00397234,-0.00043205,-0.167019,-0.0722037,0.479083,1011.48,26
63579074416,9442,118,-1.71862,0.0181142,-0.427447,0.00010376,0.00209322,-0.000328064,-0.0458078,0.00789074,0.0360792,-0.0313079,-0.0268702,2.82312,-0.283221,0.303492,-9.74154,0.00169006,-0.00397234,-0.00043205,-0.167019,-0.0722037,0.479083,1011.48,26
63589235339,10162,117,-1.71862,0.0181142,-0.427447,0.00010376,0.00209322,-0.000328064,-0.0458078,0.00789074,0.0360792,-0.0313131,-0.0268699,2.82312,-0.260349,0.276422,-9.74475,0.000551156,-0.0062195,0.000652693,-0.167064,-0.0738922,0.480111,1011.48,26
63599068647,9835,116,-1.71858,0.018407,-0.42661,0.00223389,0.0149911,0.042865,-0.0569915,0.0133365,0.0348975,-0.0313114,-0.026874,2.82312,-0.260349,0.276422,-9.74475,0.000551156,-0.0062195,0.000652693,-0.167064,-0.0738922,0.480111,1011.48,26
63609559416,10487,123,-1.71858,0.018407,-0.42661,0.00223389,0.0149911,0.042865,-0.0569915,0.0133365,0.0348975,-0.0313053,-0.026885,2.82312,-0.263081,0.300236,-9.7262,0.000946126,-0.00514654,-0.000416641,-0.166013,-0.0755557,0.478061,1011.49,26
63619082724,9517,122,-1.71862,0.0180554,-0.427405,-0.00211007,-0.0171433,-0.0387631,-0.0467948,0.00861671,0.0364367,-0.0313053,-0.026885,2.82312,-0.266375,0.291172,-9.76071,0.00251416,-0.00503259,-0.00121137,-0.164068,-0.0780224,0.476374,1011.49,26
63629070877,10000,115,-1.71862,0.0180554,-0.427405,-0.00211007,-0.0171433,-0.0387631,-0.0467948,0.00861671,0.0364367,-0.0312928,-0.0268868,2.82308,-0.287221,0.287506,-9.73909,0.000386781,-0.00459933,-0.00114407,-0.165524,-0.0731577,0.478304,1011.49,26
63639183954,10114,114,-1.7186,0.0180302,-0.427437,0.000848389,-0.00129118,-0.00167847,-0.0448803,0.00661097,0.0363632,-0.0312966,-0.0268852,2.82308,-0.257496,0.300158,-9.73777,0.00167826,-0.00514654,-0.000441342,-0.165126,-0.0747379,0.475876,1011.49,26
63649078493,9889,115,-1.7186,0.0180302,-0.427437,0.000848389,-0.00129118,-0.00167847,-0.0448803,0.00661097,0.0363632,-0.0312953,-0.0268874,2.82307,-0.257496,0.300158,-9.73777,0.00167826,-0.00514654,-0.000441342,-0.165126,-0.0747379,0.475876,1011.49,26
63659072570,9995,116,-1.71874,0.0184897,-0.427181,-0.00666736,0.0224065,0.0124831,-0.0564731,0.00811235,0.0336911,-0.0312946,-0.0268834,2.82307,-0.271147,0.298633,-9.76572,0.0015223,-0.00409372,0.000951466,-0.165988,-0.0744416,0.47879,1011.4,26
63669092493,10008,125,-1.71874,0.0184897,-0.427181,-0.00666736,0.0224065,0.0124831,-0.0564731,0.00811235,0.0336911,-0.0312875,-0.0268788,2.82308,-0.279755,0.303431,-9.76608,0.00203847,-0.00462813,0.000615644,-0.167057,-0.0748344,0.477942,1011.4,26
63679078262,9995,119,-1.7186,0.0180737,-0.42745,0.00692139,-0.0212994,-0.0137482,-0.0459168,0.0076028,0.0359286,-0.0312756,-0.026876,2.82307,-0.271173,0.303697,-9.7335,0.00200283,-0.00472831,-0.000448841,-0.16828,-0.0750882,0.479662,1011.45,26
63689316647,10247,114,-1.7186,0.0180737,-0.42745,0.00692139,-0.0212994,-0.0137482,-0.0459168,0.0076028,0.0359286,-0.0312753,-0.0268743,2.82306,-0.273918,0.306956,-9.7273,0.000408446,-0.00514569,-0.000501801,-0.16524,-0.0760291,0.47723,1011.45,26
63699108877,9791,113,-1.71872,0.0184784,-0.427217,-0.005871,0.0197341,0.0113772,-0.056362,0.00833388,0.0331165,-0.0312851,-0.0268738,2.82306,-0.273918,0.306956,-9.7273,0.000408446,-0.00514569,-0.000501801,-0.16524,-0.0760291,0.47723,1011.45,26
63709690570,10580,115,-1.71872,0.0184784,-0.427217,-0.005871,0.0197341,0.0113772,-0.056362,0.00833388,0.0331165,-0.0312967,-0.0268751,2.82306,-0.266461,0.316053,-9.7527,0.000404615,-0.00514475,-0.000615417,-0.16472,-0.074599,0.478425,1011.44,26
63719201493,9515,112,-1.7186,0.0180669,-0.427453,0.00661011,-0.0210727,-0.0120773,-0.045991,0.00724434,0.0360935,-0.0313078,-0.0268706,2.82306,-0.265125,0.303682,-9.72878,0.000419334,-0.00504653,-0.000179064,-0.1656,-0.0740992,0.476058,1011.44,26
63729077647,9870,118,-1.7186,0.0180669,-0.427453,0.00661011,-0.0210727,-0.0120773,-0.045991,0.00724434,0.0360935,-0.0313093,-0.0268698,2.82306,-0.265125,0.303682,-9.72878,0.000419334,-0.00504653,-0.000179064,-0.1656,-0.0740992,0.476058,1011.44,26
63739100570,10024,117,-1.71859,0.0180472,-0.427387,0.000372024,-0.000961213,0.00320144,-0.0480533,0.00828981,0.0366623,-0.0312993,-0.0268703,2.82305,-0.295254,0.3047,-9.77817,0.00244157,-0.00514742,-0.00035992,-0.16658,-0.0724338,0.477866,1011.44,26
63749073493,9969,119,-1.71859,0.0180472,-0.427387,0.000372024,-0.000961213,0.00320144,-0.0480533,0.00828981,0.0366623,-0.0312956,-0.0268718,2.82304,-0.256924,0.291263,-9.74269,0.0014718,-0.00535848,-0.000545271,-0.164259,-0.0765143,0.477834,1011.44,26
63759351800,10287,113,-1.7186,0.0180954,-0.427426,-0.000653076,0.0024724,-0.0019928,-0.046506,0.00775763,0.0363043,-0.0312953,-0.0268755,2.82304,-0.264978,0.322035,-9.78671,0.000198266,-0.00514654,-0.000391411,-0.163564,-0.0761884,0.477093,1011.48,26
63769080493,9719,120,-1.7186,0.0180954,-0.427426,-0.000653076,0.0024724,-0.0019928,-0.046506,0.00775763,0.0363043,-0.0313038,-0.0268785,2.82302,-0.256581,0.298049,-9.75437,0.00135884,-0.00514393,-0.000747652,-0.163564,-0.0761884,0.477093,1011.48,26
63779124185,10054,112,-1.71859,0.0180202,-0.427389,0.000296456,-0.00366747,0.00179472,-0.0459064,0.00782336,0.0368168,-0.0313048,-0.026879,2.82302,-0.258274,0.286871,-9.76083,0.000529429,-0.00429783,-7.59901e-05,-0.166034,-0.0761904,0.477416,1011.5,26
63789074031,9944,118,-1.71859,0.0180202,-0.427389,0.000296456,-0.00366747,0.00179472,-0.0459064,0.00782336,0.0368168,-0.0313054,-0.0268785,2.82302,-0.258274,0.286871,-9.76083,0.000529429,-0.00429783,-7.59901e-05,-0.166034,-0.0761904,0.477416,1011.5,26
63799309723,10245,110,-1.71864,0.0180374,-0.427451,-0.00217285,0.000880718,-0.00315094,-0.0466384,0.00681624,0.0363037,-0.0313071,-0.0268757,2.82301,-0.269917,0.299465,-9.77844,0.00061772,-0.00481837,-0.000615985,-0.167794,-0.0780303,0.47746,1011.43,26
63809072493,9755,116,-1.71864,0.0180374,-0.427451,-0.00217285,0.000880718,-0.00315094,-0.0466384,0.00681624,0.0363037,-0.0313083,-0.0268719,2.823,-0.269917,0.299465,-9.77844,0.00061772,-0.00481837,-0.000615985,-0.167794,-0.0780303,0.47746,1011.43,26
63819069185,9997,110,-1.7186,0.0180578,-0.427482,0.00190662,0.000992639,-0.00151425,-0.0478762,0.00786644,0.0365373,-0.031311,-0.0268642,2.82299,-0.248706,0.314043,-9.7467,0.00104677,-0.0041879,-0.000518612,-0.164976,-0.075795,0.477944,1011.43,26
63829585954,10517,114,-1.7186,0.0180578,-0.427482,0.00190662,0.000992639,-0.00151425,-0.0478762,0.00786644,0.0365373,-0.0313137,-0.0268566,2.823,-0.274258,0.312345,-9.74512,0.000945236,-0.00504264,-0.000415751,-0.165967,-0.0717072,0.477051,1011.43,26
63839687339,10109,109,-1.71859,0.018028,-0.427457,0.000262451,-0.00152636,0.00126343,-0.0467518,0.00626338,0.0369241,-0.031317,-0.026855,2.823,-0.268071,0.322189,-9.7534,0.000412224,-0.00408236,-0.000389849,-0.162869,-0.0724417,0.478701,1011.43,26
63849251339,9563,110,-1.71859,0.018028,-0.427457,0.000262451,-0.00152636,0.00126343,-0.0467518,0.00626338,0.0369241,-0.0313228,-0.0268511,2.823,-0.265048,0.293899,-9.74182,0.000224611,-0.0040885,0.000361699,-0.162869,-0.0724417,0.478701,1011.43,26
63859119262,9867,111,-1.7186,0.0180987,-0.427434,-0.000575474,0.00344994,0.00110881,-0.0445375,0.00591844,0.0364887,-0.0313287,-0.0268452,2.823,-0.261114,0.302989,-9.77336,0.00154973,-0.00567012,-0.00150618,-0.167197,-0.0779398,0.47616,1011.46,26
63869079262,9948,120,-1.7186,0.0180987,-0.427434,-0.000575474,0.00344994,0.00110881,-0.0445375,0.00591844,0.0364887,-0.0313261,-0.0268454,2.82298,-0.261114,0.302989,-9.77336,0.00154973,-0.00567012,-0.00150618,-0.167197,-0.0779398,0.47616,1011.46,26
63879083339,9998,124,-1.71858,0.0180455,-0.427357,0.00147095,-0.00272341,0.0039444,-0.0483056,0.00800426,0.0366761,-0.0313239,-0.0268423,2.82296,-0.266764,0.278458,-9.75534,0.000965136,-0.00494356,0.000328334,-0.166528,-0.077627,0.477021,1011.46,26
63889086800,10003,126,-1.71858,0.0180455,-0.427357,0.00147095,-0.00272341,0.0039444,-0.0483056,0.00800426,0.0366761,-0.0313212,-0.0268426,2.82295,-0.265888,0.304275,-9.77456,0.000500486,-0.00534958,-0.000929989,-0.166007,-0.076197,0.478216,1011.45,26
63899114185,10009,135,-1.7186,0.0180251,-0.427439,-0.00105213,-0.000996272,-0.00398327,-0.0470475,0.00666898,0.0355838,-0.0313204,-0.0268435,2.82294,-0.255617,0.311362,-9.74573,0.00161136,-0.00504941,0.000415205,-0.166456,-0.0770651,0.476783,1011.45,26
63909557800,10458,131,-1.7186,0.0180251,-0.427439,-0.00105213,-0.000996272,-0.00398327,-0.0470475,0.00666898,0.0355838,-0.0313273,-0.0268407,2.82295,-0.274378,0.302378,-9.75443,0.000239961,-0.00483606,0.000674605,-0.164794,-0.0733204,0.478599,1011.45,26
63919095877,9535,133,-1.71857,0.0180326,-0.427489,0.00123291,0.000384521,-0.00255737,-0.0463707,0.00685774,0.0373866,-0.0313273,-0.0268407,2.82295,-0.274378,0.302378,-9.75443,0.000239961,-0.00483606,0.000674605,-0.164794,-0.0733204,0.478599,1011.45,26
63929138185,10057,120,-1.71857,0.0180326,-0.427489,0.00123291,0.000384521,-0.00255737,-0.0463707,0.00685774,0.0373866,-0.0313429,-0.0268436,2.82297,-0.269913,0.293671,-9.74955,0.000525259,-0.00589322,-0.000195631,-0.166036,-0.0727498,0.477364,1011.44,26
63939082416,9942,119,-1.71862,0.0179389,-0.427397,-0.0023949,-0.00456774,0.00448172,-0.046691,0.00644674,0.0364262,-0.0313429,-0.026845,2.82298,-0.301343,0.311355,-9.79566,0.00146141,-0.00514308,-0.000853275,-0.165767,-0.0724371,0.478238,1011.44,26
63949075185,9996,118,-1.71862,0.0179389,-0.427397,-0.0023949,-0.00456774,0.00448172,-0.046691,0.00644674,0.0364262,-0.0313404,-0.0268484,2.82299,-0.280894,0.306223,-9.77813,0.00146139,-0.00514307,-0.000854215,-0.166533,-0.0714851,0.479233,1011.44,26
63959629108,10560,114,-1.71861,0.0180105,-0.42741,0.000762939,0.00366278,-0.000694275,-0.0478866,0.00859849,0.0358224,-0.0313362,-0.0268555,2.82299,-0.269997,0.299183,-9.77411,0.0012298,-0.00534767,-0.00149273,-0.166653,-0.0761956,0.478077,1011.48,26
63969321646,9690,117,-1.71861,0.0180105,-0.42741,0.000762939,0.00366278,-0.000694275,-0.0478866,0.00859849,0.0358224,-0.0313352,-0.0268581,2.82298,-0.290791,0.316495,-9.72945,0.00147578,-0.00428881,-0.000427433,-0.168632,-0.0712207,0.476344,1011.48,26
63979366723,10046,115,-1.71863,0.0179872,-0.427459,-0.000877744,-0.00113415,-0.0023484,-0.0467918,0.00576488,0.036119,-0.0313367,-0.0268576,2.82299,-0.290791,0.316495,-9.72945,0.00147578,-0.00428881,-0.000427433,-0.168632,-0.0712207,0.476344,1011.48,26
63989084339,9709,119,-1.71863,0.0179872,-0.427459,-0.000877744,-0.00113415,-0.0023484,-0.0467918,0.00576488,0.036119,-0.0313398,-0.0268478,2.82299,-0.259088,0.315494,-9.74533,0.00146851,-0.00460737,-0.000642788,-0.166095,-0.0745951,0.477992,1011.49,26
63999072108,9992,118,-1.71859,0.0180405,-0.42743,0.00187378,0.00272579,0.00144958,-0.045945,0.00702893,0.0366959,-0.0313389,-0.0268473,2.82299,-0.260894,0.299421,-9.74457,0.00123117,-0.00513777,-0.00149104,-0.165119,-0.073639,0.478447,1011.49,26
64009079800,10004,122,-1.71859,0.0180405,-0.42743,0.00187378,0.00272579,0.00144958,-0.045945,0.00702893,0.0366959,-0.0313348,-0.0268461,2.82301,-0.265209,0.306304,-9.739,0.000726384,-0.00514654,-0.000409229,-0.169576,-0.0720246,0.476849,1011.47,26
64019351185,10286,111,-1.71861,0.0180575,-0.427472,-0.000959124,0.000831332,-0.00201125,-0.0470706,0.00620114,0.0381097,-0.0313349,-0.0268468,2.82302,-0.270148,0.303676,-9.70859,0.00126432,-0.00472151,-0.000423869,-0.165978,-0.0727446,0.476722,1011.47,26
64029332877,9972,118,-1.71861,0.0180575,-0.427472,-0.000959124,0.000831332,-0.00201125,-0.0470706,0.00620114,0.0381097,-0.0313352,-0.026846,2.82303,-0.259176,0.306701,-9.7254,0.00147909,-0.00483178,-0.000329354,-0.165978,-0.0727446,0.476722,1011.47,26
64039064723,9736,113,-1.7186,0.0180377,-0.427414,0.00065918,-0.00101604,0.00292664,-0.0462146,0.0064394,0.0370327,-0.0313354,-0.0268428,2.82304,-0.259176,0.306701,-9.7254,0.00147909,-0.00483178,-0.000329354,-0.165978,-0.0727446,0.476722,1011.47,26
64049683569,10614,118,-1.7186,0.0180377,-0.427414,0.00065918,-0.00101604,0.00292664,-0.0462146,0.0064394,0.0370327,-0.0313388,-0.0268426,2.82303,-0.265184,0.294148,-9.73822,-1.16958e-05,-0.00589718,-0.000178404,-0.1654,-0.0752291,0.477242,1011.47,26
64059072416,9390,116,-1.71859,0.0180546,-0.427422,0.000220889,0.000825519,-0.000357492,-0.0458768,0.00735995,0.0363731,-0.0313472,-0.0268401,2.82303,-0.249527,0.309054,-9.72156,0.00094329,-0.00482656,-0.000413903,-0.166602,-0.0766684,0.477191,1011.47,26
64069084108,10003,122,-1.71859,0.0180546,-0.427422,0.000220889,0.000825519,-0.000357492,-0.0458768,0.00735995,0.0363731,-0.0313398,-0.0268372,2.82304,-0.289124,0.290549,-9.73941,0.00203819,-0.00483482,0.000402468,-0.165397,-0.0735498,0.477336,1011.46,26
64079094954,10015,121,-1.7186,0.0180648,-0.427439,-0.000646973,0.000523567,-0.000894165,-0.0457614,0.00727317,0.0364493,-0.0313389,-0.0268379,2.82304,-0.274611,0.315889,-9.7418,0.000698879,-0.00513783,-0.00146517,-0.164788,-0.0714818,0.478774,1011.46,26
64089200569,10108,118,-1.7186,0.0180648,-0.427439,-0.000646973,0.000523567,-0.000894165,-0.0457614,0.00727317,0.0364493,-0.0313404,-0.0268387,2.82304,-0.260404,0.283263,-9.75186,0.00137457,-0.00440361,-0.000424965,-0.164922,-0.0740483,0.479558,1011.53,26
64099068339,9869,117,-1.71859,0.0180697,-0.42743,0.000616455,0.000249481,0.000489807,-0.0459911,0.00713298,0.0365753,-0.0313393,-0.0268387,2.82303,-0.260404,0.283263,-9.75186,0.00137457,-0.00440361,-0.000424965,-0.164922,-0.0740483,0.479558,1011.53,26
64109074569,10008,115,-1.71859,0.0180697,-0.42743,0.000616455,0.000249481,0.000489807,-0.0459911,0.00713298,0.0365753,-0.031328,-0.0268437,2.82304,-0.288759,0.286935,-9.77071,0.00145038,-0.00546078,-0.00118053,-0.167444,-0.072578,0.475972,1011.53,26
64119071415,9996,115,-1.71861,0.0180824,-0.427435,-0.000813802,0.000621796,-0.000265939,-0.0455701,0.00771494,0.0364965,-0.0313261,-0.026844,2.82304,-0.276723,0.297977,-9.76887,0.00125486,-0.00418336,-0.000633103,-0.164346,-0.0730725,0.477625,1011.49,26
64129076646,10005,115,-1.71861,0.0180824,-0.427435,-0.000813802,0.000621796,-0.000265939,-0.0455701,0.00771494,0.0364965,-0.0313286,-0.0268436,2.82304,-0.286158,0.297518,-9.74997,0.000510189,-0.00556341,-0.000730015,-0.166686,-0.0713872,0.477077,1011.49,26
64139266262,10196,113,-1.71861,0.0180474,-0.427439,-7.93457e-05,-0.00179396,-0.000193787,-0.0470216,0.00646401,0.0354105,-0.031332,-0.0268465,2.82303,-0.284823,0.280745,-9.71849,0.000740699,-0.00472023,-0.000193223,-0.163715,-0.0738705,0.477357,1011.49,26
64149083262,9806,120,-1.71861,0.0180474,-0.427439,-7.93457e-05,-0.00179396,-0.000193787,-0.0470216,0.00646401,0.0354105,-0.031332,-0.0268465,2.82303,-0.284823,0.280745,-9.71849,0.000740699,-0.00472023,-0.000193223,-0.163715,-0.0738705,0.477357,1011.49,26
64159068339,9991,115,-1.71861,0.0180695,-0.427398,-8.13802e-05,0.00107738,0.00197638,-0.0472926,0.0093236,0.0363776,-0.0313311,-0.0268429,2.823,-0.274683,0.298246,-9.74554,0.00147554,-0.00514654,-0.000434501,-0.163102,-0.0766036,0.478915,1011.49,26
64169770569,10703,116,-1.71861,0.0180695,-0.427398,-8.13802e-05,0.00107738,0.00197638,-0.0472926,0.0093236,0.0363776,-0.0313292,-0.0268407,2.82298,-0.290165,0.305641,-9.74183,0.00106725,-0.00408674,0.000119915,-0.166931,-0.0731656,0.479312,1011.47,26
64179064185,9295,114,-1.71864,0.0180115,-0.427408,-0.00165405,-0.00296755,-0.000492859,-0.0468169,0.0064804,0.0366476,-0.0313275,-0.0268385,2.82299,-0.290165,0.305641,-9.74183,0.00106725,-0.00408674,0.000119915,-0.166931,-0.0731656,0.479312,1011.47,26
64189342646,10279,115,-1.71864,0.0180115,-0.427408,-0.00165405,-0.00296755,-0.000492859,-0.0468169,0.0064804,0.0366476,-0.0313271,-0.0268386,2.82298,-0.266232,0.299829,-9.75773,0.00222579,-0.00514654,-0.000459811,-0.166343,-0.0781327,0.480132,1011.49,26
64199268262,9924,117,-1.71876,0.0185804,-0.4271,-0.00573149,0.0277391,0.015019,-0.0569947,0.00858199,0.0350967,-0.0313258,-0.026839,2.82297,-0.266232,0.299829,-9.75773,0.00222579,-0.00514654,-0.000459811,-0.166343,-0.0781327,0.480132,1011.49,26
64209247492,9979,117,-1.71876,0.0185804,-0.4271,-0.00573149,0.0277391,0.015019,-0.0569947,0.00858199,0.0350967,-0.0313244,-0.0268315,2.82296,-0.243436,0.30009,-9.74324,0.00105836,-0.00440924,-0.000198841,-0.164559,-0.0772198,0.476077,1011.49,26
64219069954,9818,119,-1.71861,0.0180581,-0.42744,0.0079895,-0.026744,-0.0174103,-0.0452364,0.00681939,0.0367755,-0.0313314,-0.0268241,2.82296,-0.243436,0.30009,-9.74324,0.00105836,-0.00440924,-0.000198841,-0.164559,-0.0772198,0.476077,1011.49,26
64229079569,10009,118,-1.71861,0.0180581,-0.42744,0.0079895,-0.026744,-0.0174103,-0.0452364,0.00681939,0.0367755,-0.0313395,-0.0268192,2.82296,-0.280615,0.277122,-9.71481,0.00136889,-0.00493086,-0.000429122,-0.164135,-0.073645,0.479134,1011.45,26
64239085800,10011,116,-1.71863,0.0180575,-0.427514,-0.00128464,-2.67937e-05,-0.00360398,-0.0458728,0.00698317,0.0368069,-0.0313396,-0.0268189,2.82297,-0.277016,0.322651,-9.77202,0.000425875,-0.00525717,1.48948e-05,-0.165844,-0.070978,0.475932,1011.45,26
64249069338,9985,116,-1.71863,0.0180575,-0.427514,-0.00128464,-2.67937e-05,-0.00360398,-0.0458728,0.00698317,0.0368069,-0.0313436,-0.0268209,2.82297,-0.277016,0.322651,-9.77202,0.000425875,-0.00525717,1.48948e-05,-0.165844,-0.070978,0.475932,1011.45,26
64259074800,9999,117,-1.71861,0.0180247,-0.427432,0.00112915,-0.00168142,0.00418549,-0.0468245,0.00638503,0.0355934,-0.0313506,-0.0268186,2.82297,-0.278663,0.309583,-9.72748,0.000762407,-0.00408938,0.000450166,-0.16606,-0.0748436,0.479029,1011.45,26
64269480569,10416,112,-1.71861,0.0180247,-0.427432,0.00112915,-0.00168142,0.00418549,-0.0468245,0.00638503,0.0355934,-0.0313538,-0.02682,2.82298,-0.278663,0.309583,-9.72748,0.000762407,-0.00408938,0.000450166,-0.16606,-0.0748436,0.479029,1011.45,26
64279342569,9858,114,-1.71858,0.0179785,-0.427394,0.00131952,-0.00225276,0.00186303,-0.0475013,0.00492305,0.0379978,-0.0313548,-0.0268257,2.82299,-0.277499,0.292234,-9.73484,0.000509913,-0.00514654,-0.000401922,-0.16707,-0.0713112,0.477571,1011.5,26
64289077415,9729,120,-1.71858,0.0179785,-0.427394,0.00131952,-0.00225276,0.00186303,-0.0475013,0.00492305,0.0379978,-0.0313532,-0.0268262,2.82299,-0.295118,0.290388,-9.74846,0.000901196,-0.0042831,-0.00147286,-0.16614,-0.0746836,0.479033,1011.5,26
64299072415,10002,115,-1.71861,0.0180272,-0.427424,-0.00139771,0.00249729,-0.00153198,-0.0473419,0.00625767,0.0355115,-0.0313517,-0.0268261,2.82298,-0.295118,0.290388,-9.74846,0.000901196,-0.0042831,-0.00147286,-0.16614,-0.0746836,0.479033,1011.5,26
64309080108,10007,116,-1.71861,0.0180272,-0.427424,-0.00139771,0.00249729,-0.00153198,-0.0473419,0.00625767,0.0355115,-0.0313477,-0.0268277,2.82297,-0.285012,0.338604,-9.74444,0.000949076,-0.00408236,-0.000407959,-0.166095,-0.0735551,0.478,1011.42,26
64319072646,9986,117,-1.71859,0.0180326,-0.427498,0.00113351,0.000260035,-0.00361125,-0.0470009,0.00775579,0.0370254,-0.0313503,-0.0268291,2.82297,-0.285012,0.338604,-9.74444,0.000949076,-0.00408236,-0.000407959,-0.166095,-0.0735551,0.478,1011.42,26
64329074031,10007,114,-1.71859,0.0180326,-0.427498,0.00113351,0.000260035,-0.00361125,-0.0470009,0.00775579,0.0370254,-0.0313574,-0.0268293,2.82299,-0.281723,0.310102,-9.73182,0.000422836,-0.00514921,-7.53429e-05,-0.165809,-0.0701066,0.476978,1011.42,26
64339083415,9997,125,-1.71861,0.0179824,-0.427425,-0.00111084,-0.0025671,0.00373993,-0.0463663,0.0058782,0.0367796,-0.0313591,-0.0268279,2.82299,-0.272736,0.282154,-9.76418,0.000733154,-0.00461445,-0.000405068,-0.165716,-0.0750095,0.479736,1011.42,26
64349080723,10004,118,-1.71861,0.0179824,-0.427425,-0.00111084,-0.0025671,0.00373993,-0.0463663,0.0058782,0.0367796,-0.0313581,-0.0268276,2.82299,-0.277889,0.321399,-9.75945,0.000415617,-0.0046125,-0.000289296,-0.165478,-0.072849,0.479666,1011.42,26
64359194646,10119,116,-1.71857,0.0184486,-0.426749,0.00184849,0.0227297,0.0329517,-0.0584636,0.0117303,0.0344304,-0.031362,-0.0268283,2.823,-0.276437,0.321503,-9.74667,0.000943528,-0.00588947,-0.000422679,-0.165478,-0.072849,0.479666,1011.42,26
64369080800,9881,118,-1.71857,0.0184486,-0.426749,0.00184849,0.0227297,0.0329517,-0.0584636,0.0117303,0.0344304,-0.0313669,-0.0268306,2.82299,-0.264759,0.299862,-9.76903,0.00136801,-0.00503892,-0.000429983,-0.166345,-0.0730725,0.477692,1011.49,26
64379078800,9998,119,-1.71862,0.0179443,-0.427386,-0.00251465,-0.0258213,-0.0325897,-0.0466642,0.00652741,0.0364887,-0.0313614,-0.0268317,2.823,-0.288843,0.289903,-9.75356,0.00062421,-0.00481824,-0.000403071,-0.166836,-0.0737898,0.477383,1011.49,26
64389091954,10003,126,-1.71862,0.0179443,-0.427386,-0.00251465,-0.0258213,-0.0325897,-0.0466642,0.00652741,0.0364887,-0.0313595,-0.0268347,2.823,-0.288843,0.289903,-9.75356,0.00062421,-0.00481824,-0.000403071,-0.166836,-0.0737898,0.477383,1011.49,26
64399111569,10006,136,-1.71858,0.0179898,-0.427394,0.00208101,0.0022187,-0.000388009,-0.0458579,0.00494183,0.0378238,-0.0313607,-0.0268373,2.82299,-0.293213,0.298801,-9.721,0.00111321,-0.00448958,-0.00148172,-0.165637,-0.0744298,0.477337,1011.49,26
64409113492,10021,125,-1.71858,0.0179898,-0.427394,0.00208101,0.0022187,-0.000388009,-0.0458579,0.00494183,0.0378238,-0.0313586,-0.0268362,2.82299,-0.263127,0.295154,-9.72104,0.00148251,-0.00568037,-0.000228034,-0.16653,-0.0743465,0.476968,1011.47,26
64419064569,9960,115,-1.71858,0.0179867,-0.427426,0.00010376,-0.000156021,-0.00164795,-0.0449261,0.00656241,0.0366326,-0.0313548,-0.026837,2.82299,-0.267202,0.306522,-9.74771,0.00140119,-0.00515449,0.000532284,-0.165911,-0.074201,0.478709,1011.47,26
64429380646,10316,117,-1.71858,0.0179867,-0.427426,0.00010376,-0.000156021,-0.00164795,-0.0449261,0.00656241,0.0366326,-0.031352,-0.0268413,2.82299,-0.25911,0.292836,-9.76504,0.000720827,-0.00514654,-0.000409041,-0.16548,-0.0741891,0.477254,1011.47,26
64439077261,9691,120,-1.71861,0.0180171,-0.427418,-0.0014881,0.00147992,0.00037929,-0.0474367,0.00649278,0.0356409,-0.0313512,-0.0268405,2.82298,-0.286659,0.303016,-9.75235,0.00146493,-0.00514394,-0.000749048,-0.16769,-0.0745766,0.475804,1011.47,26
64449090954,10010,122,-1.71861,0.0180171,-0.427418,-0.0014881,0.00147992,0.00037929,-0.0474367,0.00649278,0.0356409,-0.0313501,-0.0268408,2.82298,-0.286659,0.303016,-9.75235,0.00146493,-0.00514394,-0.000749048,-0.16769,-0.0745766,0.475804,1011.47,26
64459698646,10618,118,-1.71861,0.0180047,-0.427453,-0.000213623,-0.000634766,-0.00181885,-0.0469559,0.00681494,0.036063,-0.031347,-0.0268366,2.82299,-0.279327,0.298011,-9.77518,0.00144336,-0.0044974,-0.00138851,-0.168264,-0.0722725,0.477764,1011.47,26
