# Time(ns),period(us),execution,x,y,z,Vx,Vy,Vz,roll_OT,pitch_OT,yaw_OT,roll_PX4,pitch_PX4,yaw_PX4,imu_acc_x,imu_acc_y,imu_acc_z,imu_gyr_x,imu_gyr_y,imu_gyr_z,imu_mag_x,imu_mag_y,imu_mag_z,imu_absolute_pressure,ultrasonic_distance
1287797877694,10345,98,0,0,0,0,0,0,0,-0,0,-0.0301907,-0.0256847,2.7357,-0.274828,0.31371,-9.73423,0.00191747,-0.00174475,-0.000100927,-0.185499,-0.0908492,0.334665,1011.34,14
1287807560694,9659,111,0,0,0,0,0,0,0,-0,0,-0.0301985,-0.0256999,2.73571,-0.274828,0.31371,-9.73423,0.00191747,-0.00174475,-0.000100927,-0.185499,-0.0908492,0.334665,1011.34,14
1287817634156,10069,125,-2.11488,5.27698,-1.24846,0,0,0,0.0489293,0.504848,-0.0126623,-0.0302027,-0.0256996,2.73572,-0.253552,0.303818,-9.76395,-0.000493254,-0.0019654,0.00104335,-0.182193,-0.0936755,0.337733,1011.41,14
1287827550079,9919,121,-2.11548,5.27603,-1.24869,-0.0310669,-0.0487549,-0.0121521,0.039197,0.518159,-0.0385361,-0.03021,-0.0257014,2.73572,-0.255344,0.299061,-9.75974,0.000380373,-0.000907353,0.00176714,-0.18517,-0.0966116,0.334927,1011.41,14
1287837567540,10003,137,-2.11556,5.27584,-1.249,-0.00354585,-0.00881231,-0.0151251,0.0375776,0.516086,-0.041087,-0.0302151,-0.0257028,2.73571,-0.255344,0.299061,-9.75974,0.000380373,-0.000907353,0.00176714,-0.18517,-0.0966116,0.334927,1011.41,14
1287848025925,10471,125,-2.11556,5.27584,-1.249,-0.00354585,-0.00881231,-0.0151251,0.0375776,0.516086,-0.041087,-0.03022,-0.0256931,2.73572,-0.226086,0.301881,-9.75133,0.00062908,-0.00141903,-0.00027057,-0.184113,-0.0938157,0.335395,1011.41,14
1287857841002,9805,133,-2.11613,5.27518,-1.24788,-0.0294312,-0.0342041,0.0574036,0.0593615,0.476916,-0.0556619,-0.0302221,-0.0256899,2.73572,-0.226086,0.301881,-9.75133,0.00062908,-0.00141903,-0.00027057,-0.184113,-0.0938157,0.335395,1011.41,14
1287867651386,9822,123,-2.11613,5.27518,-1.24788,-0.0294312,-0.0342041,0.0574036,0.0593615,0.476916,-0.0556619,-0.0302236,-0.0256868,2.7357,-0.261486,0.271829,-9.73792,-0.000614768,-0.00142242,0.000731602,-0.18279,-0.0917463,0.336648,1011.36,14
1287877551848,9891,130,-2.11619,5.27509,-1.24799,-0.00295294,-0.00434803,-0.00528971,0.0599099,0.47841,-0.0582949,-0.0302262,-0.0256901,2.7357,-0.261486,0.271829,-9.73792,-0.000614768,-0.00142242,0.000731602,-0.18279,-0.0917463,0.336648,1011.36,14
1287887581694,10019,134,-2.11619,5.27509,-1.24799,-0.00295294,-0.00434803,-0.00528971,0.0599099,0.47841,-0.0582949,-0.030227,-0.0256979,2.7357,-0.252031,0.278891,-9.76005,0.000221588,-0.00196018,0.000384885,-0.181815,-0.0932702,0.337083,1011.32,14
1287897560309,9983,135,-2.11619,5.27504,-1.24798,4.88281e-05,-0.00266113,0.000280762,0.0599168,0.478115,-0.0584037,-0.0302267,-0.0256986,2.7357,-0.265096,0.293837,-9.70648,0.000484844,-0.00101151,0.00176276,-0.184225,-0.0915679,0.334456,1011.32,14
1287907927079,10379,126,-2.11619,5.27504,-1.24798,4.88281e-05,-0.00266113,0.000280762,0.0599168,0.478115,-0.0584037,-0.0302211,-0.0257039,2.73571,-0.258004,0.289404,-9.7523,-0.000111163,-0.00301909,-0.000252543,-0.182301,-0.0933291,0.334537,1011.37,14
1287917705925,9793,113,-2.11619,5.27504,-1.24798,4.88281e-05,-0.00266113,0.000280762,0.0599168,0.478115,-0.0584037,-0.0302234,-0.0257129,2.73568,-0.245265,0.302147,-9.75796,0.000359106,-0.00161928,-0.00196437,-0.18259,-0.0930362,0.337831,1011.37,14
1287927658848,9932,132,-2.11512,5.27705,-1.24743,0.0525019,0.0980515,0.0270705,0.0487594,0.490687,-0.0181547,-0.0302227,-0.0257144,2.73567,-0.245153,0.286145,-9.76792,-9.2108e-05,-0.00163995,0.000280773,-0.18379,-0.0930164,0.33547,1011.37,14
1287937555925,9895,132,-2.1152,5.27661,-1.24855,-0.00457764,-0.0223633,-0.0574768,0.045769,0.506107,-0.02579,-0.0302223,-0.025715,2.73566,-0.245153,0.286145,-9.76792,-9.2108e-05,-0.00163995,0.000280773,-0.18379,-0.0930164,0.33547,1011.37,14
1287947549848,10004,123,-2.1152,5.27661,-1.24855,-0.00457764,-0.0223633,-0.0574768,0.045769,0.506107,-0.02579,-0.0302262,-0.0257126,2.73566,-0.233669,0.291034,-9.77004,0.000477667,-0.00101202,0.00155002,-0.183024,-0.0939684,0.334476,1011.37,14
1287957569925,10004,132,-2.11548,5.27588,-1.24858,-0.013637,-0.035505,-0.00124395,0.0404812,0.505522,-0.0389118,-0.0302295,-0.0257117,2.73567,-0.233669,0.291034,-9.77004,0.000477667,-0.00101202,0.00155002,-0.183024,-0.0939684,0.334476,1011.37,14
1287967899540,10341,131,-2.11548,5.27588,-1.24858,-0.013637,-0.035505,-0.00124395,0.0404812,0.505522,-0.0389118,-0.0302288,-0.0257113,2.73565,-0.256342,0.290536,-9.74165,0.00020442,-0.00185043,-0.000148473,-0.185496,-0.0943895,0.337118,1011.34,14
1287977560540,9653,136,-2.11615,5.27518,-1.24789,-0.034314,-0.0358154,0.0349915,0.0591098,0.477494,-0.0566671,-0.0302273,-0.0257125,2.73564,-0.256342,0.290536,-9.74165,0.00020442,-0.00185043,-0.000148473,-0.185496,-0.0943895,0.337118,1011.34,14
1287987821848,10270,129,-2.11615,5.27518,-1.24789,-0.034314,-0.0358154,0.0349915,0.0591098,0.477494,-0.0566671,-0.0302207,-0.025719,2.73566,-0.244207,0.289266,-9.76223,0.000665291,-0.00196364,0.000790973,-0.183222,-0.0906984,0.335711,1011.34,14
1287998320617,10489,139,-2.11616,5.27498,-1.24798,-5.81287e-05,-0.00983538,-0.00430153,0.0594775,0.478448,-0.0588783,-0.0302207,-0.025719,2.73566,-0.251124,0.261026,-9.73331,-0.000292246,-0.00196364,0.000822742,-0.185986,-0.091667,0.336836,1011.34,14
1288007673002,9365,127,-2.11616,5.27498,-1.24798,-5.81287e-05,-0.00983538,-0.00430153,0.0594775,0.478448,-0.0588783,-0.0302148,-0.0257217,2.73567,-0.244585,0.300199,-9.74535,-0.000299709,-0.00164032,0.000719175,-0.182847,-0.0909325,0.334976,1011.34,14
1288017539771,9870,121,-2.11616,5.27498,-1.24798,-5.81287e-05,-0.00983538,-0.00430153,0.0594775,0.478448,-0.0588783,-0.0302165,-0.0257218,2.73568,-0.240476,0.297131,-9.70271,-4.43038e-05,-0.00197154,0.00177269,-0.183883,-0.0918329,0.337485,1011.38,14
1288027698002,10161,120,-2.11615,5.27515,-1.2479,0.000109863,0.00849609,0.0039978,0.0590855,0.477643,-0.0573127,-0.0302217,-0.0257232,2.73569,-0.253819,0.294558,-9.73676,0.000179823,-0.00218456,0.00207907,-0.18303,-0.0911063,0.336661,1011.38,14
1288038245617,10536,133,-2.11615,5.27515,-1.2479,0.000109863,0.00849609,0.0039978,0.0590855,0.477643,-0.0573127,-0.0302184,-0.0257344,2.73571,-0.248527,0.273686,-9.76271,0.000696029,-0.00176003,0.00174946,-0.183497,-0.0930296,0.337061,1011.38,14
1288047563694,9320,125,-2.11613,5.27513,-1.24791,0.00105794,-0.000976562,-0.000180199,0.0597951,0.47724,-0.0567145,-0.0302125,-0.0257351,2.7357,-0.257088,0.304872,-9.73948,0.000466703,-0.000902911,0.00122505,-0.182149,-0.0960668,0.336671,1011.38,14
1288058008771,10460,115,-2.11613,5.27513,-1.24795,-7.32422e-05,4.88281e-05,-0.00233154,0.0596808,0.476919,-0.0559854,-0.0302104,-0.0257322,2.73569,-0.257514,0.277106,-9.73841,-8.24164e-05,-0.00089858,0.000717964,-0.185024,-0.0940676,0.336864,1011.38,14
1288067608617,9549,152,-2.11613,5.27513,-1.24795,-7.32422e-05,4.88281e-05,-0.00233154,0.0596808,0.476919,-0.0559854,-0.0302102,-0.0257281,2.73569,-0.257514,0.277106,-9.73841,-8.24164e-05,-0.00089858,0.000717964,-0.185024,-0.0940676,0.336864,1011.38,14
1288077548232,9976,125,-2.11515,5.27641,-1.24906,0.0479446,0.0623837,-0.0537109,0.0469967,0.51743,-0.0278263,-0.0302106,-0.0257268,2.73569,-0.247076,0.296314,-9.71933,-0.000149528,-0.00152598,0.00151869,-0.184295,-0.0896697,0.337116,1011.38,14
1288087604386,10022,151,-2.11515,5.27641,-1.24906,0.0479446,0.0623837,-0.0537109,0.0469967,0.51743,-0.0278263,-0.0302126,-0.0257329,2.73568,-0.247076,0.296314,-9.71933,-0.000149528,-0.00152598,0.00151869,-0.184295,-0.0896697,0.337116,1011.38,14
1288097829540,10265,124,-2.11616,5.27503,-1.24792,-0.0519653,-0.0703369,0.0583252,0.0590125,0.477991,-0.0584554,-0.0302136,-0.0257361,2.73569,-0.247633,0.303055,-9.74971,-5.91293e-05,-0.00143869,0.00145954,-0.183598,-0.0921443,0.336432,1011.4,14
1288107846155,10011,130,-2.11616,5.27503,-1.24792,-0.0519653,-0.0703369,0.0583252,0.0590125,0.477991,-0.0584554,-0.0302062,-0.0257277,2.73569,-0.236789,0.30478,-9.75523,0.000987803,-0.000900326,0.000893668,-0.185002,-0.0925529,0.337516,1011.4,14
1288117574925,9710,145,-2.11616,5.27503,-1.24792,-0.0519653,-0.0703369,0.0583252,0.0590125,0.477991,-0.0584554,-0.0302062,-0.0257277,2.73569,-0.236789,0.30478,-9.75523,0.000987803,-0.000900326,0.000893668,-0.185002,-0.0925529,0.337516,1011.4,14
1288127679617,10117,136,-2.11616,5.27503,-1.24792,-0.0519653,-0.0703369,0.0583252,0.0590125,0.477991,-0.0584554,-0.0302062,-0.0257277,2.73569,-0.25466,0.294421,-9.74615,-0.000589714,-0.00143826,0.00147427,-0.184175,-0.0970202,0.335931,1011.38,14
1288137549617,9877,130,-2.11613,5.27505,-1.24797,-0.0403646,-0.0569661,0.0343483,0.0593728,0.477471,-0.0576524,-0.0302108,-0.0257197,2.73566,-0.25466,0.294421,-9.74615,-0.000589714,-0.00143826,0.00147427,-0.184175,-0.0970202,0.335931,1011.38,14
1288147555386,10008,124,-2.11613,5.27505,-1.24797,-0.0403646,-0.0569661,0.0343483,0.0593728,0.477471,-0.0576524,-0.0302189,-0.0257187,2.73565,-0.240391,0.312099,-9.74775,-8.10487e-05,-0.00121852,0.000715278,-0.181421,-0.0935889,0.336907,1011.38,14
1288157735463,10196,110,-2.11618,5.27516,-1.24795,-0.00222168,0.00551758,0.000897217,0.060209,0.47803,-0.0577658,-0.0302271,-0.0257105,2.73565,-0.244838,0.299942,-9.75732,0.000349423,-0.00142532,0.000904968,-0.183091,-0.0927109,0.33721,1011.38,14
1288167860617,10120,117,-2.11618,5.27516,-1.24795,-0.00222168,0.00551758,0.000897217,0.060209,0.47803,-0.0577658,-0.030228,-0.0257083,2.73564,-0.257282,0.308959,-9.74497,0.000677237,-0.000373691,0.00123189,-0.18196,-0.0954143,0.335149,1011.34,14
1288177862309,10005,113,-2.11615,5.27517,-1.24795,0.00116257,0.00046503,-0.000145322,0.060013,0.477908,-0.0566949,-0.0302265,-0.0257002,2.73563,-0.215446,0.293698,-9.78037,0.000688689,-0.000906476,0.00165026,-0.18226,-0.0907791,0.335757,1011.34,14
1288187547386,9675,120,-2.11615,5.27517,-1.24795,0.00116257,0.00046503,-0.000145322,0.060013,0.477908,-0.0566949,-0.0302219,-0.0256859,2.73564,-0.250467,0.298307,-9.75485,0.000452427,-0.00089942,0.000801863,-0.183124,-0.091743,0.336259,1011.34,14
1288197787771,10246,115,-2.11619,5.27511,-1.24796,-0.0019165,-0.00297852,-0.000427246,0.0605112,0.478124,-0.0579046,-0.0302195,-0.0256781,2.73564,-0.248836,0.297547,-9.7251,0.000466979,-0.00142939,0.0012332,-0.184254,-0.0931803,0.335965,1011.36,14
1288207683463,9896,117,-2.11619,5.27511,-1.24796,-0.0019165,-0.00297852,-0.000427246,0.0605112,0.478124,-0.0579046,-0.0302213,-0.025675,2.73565,-0.259266,0.29091,-9.7584,-7.07238e-05,-0.00196449,0.000917927,-0.185045,-0.0915824,0.336245,1011.36,14
1288217616463,9934,115,-2.11619,5.2751,-1.24794,3.48772e-05,-0.000325521,0.000842866,0.0593691,0.478181,-0.0581296,-0.0302227,-0.0256758,2.73565,-0.259266,0.29091,-9.7584,-7.07238e-05,-0.00196449,0.000917927,-0.185045,-0.0915824,0.336245,1011.36,14
1288227548848,9927,119,-2.11619,5.2751,-1.24794,3.48772e-05,-0.000325521,0.000842866,0.0593691,0.478181,-0.0581296,-0.0302292,-0.0256811,2.73565,-0.246108,0.304181,-9.74071,-6.51601e-05,-0.00164915,0.0012452,-0.182977,-0.0910997,0.335859,1011.31,14
1288237534771,9987,117,-2.11619,5.2751,-1.24794,3.48772e-05,-0.000325521,0.000842866,0.0593691,0.478181,-0.0581296,-0.0302298,-0.0256862,2.73565,-0.237787,0.290579,-9.77855,0.000484844,-0.00101015,0.00176277,-0.18391,-0.0949462,0.336659,1011.31,14
1288247556771,10014,124,-2.11618,5.27515,-1.24789,0.000439453,0.00224609,0.00253296,0.0589237,0.477662,-0.0579556,-0.0302258,-0.0256789,2.73565,-0.252111,0.283711,-9.75472,0.000456176,-0.000361272,0.000912982,-0.18243,-0.0936761,0.337821,1011.31,14
1288258177463,10640,110,-2.11473,5.27684,-1.24902,0.0708473,0.0827288,-0.0548328,0.0433553,0.512301,-0.0241492,-0.0302227,-0.0256752,2.73565,-0.235889,0.288498,-9.75446,0.000901619,-0.00170202,0.000850291,-0.185875,-0.0924551,0.335385,1011.31,14
1288267777078,9597,113,-2.11473,5.27684,-1.24902,0.0708473,0.0827288,-0.0548328,0.0433553,0.512301,-0.0241492,-0.0302113,-0.025673,2.73565,-0.271147,0.29952,-9.78212,-0.000603918,-0.000901197,0.0010532,-0.183966,-0.0947122,0.337384,1011.41,14
1288277798078,10018,114,-2.11517,5.27702,-1.24769,-0.0224121,0.00871582,0.0682495,0.0474183,0.495328,-0.0199978,-0.0302092,-0.025673,2.73565,-0.271147,0.29952,-9.78212,-0.000603918,-0.000901197,0.0010532,-0.183966,-0.0947122,0.337384,1011.41,14
1288287553617,9745,122,-2.11517,5.27702,-1.24769,-0.0224121,0.00871582,0.0682495,0.0474183,0.495328,-0.0199978,-0.0302104,-0.0256733,2.73565,-0.262274,0.307373,-9.752,0.000136424,-0.00185901,0.00102624,-0.183236,-0.093495,0.335288,1011.41,14
1288297553078,9994,121,-2.11621,5.27522,-1.24787,-0.0508394,-0.0877744,-0.00904483,0.0604919,0.477866,-0.0580685,-0.0302195,-0.0256765,2.73564,-0.255093,0.302822,-9.7518,-1.52756e-05,-0.000915257,0.00273976,-0.184367,-0.0945324,0.334997,1011.38,14
1288307556232,10005,124,-2.11621,5.27522,-1.24787,-0.0508394,-0.0877744,-0.00904483,0.0604919,0.477866,-0.0580685,-0.0302191,-0.0256719,2.73564,-0.249031,0.299266,-9.7242,0.000466858,-0.00185634,0.00101802,-0.184145,-0.0935876,0.336839,1011.38,14
1288317713155,10173,113,-2.11564,5.27629,-1.24949,0.0293701,0.0548584,-0.0826294,0.0559399,0.508247,-0.0290863,-0.0302155,-0.0256704,2.73565,-0.235306,0.305193,-9.74863,-0.000421095,-0.000894165,0.000193672,-0.184009,-0.0935816,0.336114,1011.38,14
1288327556386,9829,125,-2.11564,5.27629,-1.24949,0.0293701,0.0548584,-0.0826294,0.0559399,0.508247,-0.0290863,-0.0302151,-0.0256687,2.73564,-0.235306,0.305193,-9.74863,-0.000421095,-0.000894165,0.000193672,-0.184009,-0.0935816,0.336114,1011.38,14
1288338041386,10497,115,-2.11564,5.27629,-1.24949,0.0293701,0.0548584,-0.0826294,0.0559399,0.508247,-0.0290863,-0.0302119,-0.0256724,2.73564,-0.243891,0.287596,-9.76103,0.000463126,-0.00196629,0.00111896,-0.183204,-0.092623,0.336254,1011.34,14
1288347554001,9499,124,-2.11543,5.2761,-1.24871,0.0101376,-0.00932385,0.0379639,0.0402198,0.518292,-0.036687,-0.0302108,-0.0256739,2.73565,-0.243891,0.287596,-9.76103,0.000463126,-0.00196629,0.00111896,-0.183204,-0.092623,0.336254,1011.34,14
1288357815848,10280,111,-2.11521,5.27684,-1.24749,0.0109253,0.0380859,0.0622986,0.0457624,0.486385,-0.0232952,-0.0302182,-0.0256729,2.73566,-0.237031,0.28696,-9.77008,-0.00108777,-0.00133372,0.0022363,-0.183092,-0.0931109,0.337207,1011.34,14
1288367555694,9723,123,-2.11521,5.27684,-1.24749,0.0109253,0.0380859,0.0622986,0.0457624,0.486385,-0.0232952,-0.0302235,-0.0256701,2.73565,-0.242618,0.286624,-9.76298,-0.000362626,-0.0014358,0.00189444,-0.183092,-0.0931109,0.337207,1011.34,14
1288377667155,10132,108,-2.11521,5.27684,-1.24749,0.0109253,0.0380859,0.0622986,0.0457624,0.486385,-0.0232952,-0.0302254,-0.0256712,2.73566,-0.256648,0.294416,-9.69739,-0.000101557,-0.0018528,0.000280801,-0.183017,-0.0920696,0.337053,1011.36,14
1288387777386,10100,118,-2.11541,5.27607,-1.24873,-0.00928897,-0.0374581,-0.060419,0.0421356,0.522747,-0.036119,-0.0302239,-0.0256779,2.73565,-0.259001,0.291619,-9.75455,-0.000593438,-0.00229031,0.00136391,-0.184001,-0.0948636,0.336343,1011.36,14
1288397542924,9760,120,-2.11612,5.27518,-1.24785,-0.0364014,-0.0455566,0.0449463,0.0597975,0.476906,-0.0558673,-0.0302248,-0.0256831,2.73565,-0.259001,0.291619,-9.75455,-0.000593438,-0.00229031,0.00136391,-0.184001,-0.0948636,0.336343,1011.36,14
1288407552309,10006,122,-2.11612,5.27518,-1.24785,-0.0364014,-0.0455566,0.0449463,0.0597975,0.476906,-0.0558673,-0.0302336,-0.0256899,2.73565,-0.263143,0.297756,-9.72098,-0.000632689,-0.00110947,0.000200377,-0.18328,-0.0920835,0.338743,1011.32,14
1288418168309,10627,115,-2.11527,5.27644,-1.24894,0.0411319,0.0611747,-0.0530483,0.0445738,0.512067,-0.0300313,-0.0302334,-0.0256887,2.73564,-0.252732,0.293788,-9.78841,0.00130005,-0.000576717,0.00067398,-0.182923,-0.0915129,0.337455,1011.32,14
1288427560771,9377,124,-2.11527,5.27644,-1.24894,0.0411319,0.0611747,-0.0530483,0.0445738,0.512067,-0.0300313,-0.0302253,-0.025684,2.73564,-0.252732,0.293788,-9.78841,0.00130005,-0.000576717,0.00067398,-0.182923,-0.0915129,0.337455,1011.32,14
1288437789540,10240,116,-2.11589,5.27571,-1.24926,-0.0318359,-0.0370361,-0.0166992,0.052973,0.498524,-0.0423746,-0.0302157,-0.0256798,2.73563,-0.261673,0.277171,-9.72026,0.000466971,-0.000374041,0.00123299,-0.183208,-0.0967022,0.336141,1011.41,14
1288447558924,9762,122,-2.11589,5.27571,-1.24926,-0.0318359,-0.0370361,-0.0166992,0.052973,0.498524,-0.0423746,-0.0302157,-0.0256798,2.73563,-0.261673,0.277171,-9.72026,0.000466971,-0.000374041,0.00123299,-0.183208,-0.0967022,0.336141,1011.41,14
1288457554771,10013,111,-2.11619,5.27528,-1.24785,-0.0142764,-0.0211356,0.0691209,0.0601222,0.477427,-0.0576231,-0.0302256,-0.0256805,2.73562,-0.243091,0.277244,-9.77963,0.000466641,-0.00196715,0.00122319,-0.183119,-0.0949442,0.336392,1011.41,14
1288467562309,9985,124,-2.11619,5.27528,-1.24785,-0.0142764,-0.0211356,0.0691209,0.0601222,0.477427,-0.0576231,-0.0302147,-0.0256789,2.73562,-0.241859,0.284768,-9.73404,0.00134108,-0.000907354,0.00173473,-0.184918,-0.0943744,0.335257,1011.41,14
1288477541386,9990,117,-2.11523,5.27671,-1.24847,0.0491699,0.0732666,-0.0319458,0.0500336,0.511416,-0.0246935,-0.0302096,-0.0256758,2.73563,-0.234545,0.295683,-9.75299,0.000144221,-0.000901216,0.00103024,-0.183742,-0.0917483,0.33692,1011.32,14
1288487552617,10008,122,-2.11523,5.27671,-1.24847,0.0491699,0.0732666,-0.0319458,0.0500336,0.511416,-0.0246935,-0.0302032,-0.025669,2.73563,-0.294261,0.28507,-9.77154,0.00119163,-0.00100739,0.000674086,-0.182567,-0.0942223,0.33614,1011.32,14
1288498155617,10609,120,-2.11624,5.27506,-1.24798,-0.049235,-0.0804501,0.0240827,0.0600086,0.479066,-0.0605924,-0.0302,-0.02567,2.73562,-0.225621,0.301513,-9.7661,0.00130392,-0.00143278,0.000666788,-0.182249,-0.0944814,0.338448,1011.28,14
1288507560924,9392,127,-2.11624,5.27506,-1.24798,-0.049235,-0.0804501,0.0240827,0.0600086,0.479066,-0.0605924,-0.0301912,-0.0256684,2.73561,-0.225621,0.301513,-9.7661,0.00130392,-0.00143278,0.000666788,-0.182249,-0.0944814,0.338448,1011.28,14
1288518266540,10721,116,-2.11521,5.27688,-1.24756,0.0527466,0.093042,0.0211304,0.0463635,0.489709,-0.0233087,-0.0301865,-0.0256674,2.73562,-0.246145,0.313467,-9.7342,0.000466783,-0.00143506,0.00122744,-0.183667,-0.089907,0.336773,1011.28,14
1288527806155,9534,123,-2.11521,5.27688,-1.24756,0.0527466,0.093042,0.0211304,0.0463635,0.489709,-0.0233087,-0.0301868,-0.0256635,2.73562,-0.251483,0.293378,-9.73717,-0.000377039,-0.00122859,0.00146566,-0.182584,-0.0956583,0.335648,1011.39,14
1288537547155,9736,118,-2.11521,5.27688,-1.24756,0.0527466,0.093042,0.0211304,0.0463635,0.489709,-0.0233087,-0.0301874,-0.0256606,2.73562,-0.251483,0.293378,-9.73717,-0.000377039,-0.00122859,0.00146566,-0.182584,-0.0956583,0.335648,1011.39,14
1288547547617,10006,121,-2.11621,5.2751,-1.24805,-0.0489444,-0.0868676,-0.0236177,0.0602589,0.478489,-0.0586634,-0.0301878,-0.0256581,2.73562,-0.267938,0.274412,-9.73493,0.000587591,-0.000373382,0.00166631,-0.183422,-0.0931083,0.336898,1011.39,14
1288558069078,10525,118,-2.11616,5.27519,-1.24791,0.00272217,0.00458984,0.00709839,0.0601193,0.477425,-0.0568601,-0.0301828,-0.0256545,2.73562,-0.267938,0.274412,-9.73493,0.000587591,-0.000373382,0.00166631,-0.183422,-0.0931083,0.336898,1011.39,14
1288567866694,9796,120,-2.11616,5.27519,-1.24791,0.00272217,0.00458984,0.00709839,0.0601193,0.477425,-0.0568601,-0.030181,-0.0256566,2.73561,-0.237726,0.292601,-9.73419,0.000665228,-0.00143157,0.00079696,-0.183472,-0.0967762,0.335429,1011.39,14
1288578208540,10353,110,-2.11616,5.27519,-1.24791,0.00272217,0.00458984,0.00709839,0.0601193,0.477425,-0.0568601,-0.0301799,-0.0256559,2.73561,-0.239429,0.297221,-9.77781,0.000651117,-0.00111016,0.00026981,-0.183203,-0.0928828,0.338654,1011.39,14
1288587679309,9463,115,-2.11617,5.27527,-1.24785,-0.000790551,0.00409226,0.00273786,0.0603289,0.477604,-0.0564001,-0.0301766,-0.0256539,2.73561,-0.254429,0.278023,-9.73141,0.000434917,-0.00110799,0.000282822,-0.183071,-0.0933364,0.335444,1011.37,14
1288597540540,9854,125,-2.1162,5.27508,-1.24801,-0.00129395,-0.00959473,-0.00809326,0.0599922,0.477866,-0.0585955,-0.0301744,-0.0256538,2.73561,-0.254429,0.278023,-9.73141,0.000434917,-0.00110799,0.000282822,-0.183071,-0.0933364,0.335444,1011.37,14
1288607557847,10010,128,-2.1162,5.27508,-1.24801,-0.00129395,-0.00959473,-0.00809326,0.0599922,0.477866,-0.0585955,-0.0301755,-0.0256544,2.73562,-0.25254,0.303776,-9.77484,-0.000607766,-0.00185569,0.000939167,-0.184378,-0.089989,0.337036,1011.37,14
1288617555693,9991,132,-2.11615,5.27512,-1.24786,0.00241699,0.00183105,0.00802612,0.0600707,0.477197,-0.057532,-0.0301811,-0.0256581,2.73563,-0.240597,0.290355,-9.76088,-7.35648e-05,-0.00122402,0.00103956,-0.184757,-0.0913542,0.337678,1011.39,14
1288627560078,10012,126,-2.11615,5.27512,-1.24786,0.00241699,0.00183105,0.00802612,0.0600707,0.477197,-0.057532,-0.0301859,-0.025653,2.73564,-0.252086,0.30212,-9.72636,0.000318986,-0.000154937,0.000172403,-0.181759,-0.0926243,0.336366,1011.39,14
1288637803770,10261,114,-2.11619,5.27506,-1.248,-0.00166248,-0.00274368,-0.00694638,0.059273,0.478727,-0.0591004,-0.0301871,-0.0256499,2.73564,-0.227169,0.293436,-9.77425,0.000877289,-0.00174704,0.000683379,-0.183817,-0.0935896,0.337068,1011.39,14
1288647868617,10062,116,-2.11619,5.27506,-1.248,-0.00166248,-0.00274368,-0.00694638,0.059273,0.478727,-0.0591004,-0.0301774,-0.0256596,2.73562,-0.260074,0.297843,-9.75546,0.000800961,-0.00302599,0.00162574,-0.184657,-0.0947796,0.335885,1011.39,14
1288658026540,10168,106,-2.11619,5.27506,-1.248,-0.00166248,-0.00274368,-0.00694638,0.059273,0.478727,-0.0591004,-0.030173,-0.0256692,2.73564,-0.27014,0.310134,-9.72192,0.00153046,-0.00164178,0.00119329,-0.183182,-0.0906283,0.33691,1011.39,14
1288667904232,9863,120,-2.11562,5.2763,-1.24961,0.0289307,0.063501,-0.0827759,0.0566564,0.511472,-0.0284773,-0.0301711,-0.025672,2.73564,-0.276135,0.305586,-9.76575,0.000478169,-0.00154716,0.00154519,-0.184912,-0.0922958,0.335434,1011.39,14
1288678045924,10146,115,-2.11619,5.27515,-1.24786,-0.0277972,-0.0561988,0.0855364,0.0595341,0.47774,-0.0581792,-0.0301677,-0.0256766,2.73565,-0.251899,0.284984,-9.74012,-0.000438455,-0.00169308,0.000723422,-0.18246,-0.0931089,0.336946,1011.39,14
1288687772847,9725,117,-2.11619,5.27515,-1.24786,-0.0277972,-0.0561988,0.0855364,0.0595341,0.47774,-0.0581792,-0.0301711,-0.0256791,2.73565,-0.255159,0.291849,-9.72557,0.000870949,-0.00142715,0.000575965,-0.185787,-0.092777,0.33562,1011.34,14
1288697540540,9763,118,-2.1156,5.27561,-1.24902,0.0302979,0.0235352,-0.0595154,0.0357681,0.512676,-0.0453404,-0.0301716,-0.0256777,2.73565,-0.255159,0.291849,-9.72557,0.000870949,-0.00142715,0.000575965,-0.185787,-0.092777,0.33562,1011.34,14
1288707838309,10302,119,-2.1156,5.27561,-1.24902,0.0302979,0.0235352,-0.0595154,0.0357681,0.512676,-0.0453404,-0.0301673,-0.0256697,2.73564,-0.249269,0.305055,-9.757,0.00045272,-0.000478179,0.000810531,-0.183545,-0.0927777,0.335624,1011.39,14
1288717523155,9688,113,-2.11619,5.27509,-1.24797,-0.0289714,-0.0252976,0.0514439,0.0596777,0.478096,-0.0586591,-0.030171,-0.0256703,2.73564,-0.241191,0.311623,-9.73668,2.61394e-05,-0.00271256,0.000699338,-0.182165,-0.0939829,0.336208,1011.39,14
1288727551386,10018,121,-2.11619,5.27509,-1.24797,-0.0289714,-0.0252976,0.0514439,0.0596777,0.478096,-0.0586591,-0.0301807,-0.0256788,2.73562,-0.240286,0.304106,-9.78667,-0.000614918,-0.00196276,0.000727149,-0.18491,-0.0952761,0.337891,1011.39,14
1288737599078,10059,112,-2.11622,5.27506,-1.2479,-0.00133057,-0.00144043,0.0034668,0.0597048,0.478507,-0.0595479,-0.030184,-0.0256801,2.73562,-0.256447,0.276469,-9.77751,-5.82638e-05,-0.00111847,0.00125423,-0.184065,-0.0939876,0.336833,1011.35,14
1288747832001,10229,118,-2.11622,5.27506,-1.2479,-0.00133057,-0.00144043,0.0034668,0.0597048,0.478507,-0.0595479,-0.0301851,-0.0256745,2.73565,-0.235171,0.291222,-9.73544,0.000466801,-0.00133169,0.00122789,-0.185447,-0.0883818,0.336205,1011.35,14
1288757544693,9703,122,-2.11577,5.27519,-1.24868,0.021775,0.0061849,-0.0379464,0.0387946,0.497992,-0.0497617,-0.0301831,-0.0256723,2.73565,-0.235171,0.291222,-9.73544,0.000466801,-0.00133169,0.00122789,-0.185447,-0.0883818,0.336205,1011.35,14
1288767545924,10009,116,-2.11577,5.27519,-1.24868,0.021775,0.0061849,-0.0379464,0.0387946,0.497992,-0.0497617,-0.0301809,-0.0256708,2.73565,-0.227865,0.297103,-9.72455,-6.09661e-05,-0.000902978,0.00125097,-0.182705,-0.0931076,0.336794,1011.35,14
1288777784309,10245,113,-2.11619,5.27514,-1.24783,-0.0213989,-0.00227051,0.0436646,0.0589858,0.477698,-0.0583479,-0.0301791,-0.0256653,2.73565,-0.253404,0.292613,-9.75858,0.000316056,-0.00174195,-4.4644e-05,-0.183053,-0.0949409,0.33599,1011.35,14
1288787573463,9791,113,-2.11619,5.27514,-1.24783,-0.0213989,-0.00227051,0.0436646,0.0589858,0.477698,-0.0583479,-0.0301825,-0.0256651,2.73565,-0.256409,0.29525,-9.78231,-8.45431e-05,-0.00089858,0.000718036,-0.186145,-0.0889471,0.336864,1011.35,14
1288797735001,10157,117,-2.11622,5.27511,-1.24793,-0.00167411,-0.0015346,-0.00510951,0.0598741,0.47875,-0.0593166,-0.0301821,-0.0256658,2.73567,-0.270085,0.290454,-9.7568,0.000448843,-0.00143306,0.000695633,-0.183909,-0.0943671,0.334343,1011.35,14
1288807551309,9806,121,-2.11622,5.27511,-1.24793,-0.00167411,-0.0015346,-0.00510951,0.0598741,0.47875,-0.0593166,-0.0301815,-0.0256651,2.73567,-0.270085,0.290454,-9.7568,0.000448843,-0.00143306,0.000695633,-0.183909,-0.0943671,0.334343,1011.35,14
1288817541924,9996,118,-2.11553,5.27591,-1.2488,0.035791,0.0407959,-0.0447388,0.0380985,0.517356,-0.0409108,-0.0301803,-0.0256593,2.73567,-0.240923,0.300355,-9.71617,0.000430553,-0.00195833,0.000153447,-0.186631,-0.0919857,0.336695,1011.34,14
1288827550616,10003,123,-2.11553,5.27591,-1.2488,0.035791,0.0407959,-0.0447388,0.0380985,0.517356,-0.0409108,-0.0301796,-0.025659,2.73567,-0.240923,0.300355,-9.71617,0.000430553,-0.00195833,0.000153447,-0.186631,-0.0919857,0.336695,1011.34,14
1288837529770,9990,112,-2.11553,5.27591,-1.2488,0.035791,0.0407959,-0.0447388,0.0380985,0.517356,-0.0409108,-0.0301761,-0.025654,2.73566,-0.242083,0.27371,-9.79313,0.000448992,-0.00089858,0.000700037,-0.184182,-0.0923784,0.335729,1011.3,14
1288847772693,10238,121,-2.11502,5.2772,-1.24732,0.0246233,0.062872,0.0721959,0.0524487,0.490616,-0.0125806,-0.0301699,-0.0256539,2.73565,-0.249357,0.284977,-9.73283,0.000462832,-0.00196622,0.00111026,-0.183046,-0.0946421,0.338554,1011.3,14
1288858293847,10524,116,-2.11569,5.27529,-1.24871,-0.0343994,-0.097876,-0.0707764,0.0403093,0.499466,-0.0475241,-0.0301699,-0.0256539,2.73565,-0.263648,0.285256,-9.79978,-0.000539395,-0.000916976,0.00296581,-0.184103,-0.0959783,0.335697,1011.3,14
1288867555386,9265,114,-2.11569,5.27529,-1.24871,-0.0343994,-0.097876,-0.0707764,0.0403093,0.499466,-0.0475241,-0.0301722,-0.0256572,2.73565,-0.258655,0.298842,-9.73684,-0.000589405,-0.0011193,0.00148341,-0.183417,-0.0938295,0.337052,1011.3,14
1288877541078,9975,120,-2.1162,5.27511,-1.24795,-0.0249721,-0.0085798,0.0369524,0.0589762,0.477637,-0.0587348,-0.0301755,-0.0256569,2.73564,-0.258655,0.298842,-9.73684,-0.000589405,-0.0011193,0.00148341,-0.183417,-0.0938295,0.337052,1011.3,14
1288887551001,10012,121,-2.1162,5.27511,-1.24795,-0.0249721,-0.0085798,0.0369524,0.0589762,0.477637,-0.0587348,-0.0301847,-0.0256617,2.73567,-0.259946,0.310798,-9.75507,0.000370478,-0.00207706,0.00155271,-0.184181,-0.0890985,0.335756,1011.37,14
1288897949155,10403,120,-2.11527,5.27635,-1.2486,0.047876,0.063501,-0.0333496,0.0456711,0.523826,-0.0298522,-0.0301866,-0.0256668,2.73568,-0.25466,0.291602,-9.73928,-0.000657916,-0.0017394,-0.000547391,-0.183681,-0.0927036,0.33635,1011.37,14
1288907556693,9599,123,-2.11527,5.27635,-1.2486,0.047876,0.063501,-0.0333496,0.0456711,0.523826,-0.0298522,-0.0301918,-0.025671,2.73566,-0.248392,0.309129,-9.70172,0.0012094,-0.00249857,0.00119295,-0.183337,-0.0935896,0.337051,1011.37,14
1288917541309,9986,121,-2.11617,5.27504,-1.24795,-0.0439802,-0.0641044,0.0315116,0.0589011,0.4784,-0.0588703,-0.0301913,-0.025676,2.73566,-0.248392,0.309129,-9.70172,0.0012094,-0.00249857,0.00119295,-0.183337,-0.0935896,0.337051,1011.37,14
1288927578770,10041,121,-2.11617,5.27504,-1.24795,-0.0439802,-0.0641044,0.0315116,0.0589011,0.4784,-0.0588703,-0.0301873,-0.0256833,2.73568,-0.240967,0.309863,-9.75498,-0.000238804,-0.0014476,0.00231974,-0.18694,-0.0923083,0.337023,1011.34,14
1288937529309,9957,114,-2.11617,5.27504,-1.24795,-0.0439802,-0.0641044,0.0315116,0.0589011,0.4784,-0.0588703,-0.030192,-0.0256825,2.73569,-0.240967,0.309863,-9.75498,-0.000238804,-0.0014476,0.00231974,-0.18694,-0.0923083,0.337023,1011.34,14
1288947554693,10015,123,-2.11614,5.27511,-1.24788,0.00134277,0.00371094,0.00378418,0.058622,0.477058,-0.0572293,-0.0302031,-0.0256812,2.7357,-0.239828,0.292873,-9.7594,0.000377833,-0.00123064,0.00186621,-0.183896,-0.0919896,0.337083,1011.32,14
1288958296078,10746,120,-2.11614,5.27514,-1.24786,0.000186012,0.0016276,0.000994001,0.0595045,0.477965,-0.0566303,-0.0302026,-0.025682,2.73571,-0.245823,0.285152,-9.76661,-6.98759e-05,-0.00121891,0.00124257,-0.184686,-0.0928524,0.335022,1011.32,14
1288967616309,9322,120,-2.11614,5.27514,-1.24786,0.000186012,0.0016276,0.000994001,0.0595045,0.477965,-0.0566303,-0.0302014,-0.0256802,2.73573,-0.252013,0.277286,-9.73125,0.00150185,-0.000895949,0.000345267,-0.18428,-0.0890139,0.3352,1011.32,14
1288978137309,10525,116,-2.11614,5.27514,-1.24786,0.000186012,0.0016276,0.000994001,0.0595045,0.477965,-0.0566303,-0.0301904,-0.0256758,2.73573,-0.248506,0.28498,-9.73513,0.00143968,-0.00197154,0.00172263,-0.185037,-0.0921443,0.33648,1011.32,14
1288988200232,10057,120,-2.11515,5.2768,-1.24791,0.0508911,0.0848145,-0.00241089,0.049269,0.497061,-0.0200629,-0.0301904,-0.0256758,2.73573,-0.24219,0.279559,-9.71663,0.000328279,-0.00089507,0.000278194,-0.185378,-0.0909391,0.335861,1011.32,14
1288997913847,9724,113,-2.11515,5.2768,-1.24791,0.0508911,0.0848145,-0.00241089,0.049269,0.497061,-0.0200629,-0.0301777,-0.0256713,2.73575,-0.232833,0.272703,-9.73053,-8.52501e-05,-0.00111134,0.000716304,-0.185259,-0.0937489,0.337035,1011.38,14
1289007563309,9628,128,-2.11515,5.2768,-1.24791,0.0508911,0.0848145,-0.00241089,0.049269,0.497061,-0.0200629,-0.0301739,-0.0256647,2.73574,-0.232833,0.272703,-9.73053,-8.52501e-05,-0.00111134,0.000716304,-0.185259,-0.0937489,0.337035,1011.38,14
1289017818539,10266,119,-2.11538,5.27628,-1.24874,0.0415039,0.0568115,-0.0442688,0.0454515,0.525812,-0.0328324,-0.0301663,-0.0256571,2.73573,-0.226301,0.285151,-9.78266,0.00119513,-0.00089858,0.000674865,-0.184417,-0.0955796,0.335871,1011.38,14
1289027556386,9733,121,-2.11538,5.27628,-1.24874,0.0415039,0.0568115,-0.0442688,0.0454515,0.525812,-0.0328324,-0.0301536,-0.025645,2.73573,-0.269005,0.287105,-9.75999,-0.000266972,-0.00122507,0.00157347,-0.186098,-0.0912591,0.335883,1011.4,14
1289037532309,9987,113,-2.11538,5.27628,-1.24874,0.0415039,0.0568115,-0.0442688,0.0454515,0.525812,-0.0328324,-0.0301553,-0.0256453,2.73574,-0.219931,0.286428,-9.73747,-0.000579097,-0.00218437,0.00178897,-0.184759,-0.0912736,0.337599,1011.4,14
1289047685616,10146,122,-2.11526,5.27641,-1.24884,0.0058245,0.0062779,-0.00449916,0.0488535,0.526974,-0.0286254,-0.0301657,-0.025645,2.73576,-0.223657,0.305873,-9.73497,0.000460921,-0.00134082,0.00105362,-0.184062,-0.0931882,0.336919,1011.35,14
1289057541616,9853,123,-2.11512,5.27674,-1.24834,0.00737305,0.0171875,0.0256104,0.0669472,0.522076,-0.0132723,-0.030172,-0.0256402,2.73576,-0.223657,0.305873,-9.73497,0.000460921,-0.00134082,0.00105362,-0.184062,-0.0931882,0.336919,1011.35,14
1289067565385,10012,133,-2.11512,5.27674,-1.24834,0.00737305,0.0171875,0.0256104,0.0669472,0.522076,-0.0132723,-0.0301724,-0.0256393,2.73575,-0.249565,0.296823,-9.74381,0.000456068,-0.00154168,0.000909779,-0.18287,-0.093766,0.339035,1011.35,14
1289077832309,10293,111,-2.11621,5.27511,-1.2479,-0.0531878,-0.0797294,0.0214902,0.0597504,0.478234,-0.0582733,-0.0301708,-0.0256392,2.73574,-0.253737,0.292862,-9.73295,3.60154e-05,-0.00186082,0.00113227,-0.183695,-0.0947803,0.335933,1011.35,14
1289087547924,9704,120,-2.11621,5.27511,-1.2479,-0.0531878,-0.0797294,0.0214902,0.0597504,0.478234,-0.0582733,-0.0301744,-0.0256405,2.73574,-0.214405,0.306792,-9.73701,-0.000303094,-0.00249498,0.00050113,-0.181325,-0.0938328,0.337382,1011.35,14
1289097541539,9995,118,-2.11494,5.27707,-1.24835,0.0646362,0.10061,-0.0231201,0.0460204,0.494596,-0.0134531,-0.0301837,-0.0256388,2.73573,-0.237689,0.289095,-9.74635,-0.000733086,-0.00142483,0.000526729,-0.181325,-0.0938328,0.337382,1011.36,14
1289107699539,10165,113,-2.11494,5.27707,-1.24835,0.0646362,0.10061,-0.0231201,0.0460204,0.494596,-0.0134531,-0.0301854,-0.0256384,2.73573,-0.261521,0.294565,-9.76492,-0.00029999,-0.000897705,0.000619117,-0.184643,-0.093103,0.336299,1011.36,14
1289117759924,10042,131,-2.11549,5.27586,-1.24865,-0.0281494,-0.062207,-0.0155396,0.0379018,0.513777,-0.0397592,-0.0301854,-0.0256384,2.73573,-0.261521,0.294565,-9.76492,-0.00029999,-0.000897705,0.000619117,-0.184643,-0.093103,0.336299,1011.36,14
1289127549001,9800,121,-2.11549,5.27586,-1.24865,-0.0281494,-0.062207,-0.0155396,0.0379018,0.513777,-0.0397592,-0.0301936,-0.0256308,2.73572,-0.257901,0.310802,-9.79306,-0.000918715,-0.00196718,0.00127354,-0.184235,-0.092545,0.33653,1011.4,14
1289137818539,10274,116,-2.11612,5.27506,-1.24789,-0.0307966,-0.0388067,0.0370454,0.0588344,0.47762,-0.0579439,-0.0302024,-0.0256294,2.73574,-0.257901,0.310802,-9.79306,-0.000918715,-0.00196718,0.00127354,-0.184235,-0.092545,0.33653,1011.4,14
1289147547693,9725,120,-2.11612,5.27506,-1.24789,-0.0307966,-0.0388067,0.0370454,0.0588344,0.47762,-0.0579439,-0.0302056,-0.0256275,2.73574,-0.232849,0.269704,-9.73874,0.000975083,-0.00185448,0.000674403,-0.184022,-0.0936583,0.335713,1011.41,14
1289157537155,9990,117,-2.11612,5.27506,-1.24789,-0.0307966,-0.0388067,0.0370454,0.0588344,0.47762,-0.0579439,-0.0302004,-0.0256264,2.73574,-0.253202,0.311647,-9.7454,-0.000268494,-0.000905616,0.00157807,-0.183917,-0.0972648,0.33648,1011.41,14
1289168234308,10711,109,-2.11617,5.27503,-1.24794,-0.00216064,-0.00151367,-0.00273437,0.0587836,0.477981,-0.0581983,-0.0301998,-0.0256251,2.73573,-0.228136,0.286194,-9.76662,0.000412844,-0.00184989,-0.000371453,-0.184092,-0.0946209,0.336028,1011.41,14
1289177539078,9294,117,-2.11542,5.27609,-1.24858,0.0365048,0.0517578,-0.0309942,0.0406121,0.518265,-0.0364525,-0.030199,-0.0256253,2.73572,-0.228136,0.286194,-9.76662,0.000412844,-0.00184989,-0.000371453,-0.184092,-0.0946209,0.336028,1011.41,14
1289187831770,10294,117,-2.11542,5.27609,-1.24858,0.0365048,0.0517578,-0.0309942,0.0406121,0.518265,-0.0364525,-0.0301948,-0.0256224,2.73573,-0.255486,0.268773,-9.77254,-0.000604207,-0.0016428,0.00104466,-0.183925,-0.0905424,0.336216,1011.41,14
1289197891308,10064,114,-2.11617,5.27512,-1.2479,-0.0383423,-0.0498047,0.0346069,0.0587359,0.478311,-0.0581328,-0.0301977,-0.0256224,2.73573,-0.255486,0.268773,-9.77254,-0.000604207,-0.0016428,0.00104466,-0.183925,-0.0905424,0.336216,1011.41,14
1289207551462,9649,118,-2.11617,5.27512,-1.2479,-0.0383423,-0.0498047,0.0346069,0.0587359,0.478311,-0.0581328,-0.0301977,-0.0256224,2.73573,-0.239552,0.300315,-9.73881,-0.000508383,-0.00143306,0.000727925,-0.183479,-0.0936544,0.335215,1011.42,14
1289217542924,9996,113,-2.11618,5.27503,-1.24796,-0.000592913,-0.00446429,-0.00291225,0.0587816,0.477907,-0.0583454,-0.0301994,-0.0256205,2.73572,-0.239552,0.300315,-9.73881,-0.000508383,-0.00143306,0.000727925,-0.183479,-0.0936544,0.335215,1011.42,14
1289228218462,10674,120,-2.11618,5.27503,-1.24796,-0.000592913,-0.00446429,-0.00291225,0.0587816,0.477907,-0.0583454,-0.0302054,-0.0256141,2.73572,-0.24832,0.282668,-9.75029,-0.000600343,-0.00154499,0.00115919,-0.18332,-0.0924735,0.33754,1011.42,14
1289237531693,9314,114,-2.11547,5.27596,-1.2484,0.0361938,0.0478027,-0.0220886,0.0424769,0.504796,-0.0369604,-0.030205,-0.0256115,2.73571,-0.235712,0.302466,-9.73658,0.000977905,-0.00121802,0.000679559,-0.182231,-0.0918263,0.336628,1011.42,14
1289247554693,10016,122,-2.11547,5.27596,-1.2484,0.0361938,0.0478027,-0.0220886,0.0424769,0.504796,-0.0369604,-0.0302095,-0.0256106,2.73571,-0.250018,0.290465,-9.79431,-0.000579007,-0.00186459,0.00179161,-0.183002,-0.0983133,0.337481,1011.42,14
1289257526462,9985,108,-2.11547,5.27596,-1.2484,0.0361938,0.0478027,-0.0220886,0.0424769,0.504796,-0.0369604,-0.0302112,-0.0256143,2.73571,-0.267195,0.283724,-9.75605,-7.68443e-05,-0.00196452,0.000922513,-0.182474,-0.0936656,0.336541,1011.34,14
1289267918231,10393,112,-2.11564,5.27538,-1.24923,-0.00827753,-0.0285761,-0.040661,0.0397052,0.502519,-0.0457349,-0.0302105,-0.0256167,2.73571,-0.237809,0.287439,-9.74847,0.000455906,-0.00164786,0.000904986,-0.183526,-0.0934223,0.336179,1011.34,14
1289278318078,10397,115,-2.11538,5.27625,-1.24821,0.0133423,0.0446289,0.0523987,0.0445846,0.50174,-0.0318494,-0.0301931,-0.0256143,2.73571,-0.236671,0.282468,-9.77864,0.00154469,-0.00164954,0.00161525,-0.183408,-0.0914316,0.337312,1011.34,14
1289287551078,9223,120,-2.11538,5.27625,-1.24821,0.0133423,0.0446289,0.0523987,0.0445846,0.50174,-0.0318494,-0.0301896,-0.0256131,2.73572,-0.236671,0.282468,-9.77864,0.00154469,-0.00164954,0.00161525,-0.183408,-0.0914316,0.337312,1011.34,14
1289297540847,9993,117,-2.11541,5.27607,-1.24855,-0.00137184,-0.0085333,-0.0168399,0.0410567,0.519556,-0.0367426,-0.0301908,-0.025614,2.73573,-0.259821,0.295827,-9.7374,0.000373322,-0.00196976,0.00154311,-0.185338,-0.0918289,0.337053,1011.34,14
1289307553231,10010,120,-2.11541,5.27607,-1.24855,-0.00137184,-0.0085333,-0.0168399,0.0410567,0.519556,-0.0367426,-0.030188,-0.0256144,2.73575,-0.259749,0.290656,-9.71359,0.000467134,-0.00121378,0.00123777,-0.18442,-0.0885583,0.33817,1011.33,14
1289317584001,10043,111,-2.11618,5.27508,-1.24795,-0.039502,-0.0510742,0.0306396,0.0584129,0.478197,-0.0582401,-0.0301859,-0.0256149,2.73575,-0.259156,0.29191,-9.75912,0.00041674,-0.00110686,-0.000255992,-0.184048,-0.0923916,0.337325,1011.33,14
1289327550308,9956,119,-2.11618,5.27508,-1.24795,-0.039502,-0.0510742,0.0306396,0.0584129,0.478197,-0.0582401,-0.0301827,-0.0256166,2.73574,-0.245938,0.303622,-9.75704,0.00043429,-0.00195924,0.000264241,-0.182473,-0.0917457,0.336557,1011.35,14
1289338094385,10551,118,-2.11622,5.27516,-1.24794,-0.00166248,0.003883,0.000651042,0.060397,0.478256,-0.0579656,-0.0301801,-0.0256174,2.73575,-0.245938,0.303622,-9.75704,0.00043429,-0.00195924,0.000264241,-0.182473,-0.0917457,0.336557,1011.35,14
1289347547078,9447,120,-2.11622,5.27516,-1.24794,-0.00166248,0.003883,0.000651042,0.060397,0.478256,-0.0579656,-0.0301792,-0.0256176,2.73576,-0.253191,0.283765,-9.70938,0.000131339,-0.00196364,0.000808453,-0.183333,-0.0901503,0.33716,1011.35,14
1289357549462,9993,122,-2.11522,5.27669,-1.24887,0.0510376,0.0786621,-0.0476746,0.0431604,0.510389,-0.026953,-0.0301757,-0.0256215,2.73576,-0.262782,0.307638,-9.75844,0.000431249,-0.000894241,0.000174097,-0.184914,-0.0929549,0.33775,1011.43,14
1289367785078,10248,116,-2.11522,5.27669,-1.24887,0.0510376,0.0786621,-0.0476746,0.0431604,0.510389,-0.026953,-0.0301768,-0.025625,2.73577,-0.244025,0.309201,-9.76473,-0.00028287,-0.00196541,0.00103751,-0.181852,-0.092061,0.335973,1011.43,14
1289377536154,9748,116,-2.11619,5.27515,-1.24786,-0.0475028,-0.0752418,0.0493629,0.0604703,0.477787,-0.0572119,-0.0301811,-0.0256279,2.73577,-0.244025,0.309201,-9.76473,-0.00028287,-0.00196541,0.00103751,-0.181852,-0.092061,0.335973,1011.43,14
1289387549924,10013,119,-2.11619,5.27515,-1.24786,-0.0475028,-0.0752418,0.0493629,0.0604703,0.477787,-0.0572119,-0.0301819,-0.0256236,2.73576,-0.245184,0.292989,-9.74888,0.000234411,-0.000899447,0.000812576,-0.184857,-0.0962295,0.337081,1011.43,14
1289397757308,10212,117,-2.11544,5.27604,-1.24861,0.0386597,0.045459,-0.0386841,0.0388706,0.517286,-0.0385856,-0.0301808,-0.0256212,2.73576,-0.272604,0.301836,-9.74625,0.000434862,-0.000152761,0.000281198,-0.181956,-0.0933548,0.337647,1011.43,14
1289407559462,9786,127,-2.11544,5.27604,-1.24861,0.0386597,0.045459,-0.0386841,0.0388706,0.517286,-0.0385856,-0.0301762,-0.025611,2.73575,-0.229845,0.300386,-9.74701,0.00120966,-0.000902981,0.00120863,-0.183174,-0.0934302,0.337127,1011.37,14
1289418089693,10548,116,-2.11619,5.27511,-1.24794,-0.0368652,-0.0453637,0.0329009,0.0593178,0.478583,-0.0584485,-0.0301683,-0.0256038,2.73574,-0.255292,0.283197,-9.75712,0.000988816,-0.00196539,0.000991301,-0.182855,-0.0934104,0.334715,1011.37,14
1289427556154,9454,126,-2.11619,5.27511,-1.24794,-0.0368652,-0.0453637,0.0329009,0.0593178,0.478583,-0.0584485,-0.0301607,-0.0256106,2.73573,-0.244542,0.273649,-9.73014,0.000448696,-0.00196276,0.000691267,-0.182684,-0.0946328,0.337421,1011.33,14
1289437540154,9981,126,-2.11617,5.27521,-1.24789,0.00128174,0.00505371,0.00234375,0.0603083,0.477755,-0.056982,-0.0301592,-0.0256134,2.73573,-0.244542,0.273649,-9.73014,0.000448696,-0.00196276,0.000691267,-0.182684,-0.0946328,0.337421,1011.33,14
1289447562231,10019,127,-2.11617,5.27521,-1.24789,0.00128174,0.00505371,0.00234375,0.0603083,0.477755,-0.056982,-0.0301598,-0.0256154,2.73573,-0.250828,0.278416,-9.7249,-0.000586213,-0.00196978,0.00157801,-0.184717,-0.0923043,0.336468,1011.33,14
1289457729308,10177,123,-2.11574,5.27594,-1.24941,0.0209728,0.0356445,-0.0739979,0.0535965,0.504548,-0.035976,-0.0301613,-0.0256209,2.73575,-0.231598,0.28989,-9.74337,0.000416569,-0.00152583,-0.000261048,-0.186655,-0.0903798,0.335989,1011.29,14
1289467621693,9903,116,-2.11574,5.27594,-1.24941,0.0209728,0.0356445,-0.0739979,0.0535965,0.504548,-0.035976,-0.0301609,-0.0256194,2.73576,-0.238933,0.295349,-9.77174,0.00140072,-0.00110614,0.000559065,-0.184761,-0.088153,0.337545,1011.29,14
1289477544308,9908,122,-2.11617,5.27513,-1.24789,-0.0219971,-0.0411621,0.0779053,0.0598238,0.477993,-0.057128,-0.0301566,-0.0256165,2.73577,-0.238933,0.295349,-9.77174,0.00140072,-0.00110614,0.000559065,-0.184761,-0.088153,0.337545,1011.29,14
1289487851385,10314,119,-2.11617,5.27513,-1.24789,-0.0219971,-0.0411621,0.0779053,0.0598238,0.477993,-0.057128,-0.0301527,-0.0256209,2.73577,-0.260862,0.280578,-9.71843,-8.59643e-05,-0.00174911,0.000711067,-0.185221,-0.0925384,0.335763,1011.29,14
1289497540154,9685,119,-2.11613,5.27519,-1.24785,0.00170898,0.00283668,0.00209845,0.0589887,0.477303,-0.0560417,-0.0301499,-0.0256216,2.73577,-0.23587,0.273409,-9.73214,0.000699119,-0.0016451,0.0017503,-0.183654,-0.0923103,0.337153,1011.29,14
1289507558231,10013,124,-2.11613,5.27519,-1.24785,0.00170898,0.00283668,0.00209845,0.0589887,0.477303,-0.0560417,-0.0301504,-0.0256167,2.73576,-0.243169,0.295824,-9.762,-0.000387254,-0.000901184,0.00104435,-0.183778,-0.0970995,0.335837,1011.35,14
1289517597616,10060,107,-2.11612,5.27509,-1.24797,0.000756836,-0.00498047,-0.00613403,0.0588032,0.478228,-0.0571193,-0.0301471,-0.0256108,2.73577,-0.259362,0.281944,-9.74918,0.000715827,-6.04068e-05,0.00229684,-0.182396,-0.090785,0.336482,1011.35,14
1289528174539,10565,121,-2.11612,5.27509,-1.24797,0.000756836,-0.00498047,-0.00613403,0.0588032,0.478228,-0.0571193,-0.0301448,-0.0256036,2.73577,-0.261761,0.29615,-9.71504,-6.54249e-05,-0.000902962,0.00124925,-0.183483,-0.0917529,0.337472,1011.4,14
1289538009154,9838,117,-2.11613,5.2751,-1.2479,-0.000697545,6.97545e-05,0.00299944,0.0600848,0.477903,-0.0570611,-0.0301481,-0.0256016,2.73577,-0.242261,0.284196,-9.76325,-5.60644e-05,-0.00165995,0.00123388,-0.182693,-0.095011,0.334777,1011.4,14
1289547568462,9542,126,-2.11613,5.2751,-1.2479,-0.000697545,6.97545e-05,0.00299944,0.0600848,0.477903,-0.0570611,-0.0301513,-0.0256023,2.73577,-0.242261,0.284196,-9.76325,-5.60644e-05,-0.00165995,0.00123388,-0.182693,-0.095011,0.334777,1011.4,14
1289557530154,9981,114,-2.11525,5.27623,-1.24863,0.0453857,0.0579346,-0.0369751,0.0467117,0.526403,-0.0304698,-0.0301515,-0.0256001,2.73577,-0.255164,0.306947,-9.77213,0.000758359,-0.001219,0.000263142,-0.184958,-0.0932643,0.336468,1011.34,14
1289567563462,10018,124,-2.11525,5.27623,-1.24863,0.0453857,0.0579346,-0.0369751,0.0467117,0.526403,-0.0304698,-0.0301512,-0.0255942,2.73576,-0.238457,0.296445,-9.72755,-0.000650503,-0.000889805,-0.00032766,-0.184385,-0.0936478,0.334445,1011.34,14
1289577526616,9985,109,-2.11525,5.27623,-1.24863,0.0453857,0.0579346,-0.0369751,0.0467117,0.526403,-0.0304698,-0.0301531,-0.0255921,2.73576,-0.25048,0.332901,-9.71408,0.000466842,-0.00122408,0.00122918,-0.183422,-0.0878086,0.33454,1011.34,14
1289588008693,10476,117,-2.1161,5.27501,-1.24791,-0.0414109,-0.0594773,0.0349179,0.0593356,0.47793,-0.0573746,-0.030159,-0.0255899,2.73578,-0.251061,0.29199,-9.72481,0.0006697,-0.00196453,0.00089784,-0.184985,-0.0934177,0.335668,1011.34,14
1289598144924,10137,116,-2.11531,5.27609,-1.24847,0.0402954,0.0553467,-0.0288269,0.0464852,0.511291,-0.0317417,-0.0301567,-0.0255918,2.73578,-0.260339,0.291105,-9.72328,0.000516951,-0.00165765,0.00271445,-0.186212,-0.0931102,0.337232,1011.34,14
1289607604770,9458,116,-2.11531,5.27609,-1.24847,0.0402954,0.0553467,-0.0288269,0.0464852,0.511291,-0.0317417,-0.0301509,-0.0255959,2.7358,-0.252021,0.277399,-9.75276,-0.000165118,-0.001968,0.00134792,-0.182037,-0.0922951,0.335257,1011.43,14
1289617543693,9930,125,-2.11617,5.27519,-1.24794,-0.0439575,-0.0458252,0.0273376,0.0593224,0.47834,-0.0570272,-0.0301521,-0.0255993,2.73581,-0.252021,0.277399,-9.75276,-0.000165118,-0.001968,0.00134792,-0.182037,-0.0922951,0.335257,1011.43,14
1289627544924,10007,120,-2.11617,5.27519,-1.24794,-0.0439575,-0.0458252,0.0273376,0.0593224,0.47834,-0.0570272,-0.0301519,-0.0256005,2.7358,-0.26172,0.292375,-9.73653,0.000471141,-0.0013466,0.00131728,-0.183212,-0.093021,0.336011,1011.37,14
1289637519154,9982,113,-2.11614,5.27517,-1.24785,0.00146484,-0.00137184,0.0042899,0.0588853,0.478072,-0.0571192,-0.0301453,-0.0256007,2.7358,-0.26172,0.292375,-9.73653,0.000471141,-0.0013466,0.00131728,-0.183212,-0.093021,0.336011,1011.37,14
1289647554462,10021,124,-2.11614,5.27517,-1.24785,0.00146484,-0.00137184,0.0042899,0.0588853,0.478072,-0.0571192,-0.0301464,-0.0255963,2.73583,-0.23192,0.287764,-9.77956,-2.3292e-05,-0.00122361,0.0024149,-0.184032,-0.0896558,0.335426,1011.37,14
1289657887231,10351,109,-2.11614,5.27517,-1.24785,0.00146484,-0.00137184,0.0042899,0.0588853,0.478072,-0.0571192,-0.0301412,-0.0255933,2.73584,-0.253982,0.274551,-9.74781,0.00164195,-0.00165336,0.00139697,-0.184536,-0.0934296,0.337093,1011.41,14
1289668187539,10289,120,-2.1161,5.27523,-1.2478,0.0020752,0.003125,0.00275879,0.0585155,0.476816,-0.0553093,-0.0301368,-0.0255926,2.73584,-0.256428,0.275909,-9.77154,0.000441418,-0.00196098,0.000475535,-0.183678,-0.0935043,0.336423,1011.41,14
1289677532462,9346,116,-2.11516,5.27661,-1.24891,0.0454334,0.0674293,-0.0542108,0.0436315,0.510574,-0.026438,-0.0301301,-0.0255925,2.73584,-0.256428,0.275909,-9.77154,0.000441418,-0.00196098,0.000475535,-0.183678,-0.0935043,0.336423,1011.41,14
1289687712924,10183,115,-2.11516,5.27661,-1.24891,0.0454334,0.0674293,-0.0542108,0.0436315,0.510574,-0.026438,-0.0301234,-0.0255986,2.73585,-0.263612,0.263715,-9.75532,0.00104365,-0.00197772,0.00248622,-0.18353,-0.0901609,0.338447,1011.41,14
1289698169923,10461,113,-2.11493,5.27705,-1.24832,0.0118286,0.0223389,0.0301086,0.0496718,0.501747,-0.0125559,-0.0301064,-0.0256033,2.73588,-0.233925,0.279694,-9.7321,-6.25711e-05,-0.00196717,0.00124343,-0.184268,-0.0900763,0.337912,1011.41,14
1289707550693,9370,116,-2.11493,5.27705,-1.24832,0.0118286,0.0223389,0.0301086,0.0496718,0.501747,-0.0125559,-0.0301047,-0.0256032,2.73588,-0.233925,0.279694,-9.7321,-6.25711e-05,-0.00196717,0.00124343,-0.184268,-0.0900763,0.337912,1011.41,14
1289717535231,9986,116,-2.11612,5.27511,-1.24794,-0.057873,-0.0945638,0.0188221,0.0591076,0.478346,-0.0573659,-0.0301072,-0.0255997,2.73588,-0.246469,0.285197,-9.76599,0.000133439,-0.00110769,0.000708957,-0.18229,-0.0937317,0.334854,1011.42,14
1289727566616,10030,121,-2.11612,5.27511,-1.24794,-0.057873,-0.0945638,0.0188221,0.0591076,0.478346,-0.0573659,-0.0301104,-0.0255988,2.73588,-0.25502,0.281802,-9.75787,-5.6893e-05,-0.00143053,0.00145479,-0.179375,-0.0908802,0.338221,1011.42,14
1289737538923,9974,114,-2.11614,5.27501,-1.24795,-0.00108643,-0.00478516,-0.00101318,0.0589898,0.478381,-0.0581506,-0.0301133,-0.0256016,2.73588,-0.248128,0.27563,-9.76435,-0.000603923,-0.00100603,0.00105306,-0.184358,-0.0929344,0.33525,1011.38,14
1289747546385,10008,118,-2.11614,5.27501,-1.24795,-0.00108643,-0.00478516,-0.00101318,0.0589898,0.478381,-0.0581506,-0.0301147,-0.0256021,2.73589,-0.236936,0.285734,-9.74166,0.000355621,-0.00206899,0.00100652,-0.183609,-0.0923017,0.336111,1011.38,14
1289757532077,9990,115,-2.11614,5.27501,-1.24795,-0.00108643,-0.00478516,-0.00101318,0.0589898,0.478381,-0.0581506,-0.0301111,-0.0255998,2.73588,-0.244069,0.304204,-9.7669,0.0005537,-0.000149927,0.000702681,-0.183081,-0.0954334,0.337508,1011.37,14
1289767551616,10013,121,-2.11612,5.27513,-1.24786,0.00106957,0.00560361,0.00459798,0.0590488,0.478296,-0.0571206,-0.0301107,-0.0255965,2.73588,-0.25187,0.280487,-9.75683,-0.000604145,-0.001119,0.00104648,-0.1843,-0.0947691,0.334593,1011.37,14
1289777716308,10174,115,-2.11612,5.27506,-1.24793,9.76563e-05,-0.00356445,-0.00333862,0.0587323,0.478314,-0.0574771,-0.030113,-0.0255923,2.73587,-0.234055,0.316363,-9.73833,0.000984462,-0.00111328,0.000680201,-0.185199,-0.0908637,0.336416,1011.37,14
1289787867000,10150,115,-2.11612,5.27506,-1.24793,9.76563e-05,-0.00356445,-0.00333862,0.0587323,0.478314,-0.0574771,-0.0301132,-0.0255889,2.73588,-0.23575,0.283799,-9.76042,0.00172112,-0.00196276,0.000648342,-0.185056,-0.0926197,0.335917,1011.37,14
1289797993539,10121,119,-2.11611,5.27512,-1.24789,0.000534784,0.00283668,0.00198219,0.0589229,0.477959,-0.057206,-0.0301048,-0.0255921,2.73588,-0.245838,0.314345,-9.75606,-0.00082109,-0.001005,0.000952183,-0.184965,-0.0915824,0.336242,1011.37,14
1289807550308,9553,118,-2.11611,5.27512,-1.24789,0.000534784,0.00283668,0.00198219,0.0589229,0.477959,-0.057206,-0.0301071,-0.025594,2.73588,-0.245838,0.314345,-9.75606,-0.00082109,-0.001005,0.000952183,-0.184965,-0.0915824,0.336242,1011.37,14
1289817542308,9988,121,-2.11518,5.27651,-1.24801,0.047583,0.0712646,-0.00643311,0.0481791,0.498313,-0.0242611,-0.0301197,-0.0255926,2.73588,-0.25084,0.300298,-9.76791,0.00034851,-0.00196276,0.000694648,-0.184783,-0.0946084,0.33453,1011.35,14
1289827539539,10010,116,-2.11518,5.27651,-1.24801,0.047583,0.0712646,-0.00643311,0.0481791,0.498313,-0.0242611,-0.0301217,-0.0255931,2.73588,-0.24756,0.313199,-9.75496,5.19986e-05,-0.00101158,0.0016722,-0.182628,-0.091347,0.336726,1011.35,14
1289837539693,9993,119,-2.11612,5.27507,-1.24793,-0.0459566,-0.069987,0.00373186,0.059723,0.478671,-0.0575326,-0.0301251,-0.0255932,2.7359,-0.267207,0.297145,-9.75668,3.85144e-05,-0.00196539,0.00102374,-0.181672,-0.0909655,0.338938,1011.37,14
1289847786154,10253,116,-2.11612,5.27507,-1.24793,-0.0459566,-0.069987,0.00373186,0.059723,0.478671,-0.0575326,-0.0301305,-0.0256025,2.73591,-0.272059,0.316775,-9.76182,0.00119418,-0.00196276,0.000666118,-0.182448,-0.0905516,0.337287,1011.37,14
1289857703308,9914,118,-2.11511,5.27667,-1.24813,0.0517578,0.0818115,-0.00980225,0.0492979,0.501221,-0.0220446,-0.0301331,-0.0256088,2.73591,-0.272059,0.316775,-9.76182,0.00119418,-0.00196276,0.000666118,-0.182448,-0.0905516,0.337287,1011.37,14
1289868277539,10574,119,-2.11511,5.27667,-1.24813,0.0517578,0.0818115,-0.00980225,0.0492979,0.501221,-0.0220446,-0.0301351,-0.0256071,2.73591,-0.249509,0.285942,-9.76328,-0.000578977,-0.00175587,0.0017925,-0.184398,-0.0926243,0.336455,1011.34,14
1289877947385,9680,109,-2.11511,5.27667,-1.24813,0.0517578,0.0818115,-0.00980225,0.0492979,0.501221,-0.0220446,-0.0301434,-0.0256054,2.73592,-0.249509,0.285942,-9.76328,-0.000578977,-0.00175587,0.0017925,-0.184398,-0.0926243,0.336455,1011.34,14
1289887558385,9590,125,-2.11616,5.27503,-1.24795,-0.0510951,-0.0800084,0.00853911,0.0590685,0.478527,-0.0588375,-0.0301434,-0.0256054,2.73592,-0.249509,0.285942,-9.76328,-0.000578977,-0.00175587,0.0017925,-0.184398,-0.0926243,0.336455,1011.34,14
1289897524693,9983,112,-2.11616,5.27503,-1.24795,-0.0510951,-0.0800084,0.00853911,0.0590685,0.478527,-0.0588375,-0.0301355,-0.0256144,2.7359,-0.244423,0.281851,-9.73337,0.000997893,-0.00196715,0.0012046,-0.181098,-0.0932696,0.336978,1011.34,14
1289907567231,10036,119,-2.11564,5.27525,-1.2486,0.0262207,0.0112061,-0.0331055,0.0409684,0.497469,-0.0461506,-0.0301279,-0.0256218,2.7359,-0.250452,0.285593,-9.75201,0.000448666,-0.00207144,0.000690372,-0.185445,-0.0937423,0.336241,1011.34,14
1289917728923,10168,111,-2.11513,5.27682,-1.24765,0.0251,0.0767764,0.046131,0.0458301,0.490931,-0.0218468,-0.0301269,-0.0256253,2.7359,-0.277002,0.311852,-9.74172,0.000466607,-0.00207477,0.00122217,-0.184509,-0.0923962,0.337901,1011.42,14
1289927568846,9816,129,-2.11513,5.27682,-1.24765,0.0251,0.0767764,0.046131,0.0458301,0.490931,-0.0218468,-0.0301268,-0.0256318,2.73591,-0.277002,0.311852,-9.74172,0.000466607,-0.00207477,0.00122217,-0.184509,-0.0923962,0.337901,1011.42,14
1289937921154,10376,116,-2.11513,5.27682,-1.24765,0.0251,0.0767764,0.046131,0.0458301,0.490931,-0.0218468,-0.0301281,-0.0256329,2.73592,-0.230567,0.310034,-9.7399,0.000668686,-0.00163848,0.000899493,-0.185327,-0.0904716,0.337384,1011.42,14
1289947620154,9689,122,-2.11617,5.27505,-1.24794,-0.0532959,-0.0906006,-0.0148743,0.0591765,0.478093,-0.0585516,-0.0301319,-0.0256347,2.73592,-0.248546,0.304143,-9.73517,-0.000579037,-0.00197154,0.00179073,-0.181991,-0.0944662,0.336599,1011.38,14
1289957548385,9922,121,-2.11613,5.27518,-1.24777,0.0019415,0.00630115,0.0085333,0.0601429,0.477125,-0.0554886,-0.0301434,-0.0256417,2.73592,-0.255744,0.306695,-9.75625,0.000448992,-0.00089858,0.000700037,-0.184132,-0.0939711,0.334834,1011.38,14
1289967551000,10008,121,-2.11613,5.27518,-1.24777,0.0019415,0.00630115,0.0085333,0.0601429,0.477125,-0.0554886,-0.0301452,-0.0256435,2.73591,-0.258819,0.312327,-9.7807,0.000235973,-0.00196276,0.000698443,-0.183543,-0.0943783,0.335691,1011.35,14
1289977893308,10347,118,-2.1161,5.27504,-1.2479,0.00172119,-0.00732422,-0.00701294,0.0580778,0.477113,-0.0563998,-0.0301453,-0.0256442,2.73591,-0.250937,0.289834,-9.79112,0.000448696,-0.00196276,0.000691267,-0.184158,-0.0940643,0.336435,1011.35,14
1289988149000,10257,118,-2.1161,5.27504,-1.2479,0.00172119,-0.00732422,-0.00701294,0.0580778,0.477113,-0.0563998,-0.0301469,-0.0256544,2.7359,-0.248911,0.294221,-9.72268,0.000144099,-0.00196624,0.0011236,-0.184197,-0.0932742,0.337643,1011.35,14
1289997533000,9383,117,-2.11611,5.27513,-1.24791,-0.000662667,0.00425502,-0.000197638,0.0590641,0.477376,-0.0557631,-0.030147,-0.02566,2.7359,-0.248911,0.294221,-9.72268,0.000144099,-0.00196624,0.0011236,-0.184197,-0.0932742,0.337643,1011.35,14
1290007546769,10010,121,-2.11611,5.27513,-1.24791,-0.000662667,0.00425502,-0.000197638,0.0590641,0.477376,-0.0557631,-0.0301449,-0.0256604,2.7359,-0.244652,0.28772,-9.74706,0.000445432,-0.000897709,0.000594502,-0.186785,-0.0926269,0.336856,1011.36,14
1290017544000,9989,123,-2.11613,5.27521,-1.24784,-0.000744629,0.00444336,0.00342407,0.0599419,0.476614,-0.0550258,-0.0301422,-0.0256556,2.7359,-0.244652,0.28772,-9.74706,0.000445432,-0.000897709,0.000594502,-0.186785,-0.0926269,0.336856,1011.36,14
1290027552000,10015,123,-2.11613,5.27521,-1.24784,-0.000744629,0.00444336,0.00342407,0.0599419,0.476614,-0.0550258,-0.0301374,-0.025648,2.73591,-0.24614,0.289915,-9.74845,0.000448992,-0.00089858,0.000700037,-0.183057,-0.0931797,0.335845,1011.36,14
1290037551539,9993,122,-2.11557,5.27642,-1.24959,0.0271112,0.0585705,-0.085269,0.0596383,0.513268,-0.0246455,-0.0301357,-0.025648,2.73591,-0.253804,0.28503,-9.73455,-0.000306091,-0.000898538,0.000720382,-0.183687,-0.0875018,0.336153,1011.36,14
1290047868385,10329,119,-2.11557,5.27642,-1.24959,0.0271112,0.0585705,-0.085269,0.0596383,0.513268,-0.0246455,-0.0301345,-0.0256479,2.73592,-0.261247,0.294783,-9.75723,-0.000391121,-0.00185989,0.00115079,-0.185582,-0.0959082,0.336948,1011.36,14
1290057870077,10001,118,-2.11608,5.27515,-1.24783,-0.0260986,-0.0648682,0.0901611,0.0583786,0.476624,-0.055408,-0.03014,-0.0256458,2.73591,-0.267008,0.298157,-9.76906,0.000459542,-0.00110959,0.00101276,-0.18261,-0.0932518,0.334868,1011.36,14
1290067605616,9737,117,-2.11608,5.27515,-1.24783,-0.0260986,-0.0648682,0.0901611,0.0583786,0.476624,-0.055408,-0.0301442,-0.0256466,2.73591,-0.259968,0.298147,-9.75064,0.000491928,-0.00112007,0.00197273,-0.18327,-0.0929463,0.336654,1011.41,14
1290077801231,10201,112,-2.11609,5.27512,-1.24786,-0.000290644,-0.0015346,-0.0016276,0.0594872,0.477222,-0.0552775,-0.0301464,-0.0256462,2.73591,-0.26482,0.29682,-9.76928,0.000375088,-0.000906478,0.001661,-0.18369,-0.0968615,0.336076,1011.41,14
1290087554616,9741,119,-2.11609,5.27512,-1.24786,-0.000290644,-0.0015346,-0.0016276,0.0594872,0.477222,-0.0552775,-0.0301491,-0.0256453,2.7359,-0.26482,0.29682,-9.76928,0.000375088,-0.000906478,0.001661,-0.18369,-0.0968615,0.336076,1011.41,14
1290097557616,10016,109,-2.1151,5.27655,-1.24857,0.0504395,0.0736084,-0.0363953,0.059688,0.524308,-0.0184372,-0.0301523,-0.0256476,2.7359,-0.263982,0.325062,-9.71074,0.000280724,-0.00197423,0.00208856,-0.181786,-0.0934977,0.335559,1011.41,14
1290107542308,9979,118,-2.1151,5.27655,-1.24857,0.0504395,0.0736084,-0.0363953,0.059688,0.524308,-0.0184372,-0.0301586,-0.0256528,2.73591,-0.255828,0.324258,-9.7089,0.000459242,-0.00271069,0.00100383,-0.184491,-0.0911811,0.33607,1011.41,14
1290117587385,10006,140,-2.11611,5.27512,-1.24784,-0.0514771,-0.0732178,0.0376038,0.0597303,0.478063,-0.0567052,-0.0301632,-0.0256592,2.73591,-0.234296,0.312423,-9.72376,0.000484607,-0.00186379,0.00175573,-0.181953,-0.0935155,0.337726,1011.41,14
1290127798769,10236,131,-2.11611,5.27512,-1.24784,-0.0514771,-0.0732178,0.0376038,0.0597303,0.478063,-0.0567052,-0.0301671,-0.0256589,2.73592,-0.241613,0.298629,-9.74306,-0.000378927,-0.00165523,0.00157934,-0.180607,-0.0923922,0.337289,1011.39,14
1290137567077,9774,124,-2.11615,5.2751,-1.24791,-0.00206938,-0.00106957,-0.00345285,0.058626,0.478201,-0.0576943,-0.0301698,-0.0256537,2.73592,-0.241248,0.291458,-9.70946,0.00122714,-0.000907354,0.00173857,-0.182479,-0.0938243,0.33638,1011.39,14
1290147641769,10080,122,-2.11615,5.2751,-1.24791,-0.00206938,-0.00106957,-0.00345285,0.058626,0.478201,-0.0576943,-0.0301665,-0.0256514,2.73592,-0.241248,0.291458,-9.70946,0.00122714,-0.000907354,0.00173857,-0.182479,-0.0938243,0.33638,1011.39,14
1290157566615,9927,117,-2.1161,5.275,-1.24789,0.00272217,-0.00539551,0.00108643,0.0578811,0.478183,-0.0583882,-0.0301458,-0.025652,2.73593,-0.237655,0.292436,-9.76621,0.00120403,-0.001435,0.000987116,-0.184915,-0.0919751,0.335357,1011.35,14
1290167550615,9978,120,-2.1161,5.275,-1.24789,0.00272217,-0.00539551,0.00108643,0.0578811,0.478183,-0.0583882,-0.0301382,-0.0256504,2.73593,-0.237655,0.292436,-9.76621,0.00120403,-0.001435,0.000987116,-0.184915,-0.0919751,0.335357,1011.35,14
1290177533615,9987,117,-2.11578,5.27583,-1.24908,0.0154739,0.0405041,-0.0580648,0.053656,0.496729,-0.0396474,-0.0301294,-0.0256419,2.73594,-0.229989,0.294241,-9.77819,0.000477614,-0.00143039,0.00154844,-0.184378,-0.089589,0.337039,1011.4,14
1290187543231,10009,118,-2.11578,5.27583,-1.24908,0.0154739,0.0405041,-0.0580648,0.053656,0.496729,-0.0396474,-0.0301287,-0.0256455,2.73595,-0.252408,0.289727,-9.75575,0.000377686,-0.00293246,0.00175052,-0.185022,-0.0951882,0.336935,1011.4,14
1290197529385,9997,109,-2.11578,5.27583,-1.24908,0.0154739,0.0405041,-0.0580648,0.053656,0.496729,-0.0396474,-0.0301331,-0.0256532,2.73595,-0.242435,0.296743,-9.73042,-0.000104061,-0.0019592,0.000277612,-0.184219,-0.0924689,0.33701,1011.4,14
1290208123462,10588,118,-2.11544,5.27599,-1.24871,0.0171387,0.00847168,0.018634,0.0394379,0.51711,-0.0379813,-0.0301391,-0.0256535,2.73594,-0.249571,0.311583,-9.73514,0.00035317,-0.000901157,0.00101605,-0.185456,-0.0936597,0.335922,1011.4,14
1290217538615,9409,117,-2.11616,5.27511,-1.24793,-0.0351446,-0.0431083,0.038394,0.0576267,0.478343,-0.0591837,-0.030142,-0.0256525,2.73595,-0.249571,0.311583,-9.73514,0.00035317,-0.000901157,0.00101605,-0.185456,-0.0936597,0.335922,1011.4,14
1290228057539,10521,120,-2.11616,5.27511,-1.24793,-0.0351446,-0.0431083,0.038394,0.0576267,0.478343,-0.0591837,-0.0301405,-0.0256537,2.73596,-0.241411,0.280143,-9.75117,-0.000458305,-0.00168914,0.000194356,-0.183886,-0.0911725,0.335009,1011.43,14
