# Time(ns),period(us),execution,x,y,z,Vx,Vy,Vz,roll_OT,pitch_OT,yaw_OT,roll_PX4,pitch_PX4,yaw_PX4,imu_acc_x,imu_acc_y,imu_acc_z,imu_gyr_x,imu_gyr_y,imu_gyr_z,imu_mag_x,imu_mag_y,imu_mag_z,imu_absolute_pressure,ultrasonic_distance
363199906432,9942,153,-1.66431,-0.0194257,-0.427388,0,0,0,-0.0562732,0.00327602,0.558352,-0.0312786,-0.0268158,-2.85574,-0.238711,0.197018,-9.78971,-0.00275114,-0.004173,-0.0154101,-0.174122,0.0485564,0.474956,1011.41,14
363209851278,9979,131,-1.66431,-0.0194257,-0.427388,0,0,0,-0.0562732,0.00327602,0.558352,-0.0312733,-0.0267869,-2.85619,-0.207264,0.425439,-9.8275,-0.0012793,-0.00246691,-0.0157615,-0.174082,0.0467865,0.476141,1011.41,14
363220186509,10317,147,-1.66429,-0.0194735,-0.427364,0.00113525,-0.00244532,0.00119324,-0.0511351,0.00467117,0.558036,-0.0312733,-0.0267869,-2.85619,-0.207264,0.425439,-9.8275,-0.0012793,-0.00246691,-0.0157615,-0.174082,0.0467865,0.476141,1011.41,14
363229955355,9790,129,-1.66429,-0.0194735,-0.427364,0.00113525,-0.00244532,0.00119324,-0.0511351,0.00467117,0.558036,-0.0313064,-0.0267829,-2.85609,-0.319737,0.227545,-9.67753,0.00211858,-0.00653345,0.025089,-0.1722,0.047656,0.477365,1011.41,14
363239892048,9910,151,-1.66428,-0.0195523,-0.427291,0.000249953,-0.00384358,0.00359235,-0.052683,0.00585169,0.557277,-0.0313107,-0.0267838,-2.85599,-0.319737,0.227545,-9.67753,0.00211858,-0.00653345,0.025089,-0.1722,0.047656,0.477365,1011.41,14
363250433125,10572,124,-1.66428,-0.0195523,-0.427291,0.000249953,-0.00384358,0.00359235,-0.052683,0.00585169,0.557277,-0.0313129,-0.0267868,-2.85555,-0.277267,0.196046,-9.80077,0.000748062,-0.00142838,5.25174e-05,-0.173085,0.0470973,0.47723,1011.38,14
363259964202,9533,123,-1.66426,-0.0196762,-0.427295,0.00105591,-0.00634556,-0.000236511,-0.0519704,0.00505099,0.557941,-0.0313027,-0.0267887,-2.85544,-0.228999,0.282305,-9.64427,0.00127912,-0.00515161,-0.0125656,-0.174079,0.0463059,0.476217,1011.4,14
363269885048,9887,144,-1.66426,-0.0196762,-0.427295,0.00105591,-0.00634556,-0.000236511,-0.0519704,0.00505099,0.557941,-0.031289,-0.0267818,-2.85545,-0.228999,0.282305,-9.64427,0.00127912,-0.00515161,-0.0125656,-0.174079,0.0463059,0.476217,1011.4,14
363279862355,9994,135,-1.66437,-0.0193956,-0.426706,-0.00503395,0.0136853,0.028733,-0.0357659,0.00276757,0.55911,-0.0312772,-0.0267776,-2.8557,-0.272188,0.340034,-9.69049,0.00175253,-0.00104123,-0.0206423,-0.173255,0.0472599,0.476917,1011.4,14
363289892278,10002,149,-1.66437,-0.0193956,-0.426706,-0.00503395,0.0136853,0.028733,-0.0357659,0.00276757,0.55911,-0.0312781,-0.0267782,-2.85576,-0.245761,0.3305,-9.78606,-0.00123245,-0.00249176,-0.0142758,-0.172539,0.0464606,0.476806,1011.38,14
363299863509,10000,136,-1.66437,-0.0193956,-0.426706,-0.00503395,0.0136853,0.028733,-0.0357659,0.00276757,0.55911,-0.0312947,-0.0267765,-2.85589,-0.273859,0.324362,-9.79457,-0.0020018,-0.00590741,0.00131098,-0.172495,0.04773,0.478096,1011.38,14
363309862201,9995,138,-1.66414,-0.0195395,-0.427034,0.0116821,-0.00736609,-0.0167953,-0.0449496,0.00268405,0.556566,-0.0313008,-0.0267763,-2.85587,-0.332892,0.30203,-9.67751,0.0029068,-0.00397699,0.0134728,-0.171134,0.0443695,0.478102,1011.38,14
363319983509,10130,134,-1.66433,-0.0195111,-0.427261,-0.00925991,0.00138174,-0.0110648,-0.0529422,0.005156,0.557232,-0.0313117,-0.0267648,-2.85563,-0.269066,0.274906,-9.68311,0.000659519,-0.00307709,0.0196321,-0.175236,0.049195,0.475159,1011.38,14
363329904278,9884,157,-1.66433,-0.0195111,-0.427261,-0.00925991,0.00138174,-0.0110648,-0.0529422,0.005156,0.557232,-0.0313167,-0.0267605,-2.85555,-0.269066,0.274906,-9.68311,0.000659519,-0.00307709,0.0196321,-0.175236,0.049195,0.475159,1011.38,14
363339858125,9986,137,-1.66446,-0.01946,-0.426812,-0.00670166,0.00261621,0.0229965,-0.0337511,0.00292794,0.559135,-0.0313218,-0.0267531,-2.85531,-0.257232,0.295551,-9.83059,0.000502797,-0.00195242,0.0118824,-0.172584,0.0444521,0.477832,1011.38,14
363349872740,10000,140,-1.66446,-0.01946,-0.426812,-0.00670166,0.00261621,0.0229965,-0.0337511,0.00292794,0.559135,-0.0313048,-0.0267533,-2.85522,-0.267944,0.261063,-9.71133,0.00261725,-0.00630658,-0.00131212,-0.172499,0.0470305,0.475609,1011.42,14
363359881586,10012,141,-1.66417,-0.0195516,-0.426948,0.014195,-0.00446456,-0.00662958,-0.0447994,0.00608775,0.557564,-0.0312874,-0.0267564,-2.85533,-0.295726,0.264724,-9.70668,0.0015673,-0.00149779,-0.0164788,-0.170372,0.0466986,0.476975,1011.42,14
363370023125,10146,145,-1.66417,-0.0195516,-0.426948,0.014195,-0.00446456,-0.00662958,-0.0447994,0.00608775,0.557564,-0.0312835,-0.0267616,-2.85548,-0.295726,0.264724,-9.70668,0.0015673,-0.00149779,-0.0164788,-0.170372,0.0466986,0.476975,1011.42,14
363379935971,9925,133,-1.66406,-0.019743,-0.427504,0.00550537,-0.00979862,-0.0284561,-0.0569536,0.00302929,0.558029,-0.0312864,-0.0267612,-2.85561,-0.263399,0.332712,-9.77916,0.000112903,-0.00542804,-0.00626356,-0.172565,0.0462074,0.478406,1011.43,14
363389876894,9926,142,-1.66406,-0.019743,-0.427504,0.00550537,-0.00979862,-0.0284561,-0.0569536,0.00302929,0.558029,-0.0312945,-0.0267644,-2.85566,-0.320773,0.362702,-9.69498,0.00192895,-0.00222418,0.00689017,-0.171566,0.0453374,0.477164,1011.39,14
363400127355,10261,138,-1.66442,-0.0194169,-0.426729,-0.0176595,0.0158975,0.037788,-0.0390682,0.0045621,0.559117,-0.0313044,-0.026768,-2.85561,-0.253843,0.332537,-9.75099,-0.000211216,-0.00512068,0.022196,-0.170705,0.0462219,0.476582,1011.39,14
363409879586,9740,147,-1.66442,-0.0194169,-0.426729,-0.0176595,0.0158975,0.037788,-0.0390682,0.0045621,0.559117,-0.0313226,-0.0267798,-2.85535,-0.253843,0.332537,-9.75099,-0.000211216,-0.00512068,0.022196,-0.170705,0.0462219,0.476582,1011.39,14
363419906432,10010,160,-1.66423,-0.0195499,-0.42714,0.00995483,-0.00680666,-0.0210754,-0.0498916,0.00713144,0.557991,-0.0313226,-0.0267798,-2.85535,-0.251858,0.261937,-9.7801,-0.00158113,-0.00480367,0.0223598,-0.171987,0.0475026,0.476556,1011.39,14
363429892048,9993,151,-1.66423,-0.0195499,-0.42714,0.00995483,-0.00680666,-0.0210754,-0.0498916,0.00713144,0.557991,-0.0313247,-0.0267795,-2.85495,-0.251858,0.261937,-9.7801,-0.00158113,-0.00480367,0.0223598,-0.171987,0.0475026,0.476556,1011.39,14
363439874048,9995,141,-1.66432,-0.0194663,-0.427328,-0.0046503,0.00407473,-0.0091669,-0.0523435,0.00506348,0.558046,-0.0313113,-0.0267847,-2.85494,-0.270586,0.263505,-9.66265,0.00293225,-0.00380761,-0.0203816,-0.172272,0.046534,0.477598,1011.36,14
363449896509,10000,153,-1.66432,-0.0194663,-0.427328,-0.0046503,0.00407473,-0.0091669,-0.0523435,0.00506348,0.558046,-0.031289,-0.0267846,-2.85512,-0.269064,0.326266,-9.79052,-0.000244451,-0.00243896,-0.0198552,-0.17187,0.0450934,0.477653,1011.36,14
363459914278,10016,156,-1.66425,-0.0195082,-0.427402,0.00386963,-0.00214329,-0.0037735,-0.0509252,0.00454617,0.556682,-0.0312846,-0.0267823,-2.85526,-0.269064,0.326266,-9.79052,-0.000244451,-0.00243896,-0.0198552,-0.17187,0.0450934,0.477653,1011.36,14
363469830124,9966,118,-1.66425,-0.0195082,-0.427402,0.00386963,-0.00214329,-0.0037735,-0.0509252,0.00454617,0.556682,-0.0312846,-0.0267823,-2.85526,-0.269064,0.326266,-9.79052,-0.000244451,-0.00243896,-0.0198552,-0.17187,0.0450934,0.477653,1011.36,14
363480574663,10737,127,-1.66421,-0.0195645,-0.427349,0.00174967,-0.00274613,0.00259981,-0.0513791,0.00497283,0.557837,-0.0313148,-0.0267757,-2.85531,-0.299655,0.31449,-9.70598,-0.000112651,-0.00285082,0.0189132,-0.169461,0.0442908,0.477885,1011.35,14
363489836586,9264,124,-1.66421,-0.0195645,-0.427349,0.00174967,-0.00274613,0.00259981,-0.0513791,0.00497283,0.557837,-0.0313351,-0.0267686,-2.85509,-0.299655,0.31449,-9.70598,-0.000112651,-0.00285082,0.0189132,-0.169461,0.0442908,0.477885,1011.35,14
363500105586,10261,132,-1.66416,-0.0195159,-0.427044,0.00284424,0.00248585,0.0155762,-0.0443258,0.00278873,0.557314,-0.0313386,-0.0267702,-2.85486,-0.247889,0.239083,-9.79672,0.000984828,-0.00408023,0.0103664,-0.168722,0.0448462,0.478425,1011.4,14
363509874124,9750,144,-1.66416,-0.0195159,-0.427044,0.00284424,0.00248585,0.0155762,-0.0443258,0.00278873,0.557314,-0.0313201,-0.0267702,-2.8548,-0.290943,0.246719,-9.70837,0.00154205,-0.00353926,-0.00169428,-0.170453,0.0413388,0.476934,1011.4,14
363519855278,10000,129,-1.66446,-0.0194365,-0.426827,-0.015067,0.00387283,0.0106129,-0.034637,0.0036026,0.558222,-0.0313105,-0.0267699,-2.85487,-0.278027,0.291282,-9.745,0.00156343,-0.00288396,-0.0167082,-0.170999,0.0430155,0.477366,1011.4,14
363529830047,9989,120,-1.66446,-0.0194365,-0.426827,-0.015067,0.00387283,0.0106129,-0.034637,0.0036026,0.558222,-0.0313001,-0.0267698,-2.85511,-0.248349,0.317376,-9.77407,-0.000136738,-0.00267367,-0.0166622,-0.170994,0.0406142,0.477506,1011.4,14
363539844124,10008,126,-1.66423,-0.0195136,-0.427238,0.0121521,-0.00394821,-0.0210556,-0.0513493,0.00563341,0.557171,-0.0313001,-0.0267698,-2.85511,-0.283674,0.360859,-9.76023,0.000291317,-0.00405243,-0.00401695,-0.171248,0.0397376,0.477107,1011.4,14
363549840201,9996,122,-1.66423,-0.0195136,-0.427238,0.0121521,-0.00394821,-0.0210556,-0.0513493,0.00563341,0.557171,-0.0313047,-0.0267663,-2.85525,-0.283674,0.360859,-9.76023,0.000291317,-0.00405243,-0.00401695,-0.171248,0.0397376,0.477107,1011.4,14
363560535817,10693,128,-1.66436,-0.019471,-0.426774,-0.00622559,0.00208119,0.0226368,-0.0364217,0.00342606,0.559195,-0.0313228,-0.026763,-2.8552,-0.266442,0.350207,-9.71946,0.00186804,-0.00516224,0.0143508,-0.172571,0.0434888,0.478224,1011.39,14
363570254047,9727,118,-1.66436,-0.019471,-0.426774,-0.00622559,0.00208119,0.0226368,-0.0364217,0.00342606,0.559195,-0.0313423,-0.0267583,-2.85487,-0.277555,0.331133,-9.69967,0.0010167,-0.00319103,0.020576,-0.172795,0.0445446,0.476319,1011.39,14
363580069124,9805,132,-1.66427,-0.0195146,-0.427111,0.0045166,-0.0022337,-0.0172882,-0.0479996,0.00457087,0.55807,-0.0313423,-0.0267583,-2.85487,-0.277555,0.331133,-9.69967,0.0010167,-0.00319103,0.020576,-0.172795,0.0445446,0.476319,1011.39,14
363589832663,9775,117,-1.66427,-0.0195146,-0.427111,0.0045166,-0.0022337,-0.0172882,-0.0479996,0.00457087,0.55807,-0.0313369,-0.0267469,-2.85467,-0.245272,0.218836,-9.75879,0.000182808,-0.00509051,-0.0071905,-0.172292,0.0432587,0.477012,1011.38,14
363599949201,10115,120,-1.66437,-0.0194237,-0.426755,-0.0053894,0.00465384,0.0182648,-0.0334343,0.00198202,0.558568,-0.0313327,-0.0267468,-2.85469,-0.283946,0.259787,-9.73285,0.00210885,-0.00381572,-0.0195047,-0.169813,0.0441387,0.476935,1011.38,14
363610017355,10076,112,-1.66437,-0.0194237,-0.426755,-0.0053894,0.00465384,0.0182648,-0.0334343,0.00198202,0.558568,-0.0313171,-0.0267486,-2.8548,-0.275164,0.346139,-9.75337,0.00139959,-0.00307947,-0.0182162,-0.170337,0.0458101,0.478007,1011.38,14
363619860586,9819,129,-1.66426,-0.0195053,-0.427356,0.00556292,-0.00398154,-0.0293259,-0.049748,0.00444484,0.557151,-0.0313011,-0.0267491,-2.85501,-0.275164,0.346139,-9.75337,0.00139959,-0.00307947,-0.0182162,-0.170337,0.0458101,0.478007,1011.38,14
363629836201,9988,121,-1.66426,-0.0195053,-0.427356,0.00556292,-0.00398154,-0.0293259,-0.049748,0.00444484,0.557151,-0.0313139,-0.0267593,-2.85513,-0.279773,0.37255,-9.72506,0.000415524,-0.00397794,-0.000291797,-0.171351,0.0438233,0.476424,1011.38,14
363639856124,10012,125,-1.66438,-0.0194569,-0.426701,-0.00604858,0.00247774,0.033522,-0.037407,0.00452977,0.559107,-0.0313203,-0.0267604,-2.85505,-0.26561,0.309708,-9.78925,0.000560987,-0.00422083,0.0164086,-0.170956,0.0437249,0.478651,1011.38,14
363649944432,10107,114,-1.66438,-0.0194569,-0.426701,-0.00604858,0.00247774,0.033522,-0.037407,0.00452977,0.559107,-0.031325,-0.0267634,-2.85479,-0.266991,0.280061,-9.71325,0.00114755,-0.00532643,0.0214066,-0.172841,0.0421362,0.477341,1011.38,14
363660262047,10305,124,-1.66434,-0.0194612,-0.426706,0.00191825,-0.00020554,-0.00020781,-0.0374726,0.00331755,0.559756,-0.0313164,-0.0267626,-2.8546,-0.2593,0.243701,-9.75463,0.00145398,-0.00383545,0.00840703,-0.171031,0.0435834,0.476411,1011.44,14
363670470278,10221,113,-1.66434,-0.0194612,-0.426706,0.00191825,-0.00020554,-0.00020781,-0.0374726,0.00331755,0.559756,-0.0312958,-0.0267636,-2.85454,-0.259761,0.243076,-9.77645,0.000427363,-0.00347367,-0.00923972,-0.169644,0.0475766,0.477198,1011.4,14
363680080740,9602,122,-1.66419,-0.0196152,-0.427447,0.0072998,-0.00788736,-0.037944,-0.0530435,0.00513605,0.557112,-0.0312799,-0.0267644,-2.85457,-0.255641,0.279743,-9.76759,0.00104769,-0.00352421,-0.0162731,-0.171782,0.0444515,0.477885,1011.4,14
363689841740,9754,125,-1.66419,-0.0196152,-0.427447,0.0072998,-0.00788736,-0.037944,-0.0530435,0.00513605,0.557112,-0.0312659,-0.0267617,-2.85467,-0.255641,0.279743,-9.76759,0.00104769,-0.00352421,-0.0162731,-0.171782,0.0444515,0.477885,1011.4,14
363700071817,10230,127,-1.66427,-0.0194939,-0.426768,-0.00390625,0.00591578,0.0330811,-0.0383012,0.00414416,0.558036,-0.0312713,-0.0267517,-2.85488,-0.272876,0.335375,-9.71979,-0.000857489,-0.00368086,-0.00962003,-0.171111,0.0422036,0.478804,1011.4,14
363710103432,10042,120,-1.66427,-0.0194939,-0.426768,-0.00390625,0.00591578,0.0330811,-0.0383012,0.00414416,0.558036,-0.0312713,-0.0267517,-2.85488,-0.294652,0.364075,-9.74368,-6.3645e-06,-0.00430517,0.00555548,-0.174511,0.0446941,0.477659,1011.35,14
363719856740,9736,129,-1.66423,-0.0195438,-0.427378,0.00230103,-0.00255651,-0.0312302,-0.0497641,0.00461053,0.556988,-0.0312957,-0.0267538,-2.85485,-0.294652,0.364075,-9.74368,-6.3645e-06,-0.00430517,0.00555548,-0.174511,0.0446941,0.477659,1011.35,14
363729829047,9987,119,-1.66423,-0.0195438,-0.427378,0.00230103,-0.00255651,-0.0312302,-0.0497641,0.00461053,0.556988,-0.0313106,-0.0267607,-2.85474,-0.294652,0.364075,-9.74368,-6.3645e-06,-0.00430517,0.00555548,-0.174511,0.0446941,0.477659,1011.35,14
363740110124,10280,122,-1.66425,-0.019545,-0.427391,-0.000825428,-5.64938e-05,-0.000597273,-0.0545149,0.00539757,0.55762,-0.0313225,-0.0267642,-2.85455,-0.270197,0.272468,-9.75246,-0.000420112,-0.00419116,0.0128412,-0.172984,0.0426922,0.477831,1011.35,14
363749824355,9723,112,-1.66425,-0.019545,-0.427391,-0.000825428,-5.64938e-05,-0.000597273,-0.0545149,0.00539757,0.55762,-0.0313225,-0.0267642,-2.85455,-0.264105,0.261321,-9.72232,0.00147456,-0.00483671,-0.000463877,-0.171925,0.0454875,0.478378,1011.35,14
363760043893,10209,124,-1.66438,-0.0193947,-0.426749,-0.00681763,0.00769377,0.0328262,-0.0364412,0.00500338,0.557757,-0.0313152,-0.0267571,-2.85444,-0.269041,0.236969,-9.71881,0.0010027,-0.00292962,-0.0111482,-0.171561,0.0424364,0.479702,1011.38,14
363769831124,9794,114,-1.66438,-0.0193947,-0.426749,-0.00681763,0.00769377,0.0328262,-0.0364412,0.00500338,0.557757,-0.0312959,-0.0267503,-2.85461,-0.275653,0.318263,-9.76591,0.000340851,-0.00292253,-0.0119847,-0.170221,0.0428607,0.476698,1011.38,14
363780065893,10230,120,-1.66432,-0.0194684,-0.42732,0.00288318,-0.00359254,-0.0278233,-0.0513526,0.00553962,0.556921,-0.0312965,-0.0267491,-2.85464,-0.272895,0.346689,-9.73926,0.00101103,-0.0039368,-0.00457212,-0.168614,0.0432587,0.476888,1011.36,14
363789834432,9772,119,-1.66432,-0.0194684,-0.42732,0.00288318,-0.00359254,-0.0278233,-0.0513526,0.00553962,0.556921,-0.0313135,-0.0267503,-2.85467,-0.265248,0.339327,-9.73536,0.000602651,-0.00412892,0.00525491,-0.171338,0.0431001,0.476818,1011.36,14
363800443817,10606,122,-1.66435,-0.0194752,-0.426754,-0.00131836,-0.000346947,0.0290009,-0.0367793,0.00331186,0.558726,-0.0313202,-0.0267531,-2.8546,-0.280709,0.292978,-9.7453,0.000857192,-0.00398061,0.0127999,-0.171303,0.0430915,0.477857,1011.29,14
363810184586,9747,116,-1.66435,-0.0194752,-0.426754,-0.00131836,-0.000346947,0.0290009,-0.0367793,0.00331186,0.558726,-0.031322,-0.0267542,-2.85456,-0.280709,0.292978,-9.7453,0.000857192,-0.00398061,0.0127999,-0.171303,0.0430915,0.477857,1011.29,14
363819840586,9647,123,-1.66421,-0.0195628,-0.42728,0.00674874,-0.00427364,-0.025674,-0.0489946,0.00429413,0.557135,-0.0313264,-0.0267576,-2.8544,-0.261901,0.27306,-9.71389,0.000336977,-0.00406395,-0.00262043,-0.168571,0.0429282,0.478164,1011.29,14
363829832278,9991,121,-1.66421,-0.0195628,-0.42728,0.00674874,-0.00427364,-0.025674,-0.0489946,0.00429413,0.557135,-0.0313269,-0.0267585,-2.85433,-0.261901,0.27306,-9.71389,0.000336977,-0.00406395,-0.00262043,-0.168571,0.0429282,0.478164,1011.29,14
363840004586,10171,125,-1.66438,-0.0194927,-0.426806,-0.00882568,0.00358782,0.0242981,-0.0385609,0.00562038,0.558384,-0.0313214,-0.0267565,-2.85438,-0.264315,0.284918,-9.72871,0.000638013,-0.00400778,-0.00944724,-0.170892,0.0438088,0.47817,1011.29,14
363850180663,10191,113,-1.66438,-0.0194927,-0.426806,-0.00882568,0.00358782,0.0242981,-0.0385609,0.00562038,0.558384,-0.0313177,-0.0267579,-2.85445,-0.269409,0.310768,-9.75813,0.000143476,-0.00273583,-0.00835627,-0.170724,0.0414869,0.478385,1011.29,14
363860087893,9896,123,-1.66452,-0.0193663,-0.426745,-0.00669643,0.00616437,0.00294277,-0.0381362,0.00616574,0.55837,-0.0313157,-0.0267546,-2.85453,-0.27496,0.30729,-9.75006,0.00203288,-0.00419766,0.000189899,-0.169663,0.0455013,0.476621,1011.37,14
363869826355,9746,116,-1.66452,-0.0193663,-0.426745,-0.00669643,0.00616437,0.00294277,-0.0381362,0.00616574,0.55837,-0.0313135,-0.0267542,-2.85453,-0.27496,0.30729,-9.75006,0.00203288,-0.00419766,0.000189899,-0.169663,0.0455013,0.476621,1011.37,14
363879851124,10010,126,-1.66421,-0.019559,-0.427341,0.0158386,-0.00986557,-0.0304993,-0.0531382,0.00499529,0.55762,-0.031312,-0.0267513,-2.85445,-0.274676,0.315695,-9.75142,0.00101772,-0.00436234,0.00799449,-0.170297,0.0442002,0.479193,1011.37,14
363889849663,9995,127,-1.66421,-0.019559,-0.427341,0.0158386,-0.00986557,-0.0304993,-0.0531382,0.00499529,0.55762,-0.0313127,-0.0267496,-2.85432,-0.23649,0.289337,-9.73861,0.000771032,-0.0041701,0.0102459,-0.169088,0.0434174,0.477065,1011.37,14
363899852740,10002,131,-1.66424,-0.0194821,-0.427216,-0.00142997,0.00374803,0.00608753,-0.0503335,0.0045574,0.557323,-0.0313087,-0.0267506,-2.85424,-0.265464,0.264945,-9.74657,0.00211182,-0.00498702,0.00582893,-0.171723,0.043957,0.47964,1011.37,14
363909850970,10000,125,-1.66424,-0.0194821,-0.427216,-0.00142997,0.00374803,0.00608753,-0.0503335,0.0045574,0.557323,-0.0312931,-0.0267496,-2.8542,-0.266154,0.27385,-9.75404,0.00138253,-0.00352808,-0.0031915,-0.170857,0.0426803,0.4792,1011.37,14
363920106124,10263,125,-1.66438,-0.0194846,-0.426771,-0.00720825,-0.000127792,0.0227615,-0.03811,0.00431253,0.559469,-0.0312805,-0.0267431,-2.85426,-0.263289,0.285155,-9.78209,0.00121049,-0.00230733,-0.00829117,-0.170394,0.0419643,0.478698,1011.36,14
363929846432,9735,126,-1.66438,-0.0194846,-0.426771,-0.00720825,-0.000127792,0.0227615,-0.03811,0.00431253,0.559469,-0.0312789,-0.026738,-2.85434,-0.272485,0.32026,-9.7464,1.53135e-05,-0.00297353,-0.00578497,-0.170676,0.0462947,0.477462,1011.36,14
363940027124,10190,121,-1.66438,-0.0194846,-0.426771,-0.00720825,-0.000127792,0.0227615,-0.03811,0.00431253,0.559469,-0.0312813,-0.0267367,-2.85435,-0.279349,0.300357,-9.77748,0.000541788,-0.00411404,0.00345085,-0.168087,0.0485274,0.478274,1011.36,14
363949840355,9806,123,-1.66436,-0.0194487,-0.426779,0.00070917,0.00175231,-0.000389462,-0.0379149,0.00634351,0.557516,-0.0312861,-0.0267374,-2.85432,-0.279349,0.300357,-9.77748,0.000541788,-0.00411404,0.00345085,-0.168087,0.0485274,0.478274,1011.36,14
363960267816,10430,124,-1.66428,-0.0195603,-0.42731,0.00427856,-0.00571136,-0.0271667,-0.0504065,0.0067553,0.557409,-0.0312891,-0.026733,-2.85422,-0.278404,0.308741,-9.71231,0.00101454,-0.00404486,0.00800281,-0.169833,0.0462841,0.478715,1011.36,14
363969836278,9570,121,-1.66428,-0.0195603,-0.42731,0.00427856,-0.00571136,-0.0271667,-0.0504065,0.0067553,0.557409,-0.0312933,-0.026733,-2.85412,-0.278404,0.308741,-9.71231,0.00101454,-0.00404486,0.00800281,-0.169833,0.0462841,0.478715,1011.36,14
363979845201,10006,123,-1.66441,-0.019481,-0.426742,-0.00637672,0.00386456,0.0277012,-0.0356116,0.00401124,0.561903,-0.0312933,-0.026733,-2.85412,-0.278404,0.308741,-9.71231,0.00101454,-0.00404486,0.00800281,-0.169833,0.0462841,0.478715,1011.36,14
363989835355,9992,124,-1.66441,-0.019481,-0.426742,-0.00637672,0.00386456,0.0277012,-0.0356116,0.00401124,0.561903,-0.0313121,-0.0267426,-2.85396,-0.245023,0.304851,-9.75898,0.000471987,-0.00436684,-0.00486865,-0.171402,0.0470769,0.479655,1011.37,14
364000245355,10408,125,-1.66438,-0.0194369,-0.426688,0.00147705,0.00225906,0.00274658,-0.0357761,0.00361169,0.559355,-0.0313134,-0.0267423,-2.85397,-0.245023,0.304851,-9.75898,0.000471987,-0.00436684,-0.00486865,-0.171402,0.0470769,0.479655,1011.37,14
364009863816,9604,138,-1.66438,-0.0194369,-0.426688,0.00147705,0.00225906,0.00274658,-0.0357761,0.00361169,0.559355,-0.0313168,-0.0267402,-2.85401,-0.268962,0.294454,-9.74219,0.000379251,-0.00320059,-0.00441328,-0.170215,0.0456593,0.476881,1011.37,14
364019870355,10005,136,-1.66436,-0.0194454,-0.426769,0.000999814,-0.000414621,-0.0039266,-0.0341888,0.00269273,0.558883,-0.0313174,-0.0267466,-2.85402,-0.304376,0.316787,-9.72676,0.00223688,-0.00386939,-1.54881e-05,-0.171718,0.0451754,0.477408,1011.34,14
364030177432,10331,119,-1.66436,-0.0194454,-0.426769,0.000999814,-0.000414621,-0.0039266,-0.0341888,0.00269273,0.558883,-0.0313185,-0.0267491,-2.85399,-0.269504,0.326272,-9.75256,0.00164085,-0.00391264,0.00446568,-0.170227,0.0424621,0.476535,1011.34,14
364039853047,9663,128,-1.6644,-0.0194488,-0.426743,-0.00194092,-0.000174522,0.00132141,-0.0356025,0.00440879,0.558745,-0.0313135,-0.0267481,-2.8539,-0.279744,0.296446,-9.78975,0.00171989,-0.00361084,0.0068084,-0.170891,0.0452488,0.478182,1011.34,14
364050061278,10221,121,-1.6644,-0.0194488,-0.426743,-0.00194092,-0.000174522,0.00132141,-0.0356025,0.00440879,0.558745,-0.0313096,-0.0267427,-2.85385,-0.264736,0.287236,-9.74763,0.000778748,-0.00284742,0.00408074,-0.173635,0.0412549,0.477521,1011.34,14
364059855124,9785,126,-1.66437,-0.0194352,-0.426701,0.00149972,0.000660397,0.00204468,-0.0370861,0.00443597,0.559098,-0.0313085,-0.0267352,-2.85381,-0.264736,0.287236,-9.74763,0.000778748,-0.00284742,0.00408074,-0.173635,0.0412549,0.477521,1011.34,14
364070163970,10316,123,-1.66437,-0.0194352,-0.426701,0.00149972,0.000660397,0.00204468,-0.0370861,0.00443597,0.559098,-0.0313061,-0.0267314,-2.85378,-0.276188,0.278829,-9.76597,0.000255777,-0.00329997,-0.00506281,-0.171465,0.0431722,0.477783,1011.36,14
364079850432,9679,126,-1.66434,-0.0194634,-0.426737,0.00136719,-0.00144262,-0.00182343,-0.0364709,0.00320869,0.559013,-0.0312969,-0.0267302,-2.85383,-0.276188,0.278829,-9.76597,0.000255777,-0.00329997,-0.00506281,-0.171465,0.0431722,0.477783,1011.36,14
364089832432,9986,119,-1.66434,-0.0194634,-0.426737,0.00136719,-0.00144262,-0.00182343,-0.0364709,0.00320869,0.559013,-0.0312955,-0.0267288,-2.85385,-0.300776,0.293146,-9.76574,0.000836284,-0.00394983,-0.00359765,-0.171716,0.0440548,0.477479,1011.36,14
364099842662,10008,127,-1.66439,-0.0194125,-0.426493,-0.00245361,0.00260496,0.0124878,-0.0287047,0.00449141,0.558479,-0.031301,-0.0267353,-2.85387,-0.256699,0.344702,-9.75001,0.0004909,-0.00484689,0.00194235,-0.171851,0.0423491,0.480591,1011.43,14
364109834816,9996,122,-1.66439,-0.0194125,-0.426493,-0.00245361,0.00260496,0.0124878,-0.0287047,0.00449141,0.558479,-0.031301,-0.0267353,-2.85387,-0.266908,0.330056,-9.74613,-0.00036591,-0.00306204,0.00496912,-0.172131,0.0459787,0.477029,1011.43,14
364120145586,10305,127,-1.66433,-0.0195125,-0.427254,0.00313314,-0.00487355,-0.0370992,-0.0491038,0.0073561,0.557385,-0.0313172,-0.0267274,-2.85375,-0.28577,0.286038,-9.77508,0.000840436,-0.00339247,0.00599056,-0.170977,0.0453301,0.478025,1011.34,14
364129834509,9694,122,-1.66433,-0.0195125,-0.427254,0.00313314,-0.00487355,-0.0370992,-0.0491038,0.0073561,0.557385,-0.0313189,-0.0267226,-2.8537,-0.28577,0.286038,-9.77508,0.000840436,-0.00339247,0.00599056,-0.170977,0.0453301,0.478025,1011.34,14
364139866124,10032,123,-1.66442,-0.0194665,-0.42676,-0.00480957,0.00235291,0.0252884,-0.0373867,0.00510423,0.558746,-0.0313178,-0.0267183,-2.85365,-0.264437,0.304721,-9.74316,0.000530875,-0.00315054,0.00312718,-0.171208,0.0438684,0.480662,1011.34,14
364149833124,9969,116,-1.66442,-0.0194665,-0.42676,-0.00480957,0.00235291,0.0252884,-0.0373867,0.00510423,0.558746,-0.0313168,-0.0267044,-2.85361,-0.264437,0.304721,-9.74316,0.000530875,-0.00315054,0.00312718,-0.171208,0.0438684,0.480662,1011.34,14
364159856893,10010,133,-1.66436,-0.0194191,-0.426686,0.00290062,0.00231261,0.00360398,-0.0352717,0.00325066,0.559098,-0.0313168,-0.0266998,-2.85362,-0.242827,0.295983,-9.76365,0.000268551,-0.00457775,-0.00464853,-0.170382,0.0435616,0.479031,1011.34,14
364169832893,9987,122,-1.66436,-0.0194191,-0.426686,0.00290062,0.00231261,0.00360398,-0.0352717,0.00325066,0.559098,-0.0313227,-0.0266967,-2.85367,-0.263138,0.277211,-9.74913,0.00032974,-0.0037453,-0.0028348,-0.172833,0.0429341,0.477587,1011.36,14
364180527893,10697,121,-1.66433,-0.019473,-0.426757,0.00176392,-0.00275917,-0.00361786,-0.0357135,0.00365064,0.558447,-0.0313227,-0.0266967,-2.85367,-0.270328,0.328314,-9.76363,-0.000129925,-0.00301554,-0.00068235,-0.170481,0.0442862,0.47848,1011.36,14
364189832662,9309,115,-1.66433,-0.019473,-0.426757,0.00176392,-0.00275917,-0.00361786,-0.0357135,0.00365064,0.558447,-0.031346,-0.0266975,-2.85363,-0.281737,0.306842,-9.77616,-0.00011403,-0.0048566,0.00292878,-0.173348,0.0466035,0.478916,1011.36,14
364200401893,10565,124,-1.6644,-0.0194422,-0.426741,-0.00340634,0.00150408,0.000735328,-0.0356312,0.00350746,0.559205,-0.0313501,-0.0266995,-2.85361,-0.282661,0.303767,-9.75392,0.000641839,-0.00413851,0.00641636,-0.169836,0.0435649,0.478612,1011.38,14
364210585355,10188,118,-1.6644,-0.0194422,-0.426741,-0.00340634,0.00150408,0.000735328,-0.0356312,0.00350746,0.559205,-0.0313551,-0.0267036,-2.85356,-0.284266,0.284201,-9.75394,0.00158695,-0.00410953,0.00286793,-0.171552,0.046774,0.477576,1011.38,14
364220291585,9688,134,-1.66433,-0.0194931,-0.426782,0.00332031,-0.00260878,-0.00209503,-0.0356688,0.00348789,0.558573,-0.0313534,-0.0267081,-2.8535,-0.284266,0.284201,-9.75394,0.00158695,-0.00410953,0.00286793,-0.171552,0.046774,0.477576,1011.38,14
364229828893,9552,118,-1.66433,-0.0194931,-0.426782,0.00332031,-0.00260878,-0.00209503,-0.0356688,0.00348789,0.558573,-0.0313381,-0.0267108,-2.85346,-0.251043,0.285671,-9.73741,0.00125579,-0.00461562,-0.00063568,-0.170709,0.0419028,0.476467,1011.41,14
364239859509,10011,134,-1.66419,-0.0196091,-0.427175,0.00690569,-0.00565592,-0.0191432,-0.0523155,0.00522596,0.557798,-0.0313338,-0.0267059,-2.85346,-0.279892,0.293261,-9.7577,0.000873568,-0.00321304,-0.00252796,-0.169133,0.0442888,0.478114,1011.41,14
364249912816,10071,121,-1.66419,-0.0196091,-0.427175,0.00690569,-0.00565592,-0.0191432,-0.0523155,0.00522596,0.557798,-0.0313335,-0.0267063,-2.85347,-0.280755,0.281764,-9.78579,0.000304732,-0.00351277,-0.00357611,-0.170076,0.0462246,0.476241,1011.41,14
364259848432,9926,129,-1.66418,-0.0196308,-0.427081,0.000408936,-0.00110903,0.00482178,-0.048466,0.00488592,0.557634,-0.0313338,-0.0267069,-2.85347,-0.280755,0.281764,-9.78579,0.000304732,-0.00351277,-0.00357611,-0.170076,0.0462246,0.476241,1011.41,14
364269940201,10106,118,-1.66418,-0.0196308,-0.427081,0.000408936,-0.00110903,0.00482178,-0.048466,0.00488592,0.557634,-0.0313336,-0.0267102,-2.85344,-0.26685,0.297564,-9.74675,0.00232476,-0.00410868,0.00274,-0.17135,0.0446835,0.478833,1011.36,14
364279859816,9900,131,-1.66414,-0.0195207,-0.427028,0.00203451,0.00536619,0.00255185,-0.0444719,0.00246773,0.556667,-0.0313309,-0.0267122,-2.8534,-0.26685,0.297564,-9.74675,0.00232476,-0.00410868,0.00274,-0.17135,0.0446835,0.478833,1011.36,14
364290104047,10270,114,-1.66414,-0.0195207,-0.427028,0.00203451,0.00536619,0.00255185,-0.0444719,0.00246773,0.556667,-0.0313126,-0.0267116,-2.85333,-0.27449,0.271657,-9.74668,0.00141622,-0.00409376,0.000960319,-0.170633,0.0438842,0.478722,1011.36,14
364299850893,9726,126,-1.66454,-0.0195318,-0.426679,-0.0205566,-0.000566387,0.0178955,-0.0331894,0.00704412,0.559165,-0.0313024,-0.0267094,-2.8533,-0.27449,0.271657,-9.74668,0.00141622,-0.00409376,0.000960319,-0.170633,0.0438842,0.478722,1011.36,14
364309835124,9994,118,-1.66454,-0.0195318,-0.426679,-0.0205566,-0.000566387,0.0178955,-0.0331894,0.00704412,0.559165,-0.0312956,-0.0267118,-2.85327,-0.253057,0.290064,-9.7328,0.00113497,-0.004078,-0.000942498,-0.172448,0.044778,0.477109,1011.4,14
364319842355,10006,121,-1.66433,-0.0194745,-0.426694,0.01019,0.00279163,-0.000744048,-0.0376003,0.00441994,0.558501,-0.0312858,-0.0267116,-2.85326,-0.293048,0.299579,-9.73546,0.000764195,-0.0033204,-0.00273771,-0.172152,0.0462841,0.478793,1011.4,14
364329823739,9986,117,-1.66433,-0.0194745,-0.426694,0.01019,0.00279163,-0.000744048,-0.0376003,0.00441994,0.558501,-0.0312834,-0.0267098,-2.85327,-0.263641,0.311791,-9.75544,0.00137558,-0.00352979,-0.00339761,-0.170334,0.0450095,0.478081,1011.4,14
364339848585,10015,127,-1.66434,-0.0194882,-0.426733,-0.000524902,-0.000699902,-0.00196991,-0.0376139,0.00459855,0.559002,-0.031282,-0.0267039,-2.85328,-0.258431,0.297177,-9.75885,0.000430368,-0.00312896,0.000147971,-0.170436,0.0438148,0.477434,1011.4,14
364349827893,9991,117,-1.66434,-0.0194882,-0.426733,-0.000524902,-0.000699902,-0.00196991,-0.0376139,0.00459855,0.559002,-0.0312822,-0.0266986,-2.85325,-0.255081,0.289731,-9.75982,0.00112554,-0.00455609,0.00479923,-0.17123,0.0449334,0.47763,1011.4,14
364359852201,10010,126,-1.66431,-0.0194612,-0.426758,0.00143578,0.00131407,-0.00122506,-0.0386383,0.00464531,0.558685,-0.0312832,-0.0266979,-2.85322,-0.255081,0.289731,-9.75982,0.00112554,-0.00455609,0.00479923,-0.17123,0.0449334,0.47763,1011.4,14
364369839970,9992,125,-1.66431,-0.0194612,-0.426758,0.00143578,0.00131407,-0.00122506,-0.0386383,0.00464531,0.558685,-0.0312885,-0.0266927,-2.85313,-0.269391,0.290621,-9.78048,0.000555835,-0.00380086,0.00386707,-0.170016,0.04821,0.478016,1011.4,14
364379939508,10104,122,-1.66439,-0.0194372,-0.426698,-0.00415039,0.00123053,0.00307159,-0.0357294,0.00419212,0.559133,-0.0312903,-0.0266863,-2.85309,-0.273436,0.276676,-9.74216,2.15899e-05,-0.00355877,0.000692511,-0.170341,0.0411709,0.477889,1011.35,14
364390026201,10089,120,-1.66439,-0.0194372,-0.426698,-0.00415039,0.00123053,0.00307159,-0.0357294,0.00419212,0.559133,-0.0312942,-0.0266819,-2.85309,-0.270572,0.29185,-9.73233,0.00034052,-0.00385689,-0.00251529,-0.171052,0.0422089,0.478162,1011.35,14
364399860893,9818,130,-1.66435,-0.0194887,-0.427273,0.00224958,-0.00251016,-0.0280587,-0.0526631,0.00496743,0.556814,-0.0312942,-0.0266819,-2.85309,-0.252732,0.307813,-9.74606,0.000873453,-0.00299974,-0.00263348,-0.170913,0.0423544,0.479919,1011.37,14
364409947970,10103,122,-1.66435,-0.0194887,-0.427273,0.00224958,-0.00251016,-0.0280587,-0.0526631,0.00496743,0.556814,-0.0312921,-0.0266738,-2.85311,-0.247645,0.306339,-9.77072,0.00133623,-0.00321997,-0.00147877,-0.171167,0.0441374,0.477141,1011.37,14
364419854201,9893,128,-1.66436,-0.0194454,-0.426695,-0.000805664,0.00221539,0.0296036,-0.0374068,0.00409173,0.559131,-0.031288,-0.0266662,-2.85311,-0.247645,0.306339,-9.77072,0.00133623,-0.00321997,-0.00147877,-0.171167,0.0441374,0.477141,1011.37,14
364429979816,10143,115,-1.66436,-0.0194454,-0.426695,-0.000805664,0.00221539,0.0296036,-0.0374068,0.00409173,0.559131,-0.0312929,-0.0266574,-2.8531,-0.285546,0.297918,-9.75865,0.00107077,-0.00411215,0.00320313,-0.170407,0.0442075,0.478317,1011.33,14
364439852508,9857,129,-1.66419,-0.0195968,-0.427356,0.00842866,-0.00738316,-0.0322353,-0.051336,0.00388622,0.557185,-0.0312955,-0.0266579,-2.85305,-0.285546,0.297918,-9.75865,0.00107077,-0.00411215,0.00320313,-0.170407,0.0442075,0.478317,1011.33,14
364449832201,9988,122,-1.66419,-0.0195968,-0.427356,0.00842866,-0.00738316,-0.0322353,-0.051336,0.00388622,0.557185,-0.0312904,-0.0266639,-2.85301,-0.271444,0.271901,-9.74718,0.00171189,-0.00507174,0.00339524,-0.168558,0.0423847,0.476158,1011.33,14
364459856047,10027,121,-1.66438,-0.0192722,-0.426697,-0.00947266,0.0166228,0.0337555,-0.0334375,0.00493054,0.559406,-0.0312795,-0.0266674,-2.85294,-0.279152,0.294474,-9.73344,0.00111517,-0.00388531,0.00150481,-0.169833,0.0470041,0.478721,1011.33,14
364469844970,9982,122,-1.66438,-0.0192722,-0.426697,-0.00947266,0.0166228,0.0337555,-0.0334375,0.00493054,0.559406,-0.0312797,-0.026665,-2.85293,-0.262787,0.312507,-9.7432,7.71638e-05,-0.00334082,-0.000677567,-0.167384,0.0450114,0.477741,1011.33,14
364479850739,10002,130,-1.66413,-0.0195444,-0.427029,0.0120268,-0.0132736,-0.0162077,-0.0443368,0.00306508,0.556744,-0.031285,-0.0266566,-2.85291,-0.266172,0.287749,-9.72572,0.00213087,-0.00310334,-0.00309991,-0.172666,0.0463727,0.47777,1011.36,14
364489829201,9992,119,-1.66413,-0.0195444,-0.427029,0.0120268,-0.0132736,-0.0162077,-0.0443368,0.00306508,0.556744,-0.0312799,-0.026652,-2.85292,-0.271578,0.297981,-9.7426,-0.000151839,-0.0030094,-0.00142683,-0.170204,0.0444567,0.477191,1011.36,14
364500142354,10304,126,-1.66413,-0.0195026,-0.426958,-4.88281e-05,0.002139,0.00362549,-0.0436873,0.00357303,0.556618,-0.0312767,-0.0266398,-2.85289,-0.289809,0.306262,-9.73175,0.00130575,-0.00302695,0.000653575,-0.169964,0.0454167,0.477191,1011.3,14
364509891354,9743,133,-1.66413,-0.0195026,-0.426958,-4.88281e-05,0.002139,0.00362549,-0.0436873,0.00357303,0.556618,-0.031277,-0.0266375,-2.85288,-0.273933,0.296237,-9.69975,0.000520072,-0.00336564,0.00280701,-0.169964,0.0454167,0.477191,1011.3,14
364519844508,9957,130,-1.66435,-0.0194706,-0.426596,-0.0108584,0.00155994,0.0176711,-0.0333528,0.00251737,0.559849,-0.0312789,-0.0266343,-2.85283,-0.286616,0.299412,-9.74299,-0.000277135,-0.00409633,0.00132988,-0.170209,0.045658,0.477041,1011.3,14
364530163431,10328,120,-1.66435,-0.0194706,-0.426596,-0.0108584,0.00155994,0.0176711,-0.0333528,0.00251737,0.559849,-0.0312804,-0.0266325,-2.85275,-0.253021,0.286727,-9.76958,0.000738385,-0.00408325,-0.000291693,-0.171124,0.0429269,0.47841,1011.37,14
364539854047,9680,126,-1.66437,-0.0193825,-0.426715,-0.000726318,0.00451345,-0.00608063,-0.0346939,0.00337439,0.558535,-0.0312788,-0.0266334,-2.85273,-0.253021,0.286727,-9.76958,0.000738385,-0.00408325,-0.000291693,-0.171124,0.0429269,0.47841,1011.37,14
364549835739,9990,117,-1.66437,-0.0193825,-0.426715,-0.000726318,0.00451345,-0.00608063,-0.0346939,0.00337439,0.558535,-0.031285,-0.0266352,-2.85273,-0.252038,0.30178,-9.76713,-0.000259329,-0.00418,-0.00143286,-0.169437,0.0436647,0.476198,1011.37,14
364560176662,10345,120,-1.66438,-0.0194543,-0.426837,-0.000523158,-0.00350525,-0.0059829,-0.0368871,0.00546924,0.557761,-0.0312895,-0.0266349,-2.85273,-0.267413,0.282562,-9.76196,0.000561039,-0.00396179,-0.00230961,-0.170068,0.0439629,0.478864,1011.37,14
364570556970,10383,117,-1.66438,-0.0194543,-0.426837,-0.000523158,-0.00350525,-0.0059829,-0.0368871,0.00546924,0.557761,-0.0312953,-0.0266325,-2.85274,-0.265401,0.301086,-9.7382,0.00148296,-0.00483047,-0.000214562,-0.170068,0.0439629,0.478864,1011.37,14
364580476047,9912,124,-1.6644,-0.0193765,-0.426756,-0.00112915,0.00398331,0.00416107,-0.0378231,0.00603241,0.558495,-0.0312953,-0.0266325,-2.85274,-0.298158,0.303005,-9.77398,0.00142417,-0.0048388,0.00127422,-0.171631,0.0417335,0.477617,1011.33,14
364590054124,9583,119,-1.6644,-0.0193765,-0.426756,-0.00112915,0.00398331,0.00416107,-0.0378231,0.00603241,0.558495,-0.0312877,-0.0266412,-2.85272,-0.298158,0.303005,-9.77398,0.00142417,-0.0048388,0.00127422,-0.171631,0.0417335,0.477617,1011.33,14
364599848739,9787,121,-1.66422,-0.0195445,-0.427147,0.00931396,-0.00859947,-0.0200241,-0.049559,0.00630396,0.557407,-0.0312925,-0.0266534,-2.85268,-0.298198,0.266766,-9.7248,0.000193204,-0.00410868,0.00281191,-0.170205,0.0408569,0.477162,1011.33,14
364609938970,10103,115,-1.66422,-0.0195445,-0.427147,0.00931396,-0.00859947,-0.0200241,-0.049559,0.00630396,0.557407,-0.0312941,-0.0266586,-2.85264,-0.291256,0.296267,-9.7058,0.000413215,-0.00390199,0.00280619,-0.169582,0.0424608,0.476673,1011.34,14
364620004662,10055,123,-1.66433,-0.0195041,-0.426713,-0.00532459,0.00197184,0.0211777,-0.0375643,0.00430614,0.558993,-0.0312947,-0.0266699,-2.8526,-0.283375,0.29072,-9.73127,0.00148668,-0.00408501,-0.000104389,-0.171457,0.0440501,0.478031,1011.34,14
364629885124,9895,113,-1.66433,-0.0195041,-0.426713,-0.00532459,0.00197184,0.0211777,-0.0375643,0.00430614,0.558993,-0.0312938,-0.0266722,-2.8526,-0.289733,0.277893,-9.71506,0.000599993,-0.00407623,-0.00113991,-0.170783,0.0418016,0.47903,1011.3,14
364640329047,10428,126,-1.66442,-0.0194501,-0.426758,-0.00452881,0.00276175,-0.00229492,-0.0336673,0.00448984,0.558522,-0.0312906,-0.026675,-2.8526,-0.264453,0.262627,-9.75204,0.000376343,-0.00407358,-0.00145343,-0.169501,0.0435807,0.47668,1011.3,14
364649835354,9511,121,-1.66442,-0.0194501,-0.426758,-0.00452881,0.00276175,-0.00229492,-0.0336673,0.00448984,0.558522,-0.0312873,-0.0266721,-2.8526,-0.264453,0.262627,-9.75204,0.000376343,-0.00407358,-0.00145343,-0.169501,0.0435807,0.47668,1011.3,14
364659852124,10004,129,-1.66439,-0.0194572,-0.426727,0.00144159,-0.000345775,0.00151135,-0.0357936,0.00354739,0.559509,-0.0312895,-0.0266616,-2.85258,-0.266202,0.304968,-9.77726,-0.000106776,-0.0024876,6.68946e-05,-0.17053,0.0436581,0.477035,1011.3,14
364669842354,9995,125,-1.66439,-0.0194572,-0.426727,0.00144159,-0.000345775,0.00151135,-0.0357936,0.00354739,0.559509,-0.0312928,-0.0266614,-2.85255,-0.277186,0.296853,-9.75364,0.000483985,-0.0040999,0.00173731,-0.168992,0.0438135,0.477545,1011.3,14
364680180277,10348,117,-1.6643,-0.019523,-0.427388,0.00419312,-0.00336809,-0.0338409,-0.0516049,0.00554212,0.558141,-0.0312928,-0.0266614,-2.85255,-0.282609,0.296147,-9.7803,0.000484132,-0.00356967,0.00174168,-0.169692,0.0452488,0.478141,1011.3,14
364689825893,9654,111,-1.6643,-0.019523,-0.427388,0.00419312,-0.00336809,-0.0338409,-0.0516049,0.00554212,0.558141,-0.0312976,-0.0266648,-2.85247,-0.265158,0.253876,-9.75733,0.00142931,-0.00409814,0.00149203,-0.17059,0.0458934,0.477616,1011.32,14
364700107354,10270,122,-1.66439,-0.0194139,-0.426701,-0.00406901,0.00531742,0.0334938,-0.0368079,0.00522936,0.55884,-0.0312966,-0.0266642,-2.85245,-0.257182,0.29077,-9.73697,0.000555924,-0.00441891,0.000555577,-0.169973,0.0438187,0.476938,1011.32,14
364709831739,9727,117,-1.66439,-0.0194139,-0.426701,-0.00406901,0.00531742,0.0334938,-0.0368079,0.00522936,0.55884,-0.0312874,-0.0266667,-2.85241,-0.266956,0.316747,-9.72806,0.000657664,-0.00417163,-0.00263422,-0.169973,0.0438187,0.476938,1011.38,14
364720212277,10374,127,-1.66436,-0.019464,-0.426722,0.00155029,-0.002563,-0.00107422,-0.0363679,0.00418349,0.559147,-0.0312883,-0.0266696,-2.85242,-0.266956,0.316747,-9.72806,0.000657664,-0.00417163,-0.00263422,-0.169973,0.0438187,0.476938,1011.38,14
364729844047,9640,117,-1.66436,-0.019464,-0.426722,0.00155029,-0.002563,-0.00107422,-0.0363679,0.00418349,0.559147,-0.0312958,-0.0266629,-2.85241,-0.278884,0.301318,-9.75604,-9.94375e-05,-0.00324011,0.000381394,-0.172574,0.0433295,0.478142,1011.36,14
364739856277,9992,130,-1.66446,-0.0193831,-0.426058,-0.00485956,0.0039463,0.0323544,-0.0216711,0.00266451,0.562277,-0.0312992,-0.0266569,-2.8524,-0.278884,0.301318,-9.75604,-9.94375e-05,-0.00324011,0.000381394,-0.172574,0.0433295,0.478142,1011.36,14
364749821816,9986,115,-1.66446,-0.0193831,-0.426058,-0.00485956,0.0039463,0.0323544,-0.0216711,0.00266451,0.562277,-0.0313056,-0.0266551,-2.85239,-0.266177,0.289738,-9.75977,0.000462917,-0.00409549,0.00120259,-0.171295,0.0409296,0.478079,1011.36,14
364760039354,10208,123,-1.66441,-0.0194097,-0.426728,0.00240479,-0.00136137,-0.0342728,-0.0381342,0.0051847,0.559168,-0.0313087,-0.026662,-2.85236,-0.288778,0.287889,-9.76526,0.000498195,-0.00442452,0.0021585,-0.173152,0.0430941,0.4776,1011.36,14
364769975816,9945,118,-1.66441,-0.0194097,-0.426728,0.00240479,-0.00136137,-0.0342728,-0.0381342,0.0051847,0.559168,-0.0313098,-0.026666,-2.85235,-0.266195,0.28627,-9.71786,0.000477104,-0.00335438,0.00153332,-0.170035,0.0414942,0.477481,1011.36,14
364780148970,10166,125,-1.6642,-0.019588,-0.427385,0.0101318,-0.00869506,-0.0320551,-0.0496288,0.00373641,0.556916,-0.0313105,-0.0266613,-2.85232,-0.275589,0.279206,-9.72858,0.000416282,-0.0025952,-0.000269553,-0.170401,0.0457261,0.478489,1011.36,14
364790124354,9984,117,-1.6642,-0.019588,-0.427385,0.0101318,-0.00869506,-0.0320551,-0.0496288,0.00373641,0.556916,-0.0313074,-0.0266508,-2.85233,-0.271293,0.295782,-9.70768,0.000946271,-0.00323176,-0.000400848,-0.172551,0.0407035,0.476439,1011.43,14
364799854970,9713,130,-1.66444,-0.019358,-0.426807,-0.0120911,0.0117735,0.0296158,-0.039708,0.0088373,0.557825,-0.0313036,-0.0266478,-2.85231,-0.271293,0.295782,-9.70768,0.000946271,-0.00323176,-0.000400848,-0.172551,0.0407035,0.476439,1011.43,14
364809830047,9992,116,-1.66444,-0.019358,-0.426807,-0.0120911,0.0117735,0.0296158,-0.039708,0.0088373,0.557825,-0.0313003,-0.0266507,-2.8523,-0.257745,0.304801,-9.73198,0.00082105,-0.00471072,-0.00104281,-0.169917,0.0427847,0.476207,1011.43,14
364819848816,10006,127,-1.66439,-0.0194255,-0.426721,0.00254604,-0.00329245,0.00416638,-0.0346107,0.00306599,0.558882,-0.0312957,-0.0266485,-2.85229,-0.261712,0.306387,-9.72675,0.00125448,-0.0035438,-0.000729817,-0.169309,0.0451728,0.477647,1011.42,14
364829827508,9990,116,-1.66439,-0.0194255,-0.426721,0.00254604,-0.00329245,0.00416638,-0.0346107,0.00306599,0.558882,-0.0312895,-0.026644,-2.85227,-0.291542,0.301923,-9.75496,0.00133194,-0.00378355,0.00171131,-0.171066,0.0445519,0.47538,1011.42,14
364840238893,10403,127,-1.66444,-0.019454,-0.426785,-0.00274658,-0.00145674,-0.00327148,-0.0372011,0.00560514,0.559385,-0.0312898,-0.0266462,-2.85224,-0.272712,0.269669,-9.74101,0.000480159,-0.00516322,0.00162391,-0.170728,0.0424674,0.475912,1011.32,14
364849819893,9594,112,-1.66444,-0.019454,-0.426785,-0.00274658,-0.00145674,-0.00327148,-0.0372011,0.00560514,0.559385,-0.0312909,-0.0266494,-2.85223,-0.247206,0.30571,-9.75133,0.000372364,-0.00409817,0.0015301,-0.171357,0.0428647,0.476256,1011.32,14
364859990739,10157,126,-1.66437,-0.0194568,-0.426754,0.00359235,-0.000135513,0.00150989,-0.0368063,0.00428947,0.558596,-0.0312967,-0.0266522,-2.85221,-0.275004,0.294454,-9.73683,0.000957167,-0.00408495,-9.35149e-05,-0.168384,0.0409217,0.478942,1011.32,14
364869833970,9851,121,-1.66437,-0.0194568,-0.426754,0.00359235,-0.000135513,0.00150989,-0.0368063,0.00428947,0.558596,-0.0312985,-0.0266533,-2.85219,-0.287067,0.304079,-9.75915,0.000393722,-0.00492451,-0.000938347,-0.169714,0.0446141,0.477496,1011.32,14
364880008123,10163,130,-1.66421,-0.0195226,-0.426882,0.00796509,-0.00336924,-0.00652313,-0.0410702,0.00538439,0.557348,-0.0312997,-0.0266599,-2.85218,-0.287067,0.304079,-9.75915,0.000393722,-0.00492451,-0.000938347,-0.169714,0.0446141,0.477496,1011.32,14
364889843739,9837,125,-1.66421,-0.0195226,-0.426882,0.00796509,-0.00336924,-0.00652313,-0.0410702,0.00538439,0.557348,-0.0313046,-0.0266678,-2.85218,-0.272037,0.302926,-9.76404,0.000430139,-0.00408674,0.00014114,-0.174283,0.0428568,0.477316,1011.38,14
364900033816,10196,126,-1.66434,-0.0194465,-0.426759,-0.0064581,0.00371152,0.00598145,-0.0358761,0.00279866,0.559116,-0.0313054,-0.0266689,-2.85216,-0.265142,0.299458,-9.774,0.000853937,-0.00312619,0.000140503,-0.170983,0.0422915,0.47784,1011.38,14
364909828585,9797,120,-1.66434,-0.0194465,-0.426759,-0.0064581,0.00371152,0.00598145,-0.0358761,0.00279866,0.559116,-0.0313026,-0.0266662,-2.85215,-0.268589,0.288977,-9.77297,0.00154763,-0.00399858,0.00170226,-0.170661,0.0429506,0.475513,1011.4,14
364919957354,10132,118,-1.6644,-0.0194155,-0.426722,-0.00272217,0.00158396,0.00188599,-0.0348176,0.003239,0.559169,-0.0312921,-0.0266567,-2.85209,-0.275969,0.273772,-9.73741,0.000270129,-0.00249841,0.00175773,-0.170804,0.0444468,0.478412,1011.4,14
364929845970,9895,112,-1.6644,-0.0194155,-0.426722,-0.00272217,0.00158396,0.00188599,-0.0348176,0.003239,0.559169,-0.0312925,-0.0266531,-2.85208,-0.280679,0.296802,-9.74272,0.000344216,-0.00324197,0.000684239,-0.170789,0.0434227,0.476482,1011.4,14
364939940970,10081,125,-1.6643,-0.0194693,-0.427545,0.00473749,-0.00262388,-0.0401495,-0.0511656,0.00485481,0.558337,-0.0312989,-0.0266448,-2.85205,-0.280679,0.296802,-9.74272,0.000344216,-0.00324197,0.000684239,-0.170789,0.0434227,0.476482,1011.4,14
364949840200,9898,122,-1.6643,-0.0194693,-0.427545,0.00473749,-0.00262388,-0.0401495,-0.0511656,0.00485481,0.558337,-0.0312964,-0.0266445,-2.85204,-0.271958,0.304827,-9.74221,0.00147592,-0.00376935,-0.000423153,-0.16994,0.0440508,0.477899,1011.4,14
364959875739,10025,134,-1.66435,-0.0194579,-0.426708,-0.00256348,0.000587463,0.0428513,-0.0358213,0.00356448,0.558032,-0.0312924,-0.0266404,-2.85201,-0.272273,0.314063,-9.74425,0.000724881,-0.00386418,-0.000505797,-0.170708,0.0452626,0.476494,1011.4,14
364969913970,10054,122,-1.66435,-0.0194579,-0.426708,-0.00256348,0.000587463,0.0428513,-0.0358213,0.00356448,0.558032,-0.031293,-0.0266376,-2.852,-0.260373,0.305593,-9.72149,0.000835418,-0.00323411,-0.000397129,-0.171009,0.045338,0.477066,1011.4,14
364979865431,9944,128,-1.66421,-0.0196055,-0.427141,0.00666155,-0.00719979,-0.0211153,-0.052067,0.00615348,0.557859,-0.031297,-0.0266309,-2.85199,-0.260373,0.305593,-9.72149,0.000835418,-0.00323411,-0.000397129,-0.171009,0.045338,0.477066,1011.4,14
364989835431,9980,119,-1.66421,-0.0196055,-0.427141,0.00666155,-0.00719979,-0.0211153,-0.052067,0.00615348,0.557859,-0.0312974,-0.026633,-2.85198,-0.286312,0.302742,-9.74305,0.00123994,-0.00314487,0.00203502,-0.171793,0.0450141,0.47757,1011.33,14
365000207200,10364,128,-1.66425,-0.0195401,-0.426816,-0.00206299,0.0033494,0.016658,-0.040361,0.00584059,0.557598,-0.0312979,-0.0266336,-2.85195,-0.286312,0.302742,-9.74305,0.00123994,-0.00314487,0.00203502,-0.171793,0.0450141,0.47757,1011.33,14
365010019662,9807,131,-1.66425,-0.0195401,-0.426816,-0.00206299,0.0033494,0.016658,-0.040361,0.00584059,0.557598,-0.0312951,-0.0266263,-2.85189,-0.253824,0.299413,-9.74112,0.000972884,-0.00355728,0.000447456,-0.171915,0.0458246,0.4763,1011.34,14
365019935739,9922,127,-1.6644,-0.0193882,-0.426609,-0.00729515,0.00740478,0.0100824,-0.0336674,0.00351939,0.558687,-0.0312908,-0.0266231,-2.85186,-0.281923,0.293426,-9.76711,0.00075795,-0.00355727,0.000452565,-0.171915,0.0458246,0.4763,1011.34,14
365029838893,9908,121,-1.6644,-0.0193882,-0.426609,-0.00729515,0.00740478,0.0100824,-0.0336674,0.00351939,0.558687,-0.0312881,-0.0266229,-2.85185,-0.281923,0.293426,-9.76711,0.00075795,-0.00355727,0.000452565,-0.171915,0.0458246,0.4763,1011.34,14
365039850662,10004,130,-1.66414,-0.0195348,-0.427033,0.0134216,-0.00750217,-0.0216873,-0.0440369,0.00301685,0.556837,-0.0312773,-0.0266271,-2.85183,-0.286827,0.278099,-9.74119,0.00219762,-0.00407619,-0.00119788,-0.171137,0.0446901,0.478025,1011.37,14
365049825508,9985,117,-1.66414,-0.0195348,-0.427033,0.0134216,-0.00750217,-0.0216873,-0.0440369,0.00301685,0.556837,-0.031269,-0.0266303,-2.85183,-0.278392,0.277844,-9.76876,0.000408783,-0.00354939,-0.000491822,-0.174588,0.0446934,0.477741,1011.37,14
365059844739,10016,124,-1.6642,-0.0195395,-0.427252,-0.0031622,-0.000228246,-0.0107015,-0.0497914,0.00460722,0.557257,-0.0312626,-0.0266294,-2.85179,-0.269595,0.285562,-9.77694,0.00131343,-0.00409379,0.000967272,-0.169854,0.0466894,0.478078,1011.37,14
365069830816,9990,119,-1.6642,-0.0195395,-0.427252,-0.0031622,-0.000228246,-0.0107015,-0.0497914,0.00460722,0.557257,-0.0312583,-0.0266271,-2.85177,-0.269595,0.285562,-9.77694,0.00131343,-0.00409379,0.000967272,-0.169854,0.0466894,0.478078,1011.37,14
365080107969,10267,129,-1.66436,-0.0194778,-0.426711,-0.00791626,0.00315733,0.0277161,-0.0364696,0.00389113,0.559217,-0.0312558,-0.0266259,-2.85173,-0.281426,0.31617,-9.78127,0.000559024,-0.00355957,0.000674371,-0.171438,0.0439655,0.47859,1011.37,14
365090311585,10214,120,-1.66436,-0.0194778,-0.426711,-0.00791626,0.00315733,0.0277161,-0.0364696,0.00389113,0.559217,-0.0312572,-0.0266233,-2.85169,-0.262734,0.287442,-9.74395,-0.000615244,-0.00313283,0.000717508,-0.17079,0.0443635,0.478811,1011.36,14
365099845585,9526,124,-1.66413,-0.019551,-0.427039,0.0117371,-0.00374899,-0.0167938,-0.0446844,0.00230894,0.557424,-0.0312608,-0.0266207,-2.85166,-0.267641,0.294567,-9.76213,0.000430228,-0.00355209,0.000143804,-0.170651,0.0458888,0.478179,1011.36,14
365109834662,9995,117,-1.66413,-0.019551,-0.427039,0.0117371,-0.00374899,-0.0167938,-0.0446844,0.00230894,0.557424,-0.031261,-0.0266184,-2.85165,-0.267641,0.294567,-9.76213,0.000430228,-0.00355209,0.000143804,-0.170651,0.0458888,0.478179,1011.36,14
365119855431,10010,127,-1.66419,-0.0195577,-0.42734,-0.00315058,-0.000327519,-0.0146819,-0.0556403,0.00435917,0.556636,-0.0312559,-0.0266139,-2.85163,-0.283332,0.284829,-9.74506,0.00070227,-0.00460756,-0.00125581,-0.171347,0.0446829,0.478913,1011.32,14
365129838123,9991,120,-1.66419,-0.0195577,-0.42734,-0.00315058,-0.000327519,-0.0146819,-0.0556403,0.00435917,0.556636,-0.0312551,-0.0266163,-2.85162,-0.258368,0.311861,-9.74436,0.00092022,-0.004078,-0.000936052,-0.172656,0.0454901,0.478083,1011.32,14
365140228046,10395,121,-1.66433,-0.0194238,-0.426635,-0.00712891,0.00685682,0.0360916,-0.0347019,0.00277646,0.559007,-0.0312572,-0.0266188,-2.8516,-0.259876,0.294808,-9.76833,0.0002334,-0.003242,0.000687977,-0.17084,0.0453962,0.479702,1011.31,14
365149989585,9766,113,-1.66433,-0.0194238,-0.426635,-0.00712891,0.00685682,0.0360916,-0.0347019,0.00277646,0.559007,-0.0312598,-0.0266187,-2.8516,-0.259245,0.306409,-9.74635,0.00101157,-0.00495524,0.00171245,-0.171244,0.0438967,0.477222,1011.31,14
365160375662,10372,128,-1.66419,-0.0195226,-0.427207,0.00720796,-0.00481878,-0.0278916,-0.0532558,0.00560547,0.557346,-0.0312642,-0.0266189,-2.85155,-0.273152,0.271183,-9.74815,0.000695493,-0.00463213,0.00172578,-0.171154,0.0418942,0.477522,1011.31,14
365170422585,10063,114,-1.66419,-0.0195226,-0.427207,0.00720796,-0.00481878,-0.0278916,-0.0532558,0.00560547,0.557346,-0.0312638,-0.0266212,-2.85153,-0.251987,0.305815,-9.75905,0.000356873,-0.00409548,0.00120538,-0.169952,0.0416535,0.47756,1011.31,14
365179851892,9406,130,-1.66424,-0.0195403,-0.427258,-0.0026062,-0.000904655,-0.00262146,-0.0500546,0.00557292,0.557278,-0.0312687,-0.026622,-2.85152,-0.251987,0.305815,-9.75905,0.000356873,-0.00409548,0.00120538,-0.169952,0.0416535,0.47756,1011.31,14
365189931508,10100,115,-1.66424,-0.0195403,-0.427258,-0.0026062,-0.000904655,-0.00262146,-0.0500546,0.00557292,0.557278,-0.0312732,-0.026623,-2.8515,-0.265723,0.284578,-9.75788,0.00116959,-0.00408319,-0.000314311,-0.170841,0.0450961,0.477298,1011.31,14
365200267354,10326,125,-1.66436,-0.0194597,-0.426754,-0.00588844,0.0039315,0.0245855,-0.035487,0.00402718,0.558344,-0.031275,-0.0266231,-2.85149,-0.250873,0.314956,-9.79688,0.000974669,-0.00334532,0.000555633,-0.168875,0.0406043,0.478636,1011.38,14
365209821739,9567,112,-1.66436,-0.0194597,-0.426754,-0.00588844,0.0039315,0.0245855,-0.035487,0.00402718,0.558344,-0.0312773,-0.0266185,-2.85149,-0.281811,0.292857,-9.76451,0.000652282,-0.00376555,0.000557689,-0.172737,0.0417302,0.478055,1011.38,14
365219985277,10151,124,-1.66434,-0.0194434,-0.426726,0.00102539,0.000833702,0.00144958,-0.0349584,0.00270292,0.558844,-0.0312761,-0.0266174,-2.85148,-0.285596,0.310026,-9.74257,0.000455302,-0.00409289,0.000887104,-0.170167,0.0426876,0.478296,1011.33,14
365229919739,9945,115,-1.66434,-0.0194434,-0.426726,0.00102539,0.000833702,0.00144958,-0.0349584,0.00270292,0.558844,-0.0312745,-0.0266195,-2.85146,-0.259013,0.297739,-9.74649,0.00121982,-0.00356333,0.00139931,-0.171898,0.0401402,0.476813,1011.33,14
365239924662,9997,123,-1.66434,-0.0193255,-0.426475,-0.00012207,0.00574802,0.0122375,-0.0333991,0.00372145,0.557684,-0.0312726,-0.0266171,-2.85146,-0.260218,0.287239,-9.71947,0.00115882,-0.00366173,-0.00030199,-0.171898,0.0401402,0.476813,1011.33,14
365249835200,9907,120,-1.66434,-0.0193255,-0.426475,-0.00012207,0.00574802,0.0122375,-0.0333991,0.00372145,0.557684,-0.0312664,-0.0266111,-2.85144,-0.260218,0.287239,-9.71947,0.00115882,-0.00366173,-0.00030199,-0.171898,0.0401402,0.476813,1011.33,14
365259995662,10156,130,-1.66448,-0.0195411,-0.426624,-0.00710449,-0.0110363,-0.00765076,-0.0341222,0.00576802,0.558436,-0.0312655,-0.0266005,-2.85141,-0.26329,0.315285,-9.71874,0.0004484,-0.00302695,0.000682498,-0.169519,0.0450855,0.478534,1011.37,14
365269837046,9850,119,-1.66448,-0.0195411,-0.426624,-0.00710449,-0.0110363,-0.00765076,-0.0341222,0.00576802,0.558436,-0.0312709,-0.0265934,-2.8514,-0.26329,0.315285,-9.71874,0.0004484,-0.00302695,0.000682498,-0.169519,0.0450855,0.478534,1011.37,14
365280063200,10224,124,-1.6642,-0.0195929,-0.427081,0.0136777,-0.00252687,-0.0222517,-0.0483969,0.00640166,0.557576,-0.0312773,-0.0265899,-2.85137,-0.256093,0.274828,-9.75376,0.00147584,-0.00408236,-0.000425731,-0.171291,0.0448488,0.478192,1011.37,14
365289915046,9857,118,-1.6642,-0.0195929,-0.427081,0.0136777,-0.00252687,-0.0222517,-0.0483969,0.00640166,0.557576,-0.0312755,-0.0265898,-2.85137,-0.260324,0.299652,-9.77255,0.000448311,-0.00334633,0.000679867,-0.169724,0.042997,0.479564,1011.37,14
365299853354,9924,131,-1.66437,-0.0194112,-0.426727,-0.00899658,0.00930309,0.0181335,-0.0344316,0.00295034,0.559087,-0.0312762,-0.0265881,-2.85135,-0.260324,0.299652,-9.77255,0.000448311,-0.00334633,0.000679867,-0.169724,0.042997,0.479564,1011.37,14
365309833431,9989,120,-1.66437,-0.0194112,-0.426727,-0.00899658,0.00930309,0.0181335,-0.0344316,0.00295034,0.559087,-0.0312768,-0.0265873,-2.85132,-0.273963,0.311594,-9.76358,0.00152962,-0.00409551,0.00116845,-0.167802,0.0433163,0.479582,1011.4,14
365319854969,10012,128,-1.66412,-0.0195155,-0.426978,0.0122245,-0.0050869,-0.012239,-0.0435168,0.00286952,0.556648,-0.0312757,-0.0265895,-2.8513,-0.282777,0.315288,-9.74865,0.00129374,-0.00408939,0.000434105,-0.171017,0.0429203,0.479207,1011.4,14
365330200200,10359,120,-1.66412,-0.0195155,-0.426978,0.0122245,-0.0050869,-0.012239,-0.0435168,0.00286952,0.556648,-0.0312787,-0.0265936,-2.85125,-0.256909,0.288209,-9.74462,0.000466248,-0.00409557,0.0012116,-0.172891,0.0434888,0.478234,1011.37,14
365339855585,9641,128,-1.66415,-0.0195469,-0.42699,-0.00130615,-0.00160761,-0.000660706,-0.0447524,0.00532367,0.557423,-0.0312789,-0.0265969,-2.85123,-0.265826,0.296874,-9.75835,0.00088244,-0.00462764,0.000867622,-0.170398,0.0466854,0.478577,1011.37,14
365350009123,10176,113,-1.66415,-0.0195469,-0.42699,-0.00130615,-0.00160761,-0.000660706,-0.0447524,0.00532367,0.557423,-0.03128,-0.0265979,-2.85123,-0.254191,0.296114,-9.75446,0.00028502,-0.00407797,-0.000917286,-0.171517,0.0426247,0.47626,1011.33,14
365359871200,9849,123,-1.66418,-0.0196136,-0.427281,-0.00136021,-0.00325366,-0.0141863,-0.0515295,0.00364404,0.557553,-0.0312825,-0.0265982,-2.8512,-0.26424,0.295633,-9.75787,-0.000120351,-0.00396928,-0.000370951,-0.169829,0.0441427,0.476456,1011.33,14
365370086431,10217,122,-1.66418,-0.0196136,-0.427281,-0.00136021,-0.00325366,-0.0141863,-0.0515295,0.00364404,0.557553,-0.0312801,-0.0265969,-2.85118,-0.26424,0.295633,-9.75787,-0.000120351,-0.00396928,-0.000370951,-0.169829,0.0441427,0.476456,1011.33,14
365379859508,9758,130,-1.66444,-0.0194642,-0.426768,-0.0132141,0.00765104,0.0262924,-0.0351974,0.00371905,0.558466,-0.0312778,-0.0265979,-2.85117,-0.262974,0.298224,-9.7734,0.00151157,-0.00462085,0.000633483,-0.170734,0.0473294,0.478113,1011.33,14
365390104585,10256,126,-1.66444,-0.0194642,-0.426768,-0.0132141,0.00765104,0.0262924,-0.0351974,0.00371905,0.558466,-0.0312693,-0.0266019,-2.85113,-0.253789,0.290711,-9.76309,0.00169927,-0.00408499,-0.000113779,-0.170331,0.0464487,0.478173,1011.33,14
365400212969,10109,127,-1.66429,-0.0194597,-0.426713,0.00728934,0.000218982,0.00269427,-0.03701,0.00428537,0.558823,-0.0312603,-0.0266021,-2.85109,-0.25463,0.320099,-9.75082,0.00108904,-0.00558673,0.000852742,-0.172349,0.0482933,0.477695,1011.36,14
365410344738,10139,120,-1.66429,-0.0194597,-0.426713,0.00728934,0.000218982,0.00269427,-0.03701,0.00428537,0.558823,-0.0312535,-0.0266055,-2.85105,-0.265136,0.285819,-9.73091,0.0017271,-0.00302695,0.000639361,-0.172349,0.0482933,0.477695,1011.36,14
365419862200,9500,130,-1.66433,-0.0194526,-0.426747,-0.00220337,0.000363827,-0.00173492,-0.0376028,0.00579101,0.557749,-0.0312488,-0.0266018,-2.85104,-0.242167,0.292355,-9.7223,-0.000651537,-0.00460899,-0.000358307,-0.17167,0.0460633,0.476453,1011.36,14
365429831815,9987,116,-1.66433,-0.0194526,-0.426747,-0.00220337,0.000363827,-0.00173492,-0.0376028,0.00579101,0.557749,-0.0312499,-0.0266001,-2.85102,-0.242167,0.292355,-9.7223,-0.000651537,-0.00460899,-0.000358307,-0.17167,0.0460633,0.476453,1011.36,14
365440509508,10671,126,-1.66437,-0.019417,-0.426691,-0.00215076,0.00173505,0.00272914,-0.0344745,0.00249345,0.559264,-0.0312537,-0.0266003,-2.851,-0.260403,0.290253,-9.70741,0.000740319,-0.00301993,-0.000179261,-0.170119,0.0446954,0.47735,1011.33,14
365449839431,9327,123,-1.66437,-0.019417,-0.426691,-0.00215076,0.00173505,0.00272914,-0.0344745,0.00249345,0.559264,-0.0312501,-0.0265969,-2.85099,-0.260403,0.290253,-9.70741,0.000740319,-0.00301993,-0.000179261,-0.170119,0.0446954,0.47735,1011.33,14
365459839585,10008,121,-1.66437,-0.019417,-0.426691,-0.00215076,0.00173505,0.00272914,-0.0344745,0.00249345,0.559264,-0.0312456,-0.0265926,-2.85097,-0.27647,0.309715,-9.74109,0.00123823,-0.00386348,-0.00115857,-0.17143,0.0433236,0.478824,1011.36,14
365469840277,9997,122,-1.66417,-0.0195757,-0.426952,0.0104858,-0.00812254,-0.0133942,-0.0440609,0.0049452,0.558031,-0.0312532,-0.026595,-2.85096,-0.280099,0.294103,-9.72923,0.000118202,-0.00462598,0.000466411,-0.170111,0.0430935,0.477577,1011.36,14
365479861892,10021,125,-1.66441,-0.0194345,-0.426779,-0.0117885,0.00688371,0.00844901,-0.0377479,0.00713894,0.558243,-0.0312542,-0.0265952,-2.85095,-0.266299,0.30656,-9.73744,0.000448104,-0.00409113,0.000673729,-0.170233,0.0433242,0.478704,1011.36,14
365489875123,10019,120,-1.66441,-0.0194345,-0.426779,-0.0117885,0.00688371,0.00844901,-0.0377479,0.00713894,0.558243,-0.0312564,-0.0265938,-2.85091,-0.256628,0.315472,-9.77299,0.0014979,-0.00335489,0.000228305,-0.170465,0.0438022,0.478956,1011.36,14
365500036661,10151,129,-1.66431,-0.019476,-0.427365,0.00513306,-0.00212774,-0.0299973,-0.05653,0.0036916,0.556695,-0.0312475,-0.0265991,-2.8509,-0.287495,0.292592,-9.75583,0.00147195,-0.00493089,-0.000540977,-0.172367,0.0459582,0.479518,1011.36,14
365510162354,10109,143,-1.66431,-0.019476,-0.427365,0.00513306,-0.00212774,-0.0299973,-0.05653,0.0036916,0.556695,-0.0312475,-0.0265991,-2.8509,-0.275326,0.294352,-9.7328,0.00151154,-0.00472686,0.000632609,-0.171102,0.0432416,0.479053,1011.35,14
365520357738,10209,132,-1.66433,-0.0193817,-0.426682,-0.00120908,0.00460016,0.0333136,-0.0353978,0.00265418,0.558996,-0.0312364,-0.0266119,-2.85087,-0.275326,0.294352,-9.7328,0.00151154,-0.00472686,0.000632609,-0.171102,0.0432416,0.479053,1011.35,14
365529862277,9493,139,-1.66433,-0.0193817,-0.426682,-0.00120908,0.00460016,0.0333136,-0.0353978,0.00265418,0.558996,-0.031232,-0.0266155,-2.85083,-0.275326,0.294352,-9.7328,0.00151154,-0.00472686,0.000632609,-0.171102,0.0432416,0.479053,1011.35,14
365539996969,10146,131,-1.6644,-0.0194023,-0.426816,-0.00334473,-0.00105639,-0.00690155,-0.0383959,0.00551111,0.559115,-0.0312304,-0.0266189,-2.8508,-0.26679,0.290632,-9.72931,-4.46311e-05,-0.0040999,0.00175514,-0.170897,0.0441301,0.478012,1011.4,14
365550021200,10032,126,-1.6644,-0.0194023,-0.426816,-0.00334473,-0.00105639,-0.00690155,-0.0383959,0.00551111,0.559115,-0.0312303,-0.0266199,-2.85078,-0.270073,0.298769,-9.76174,0.000792526,-0.00409552,0.00119464,-0.16917,0.0439583,0.479394,1011.4,14
365560368277,10345,128,-1.66413,-0.0195762,-0.427167,0.0129801,-0.00848007,-0.0170826,-0.0491434,0.00624253,0.557334,-0.0312358,-0.0266168,-2.85073,-0.249376,0.293709,-9.77691,0.00045185,-0.00376767,0.000784722,-0.170534,0.0440396,0.47928,1011.34,14
365569827584,9467,119,-1.66413,-0.0195762,-0.427167,0.0129801,-0.00848007,-0.0170826,-0.0491434,0.00624253,0.557334,-0.031234,-0.0266219,-2.85072,-0.288703,0.297434,-9.77858,0.00151556,-0.00430266,0.000751643,-0.174242,0.0429269,0.478516,1011.34,14
365579853892,10012,128,-1.66436,-0.0192041,-0.426766,-0.0116394,0.0190525,0.0205093,-0.0353208,0.00321686,0.557771,-0.0312319,-0.0266266,-2.85072,-0.286108,0.263319,-9.77601,0.0011666,-0.00462359,9.75985e-06,-0.17202,0.0420509,0.477953,1011.34,14
